header_stamp_sec, header_stamp_nanosec, header_frame_id, runner_detected, x, y, phi, vx_b, ax_b, relative_distance_to_airshield_x, relative_distance_to_airshield_y, relative_speed_to_airshield_x, relative_acceleration_to_airshield_x, stamp_lidar_sec, stamp_lidar_nanosec, stamp_zed_sec, stamp_zed_nanosec
1707477032,890368140,base_link,False,-3.522218942642212,0.0,0.0,3.523021314612071,0.0,3.522218942642212,0.0,-0.0,-0.0,1707477032,811291904,0,0
1707477032,940367353,base_link,False,-3.522218942642212,0.0,0.0,3.5233422634000147,0.0,3.522218942642212,0.0,-0.0,-0.0,1707477032,861710592,0,0
1707477032,990353855,base_link,False,-3.522218942642212,0.0,0.0,3.523262026203029,0.0,3.522218942642212,0.0,-0.0,-0.0,1707477032,912139008,0,0
1707477033,40353068,base_link,False,-3.522218942642212,0.0,0.0,3.5206141987024937,0.0,3.522218942642212,0.0,-0.0,-0.0,1707477032,962570240,0,0
1707477033,90401871,base_link,False,-3.522218942642212,0.0,0.0,3.5217375194602965,0.0,3.522218942642212,0.0,-0.0,-0.0,1707477033,12997888,0,0
1707477033,140355965,base_link,False,-3.522218942642212,0.0,0.0,3.523021314612071,0.0,3.522218942642212,0.0,-0.0,-0.0,1707477033,63443968,0,0
1707477033,190347635,base_link,False,-3.522218942642212,0.0,0.0,3.5225398914301556,0.0,3.522218942642212,0.0,-0.0,-0.0,1707477033,113872640,0,0
1707477033,240380932,base_link,False,-3.522218942642212,0.0,0.0,3.524064398172888,0.0,3.522218942642212,0.0,-0.0,-0.0,1707477033,164299264,0,0
1707477033,290367015,base_link,False,-3.522218942642212,0.0,0.0,3.5227003658241274,0.0,3.522218942642212,0.0,-0.0,-0.0,1707477033,214832896,0,0
1707477033,340346602,base_link,False,-3.522218942642212,0.0,0.0,3.519330403550719,0.0,3.522218942642212,0.0,-0.0,-0.0,1707477033,265147136,0,0
1707477033,390353429,base_link,False,-3.522218942642212,0.0,0.0,3.5235027377939865,0.0,3.522218942642212,0.0,-0.0,-0.0,1707477033,315576576,0,0
1707477033,440366052,base_link,False,-3.522218942642212,0.0,0.0,3.5216572822633103,0.0,3.522218942642212,0.0,-0.0,-0.0,1707477033,366007040,0,0
1707477033,490346338,base_link,False,-3.522218942642212,0.0,0.0,3.5239039237789163,0.0,3.522218942642212,0.0,-0.0,-0.0,1707477033,416440064,0,0
1707477033,540378308,base_link,False,-3.522218942642212,0.0,0.0,3.52382368658193,0.0,3.522218942642212,0.0,-0.0,-0.0,1707477033,466869248,0,0
1707477033,590378290,base_link,False,-3.522218942642212,0.0,0.0,3.522218942642212,0.0,3.522218942642212,0.0,-0.0,-0.0,1707477033,517309952,0,0
1707477033,640384627,base_link,False,-3.522218942642212,0.0,0.0,3.5216572822633103,0.0,3.522218942642212,0.0,-0.0,-0.0,1707477033,567739392,0,0
1707477033,690347452,base_link,False,-3.522218942642212,0.0,0.0,3.5233422634000147,0.0,3.522218942642212,0.0,-0.0,-0.0,1707477033,618176768,0,0
1707477033,740361193,base_link,False,-3.522218942642212,0.0,0.0,3.522218942642212,0.0,3.522218942642212,0.0,-0.0,-0.0,1707477033,668599040,0,0
1707477033,790346018,base_link,False,-3.522218942642212,0.0,0.0,3.520052538323592,0.0,3.522218942642212,0.0,-0.0,-0.0,1707477033,719015936,0,0
1707477033,840346070,base_link,False,-3.522218942642212,0.0,0.0,3.523262026203029,0.0,3.522218942642212,0.0,-0.0,-0.0,1707477033,769450240,0,0
1707477033,890355620,base_link,False,-3.522218942642212,0.0,0.0,3.524064398172888,0.0,3.522218942642212,0.0,-0.0,-0.0,1707477033,819879680,0,0
1707477033,940364262,base_link,False,-3.522218942642212,0.0,0.0,3.5206141987024937,0.0,3.522218942642212,0.0,-0.0,-0.0,1707477033,870314752,0,0
1707477033,990345246,base_link,False,-3.522218942642212,0.0,0.0,3.521095621884409,0.0,3.522218942642212,0.0,-0.0,-0.0,1707477033,920748544,0,0
1707477034,40346765,base_link,False,-3.522218942642212,0.0,0.0,3.521978231051254,0.0,3.522218942642212,0.0,-0.0,-0.0,1707477033,971166464,0,0
1707477034,90369795,base_link,False,-3.522218942642212,0.0,0.0,3.5227003658241274,0.0,3.522218942642212,0.0,-0.0,-0.0,1707477034,21610240,0,0
1707477034,140356855,base_link,False,-3.522218942642212,0.0,0.0,3.520854910293451,0.0,3.522218942642212,0.0,-0.0,-0.0,1707477034,72043776,0,0
1707477034,190366406,base_link,False,-3.522218942642212,0.0,0.0,3.52245965423317,0.0,3.522218942642212,0.0,-0.0,-0.0,1707477034,122462464,0,0
1707477034,240357517,base_link,False,-3.522218942642212,0.0,0.0,3.524064398172888,0.0,3.522218942642212,0.0,-0.0,-0.0,1707477034,172896256,0,0
1707477034,290356381,base_link,False,-3.522218942642212,0.0,0.0,3.523021314612071,0.0,3.522218942642212,0.0,-0.0,-0.0,1707477034,223328512,0,0
1707477034,340378084,base_link,False,-3.522218942642212,0.0,0.0,3.523262026203029,0.0,3.522218942642212,0.0,-0.0,-0.0,1707477034,273747968,0,0
1707477034,390376250,base_link,False,-3.522218942642212,0.0,0.0,3.522299179839198,0.0,3.522218942642212,0.0,-0.0,-0.0,1707477034,324174336,0,0
1707477034,440360377,base_link,False,-3.522218942642212,0.0,0.0,3.5227806030211135,0.0,3.522218942642212,0.0,-0.0,-0.0,1707477034,374606080,0,0
1707477034,490354841,base_link,False,-3.522218942642212,0.0,0.0,3.5216572822633103,0.0,3.522218942642212,0.0,-0.0,-0.0,1707477034,425048064,0,0
1707477034,540359153,base_link,False,-3.522218942642212,0.0,0.0,3.520854910293451,0.0,3.522218942642212,0.0,-0.0,-0.0,1707477034,475485440,0,0
1707477034,590353896,base_link,False,-3.522218942642212,0.0,0.0,3.523262026203029,0.0,3.522218942642212,0.0,-0.0,-0.0,1707477034,525904384,0,0
1707477034,640357300,base_link,False,-3.522218942642212,0.0,0.0,3.5206141987024937,0.0,3.522218942642212,0.0,-0.0,-0.0,1707477034,576325376,0,0
1707477034,690362241,base_link,False,-3.522218942642212,0.0,0.0,3.5214968078693385,0.0,3.522218942642212,0.0,-0.0,-0.0,1707477034,626752768,0,0
1707477034,740346159,base_link,False,-3.522218942642212,0.0,0.0,3.522218942642212,0.0,3.522218942642212,0.0,-0.0,-0.0,1707477034,677204736,0,0
1707477034,790356966,base_link,False,-3.522218942642212,0.0,0.0,3.5225398914301556,0.0,3.522218942642212,0.0,-0.0,-0.0,1707477034,727628032,0,0
1707477034,840360789,base_link,False,-3.522218942642212,0.0,0.0,3.524064398172888,0.0,3.522218942642212,0.0,-0.0,-0.0,1707477034,778056960,0,0
1707477034,890360352,base_link,False,-3.522218942642212,0.0,0.0,3.5206141987024937,0.0,3.522218942642212,0.0,-0.0,-0.0,1707477034,828481280,0,0
1707477034,940346644,base_link,False,-3.522218942642212,0.0,0.0,3.5203734871115357,0.0,3.522218942642212,0.0,-0.0,-0.0,1707477034,878929152,0,0
1707477034,990345299,base_link,False,-3.522218942642212,0.0,0.0,3.524064398172888,0.0,3.522218942642212,0.0,-0.0,-0.0,1707477034,929335040,0,0
1707477035,40346607,base_link,False,-3.522218942642212,0.0,0.0,3.5201327755205782,0.0,3.522218942642212,0.0,-0.0,-0.0,1707477034,979767040,0,0
1707477035,90362932,base_link,False,-3.522218942642212,0.0,0.0,3.522218942642212,0.0,3.522218942642212,0.0,-0.0,-0.0,1707477035,30225152,0,0
1707477035,140349015,base_link,False,-3.522218942642212,0.0,0.0,3.5214968078693385,0.0,3.522218942642212,0.0,-0.0,-0.0,1707477035,80658176,0,0
1707477035,190346832,base_link,False,-3.522218942642212,0.0,0.0,3.522218942642212,0.0,3.522218942642212,0.0,-0.0,-0.0,1707477035,131058176,0,0
1707477035,240345766,base_link,False,-3.522218942642212,0.0,0.0,3.5225398914301556,0.0,3.522218942642212,0.0,-0.0,-0.0,1707477035,181497088,0,0
1707477035,290372986,base_link,False,-3.522218942642212,0.0,0.0,3.5227003658241274,0.0,3.522218942642212,0.0,-0.0,-0.0,1707477035,231920640,0,0
1707477035,340365565,base_link,False,-3.522218942642212,0.0,0.0,3.523262026203029,0.0,3.522218942642212,0.0,-0.0,-0.0,1707477035,282359552,0,0
1707477035,390384334,base_link,False,-3.522218942642212,0.0,0.0,3.523021314612071,0.0,3.522218942642212,0.0,-0.0,-0.0,1707477035,332772864,0,0
1707477035,440357356,base_link,False,-3.522218942642212,0.0,0.0,3.5235027377939865,0.0,3.522218942642212,0.0,-0.0,-0.0,1707477035,383220224,0,0
1707477035,490361389,base_link,False,-3.522218942642212,0.0,0.0,3.520854910293451,0.0,3.522218942642212,0.0,-0.0,-0.0,1707477035,433646592,0,0
1707477035,540343001,base_link,False,-3.522218942642212,0.0,0.0,3.523262026203029,0.0,3.522218942642212,0.0,-0.0,-0.0,1707477035,484070656,0,0
1707477035,590346545,base_link,False,-3.522218942642212,0.0,0.0,3.524064398172888,0.0,3.522218942642212,0.0,-0.0,-0.0,1707477035,534491648,0,0
1707477035,640349321,base_link,False,-3.522218942642212,0.0,0.0,3.5235027377939865,0.0,3.522218942642212,0.0,-0.0,-0.0,1707477035,584925184,0,0
1707477035,690401685,base_link,False,-3.522218942642212,0.0,0.0,3.524064398172888,0.0,3.522218942642212,0.0,-0.0,-0.0,1707477035,635355648,0,0
1707477035,740370027,base_link,False,-3.522218942642212,0.0,0.0,3.5206944358994794,0.0,3.522218942642212,0.0,-0.0,-0.0,1707477035,685791488,0,0
1707477035,790380276,base_link,False,-3.522218942642212,0.0,0.0,3.520052538323592,0.0,3.522218942642212,0.0,-0.0,-0.0,1707477035,736216832,0,0
1707477035,840423282,base_link,False,-3.522218942642212,0.0,0.0,3.524064398172888,0.0,3.522218942642212,0.0,-0.0,-0.0,1707477035,736216832,0,0
1707477035,890373814,base_link,False,-3.522218942642212,0.0,0.0,3.52245965423317,0.0,3.522218942642212,0.0,-0.0,-0.0,1707477035,786640896,0,0
1707477035,940366602,base_link,False,-3.522218942642212,0.0,0.0,3.52029324991455,0.0,3.522218942642212,0.0,-0.0,-0.0,1707477035,837074688,0,0
1707477035,990367631,base_link,False,-3.522218942642212,0.0,0.0,3.5205339615055076,0.0,3.522218942642212,0.0,-0.0,-0.0,1707477035,887504640,0,0
1707477036,40362374,base_link,False,-3.522218942642212,0.0,0.0,3.523262026203029,0.0,3.522218942642212,0.0,-0.0,-0.0,1707477035,937947904,0,0
1707477036,90366616,base_link,False,-3.522218942642212,0.0,0.0,3.520854910293451,0.0,3.522218942642212,0.0,-0.0,-0.0,1707477035,988373248,0,0
1707477036,140427292,base_link,False,-3.522218942642212,0.0,0.0,3.5201327755205782,0.0,3.522218942642212,0.0,-0.0,-0.0,1707477036,38798592,0,0
1707477036,190390117,base_link,False,-3.522218942642212,0.0,0.0,3.5235027377939865,0.0,3.522218942642212,0.0,-0.0,-0.0,1707477036,89226496,0,0
1707477036,240350078,base_link,False,-3.522218942642212,0.0,0.0,3.523262026203029,0.0,3.522218942642212,0.0,-0.0,-0.0,1707477036,139653120,0,0
1707477036,290358232,base_link,False,-3.522218942642212,0.0,0.0,3.5216572822633103,0.0,3.522218942642212,0.0,-0.0,-0.0,1707477036,190092544,0,0
1707477036,340352975,base_link,False,-3.522218942642212,0.0,0.0,3.5225398914301556,0.0,3.522218942642212,0.0,-0.0,-0.0,1707477036,240524544,0,0
1707477036,390351769,base_link,False,-3.522218942642212,0.0,0.0,3.5243051097638456,0.0,3.522218942642212,0.0,-0.0,-0.0,1707477036,290958080,0,0
1707477036,440365440,base_link,False,-3.522218942642212,0.0,0.0,3.5214968078693385,0.0,3.522218942642212,0.0,-0.0,-0.0,1707477036,341390080,0,0
1707477036,490347332,base_link,False,-3.522218942642212,0.0,0.0,3.52029324991455,0.0,3.522218942642212,0.0,-0.0,-0.0,1707477036,391808512,0,0
1707477036,540352971,base_link,False,-3.522218942642212,0.0,0.0,3.521256096278381,0.0,3.522218942642212,0.0,-0.0,-0.0,1707477036,442242816,0,0
1707477036,590341708,base_link,False,-3.522218942642212,0.0,0.0,3.5217375194602965,0.0,3.522218942642212,0.0,-0.0,-0.0,1707477036,492662272,0,0
1707477036,640352795,base_link,False,-3.522218942642212,0.0,0.0,3.520854910293451,0.0,3.522218942642212,0.0,-0.0,-0.0,1707477036,543099392,0,0
1707477036,690343488,base_link,False,-3.522218942642212,0.0,0.0,3.5225398914301556,0.0,3.522218942642212,0.0,-0.0,-0.0,1707477036,593549056,0,0
1707477036,740342771,base_link,False,-3.522218942642212,0.0,0.0,3.521416570672353,0.0,3.522218942642212,0.0,-0.0,-0.0,1707477036,644059136,0,0
1707477036,790355115,base_link,False,-3.522218942642212,0.0,0.0,3.52245965423317,0.0,3.522218942642212,0.0,-0.0,-0.0,1707477036,694381568,0,0
1707477036,840352163,base_link,False,-3.522218942642212,0.0,0.0,3.52245965423317,0.0,3.522218942642212,0.0,-0.0,-0.0,1707477036,744815872,0,0
1707477036,890343484,base_link,False,-3.522218942642212,0.0,0.0,3.522218942642212,0.0,3.522218942642212,0.0,-0.0,-0.0,1707477036,795256320,0,0
1707477036,940339764,base_link,False,-3.522218942642212,0.0,0.0,3.524064398172888,0.0,3.522218942642212,0.0,-0.0,-0.0,1707477036,845686528,0,0
1707477036,990343308,base_link,False,-3.522218942642212,0.0,0.0,3.5243853469608317,0.0,3.522218942642212,0.0,-0.0,-0.0,1707477036,896111872,0,0
1707477037,40353556,base_link,False,-3.522218942642212,0.0,0.0,3.52382368658193,0.0,3.522218942642212,0.0,-0.0,-0.0,1707477036,946536960,0,0
1707477037,90368415,base_link,False,-3.522218942642212,0.0,0.0,3.5206141987024937,0.0,3.522218942642212,0.0,-0.0,-0.0,1707477036,996978176,0,0
1707477037,140357151,base_link,False,-3.522218942642212,0.0,0.0,3.5195711151416766,0.0,3.522218942642212,0.0,-0.0,-0.0,1707477037,47407616,0,0
1707477037,190351127,base_link,False,-3.522218942642212,0.0,0.0,3.52029324991455,0.0,3.522218942642212,0.0,-0.0,-0.0,1707477037,97832448,0,0
1707477037,240373388,base_link,False,-3.522218942642212,0.0,0.0,3.5216572822633103,0.0,3.522218942642212,0.0,-0.0,-0.0,1707477037,148253696,0,0
1707477037,290341940,base_link,False,-3.522218942642212,0.0,0.0,3.5243051097638456,0.0,3.522218942642212,0.0,-0.0,-0.0,1707477037,198688512,0,0
1707477037,340343459,base_link,False,-3.522218942642212,0.0,0.0,3.520854910293451,0.0,3.522218942642212,0.0,-0.0,-0.0,1707477037,249116416,0,0
1707477037,390352590,base_link,False,-3.522218942642212,0.0,0.0,3.523262026203029,0.0,3.522218942642212,0.0,-0.0,-0.0,1707477037,299539968,0,0
1707477037,440348381,base_link,False,-3.522218942642212,0.0,0.0,3.5235027377939865,0.0,3.522218942642212,0.0,-0.0,-0.0,1707477037,349972480,0,0
1707477037,490346337,base_link,False,-3.522218942642212,0.0,0.0,3.523021314612071,0.0,3.522218942642212,0.0,-0.0,-0.0,1707477037,400414464,0,0
1707477037,540340801,base_link,False,-3.522218942642212,0.0,0.0,3.520052538323592,0.0,3.522218942642212,0.0,-0.0,-0.0,1707477037,450848000,0,0
1707477037,590353005,base_link,False,-3.522218942642212,0.0,0.0,3.523101551809057,0.0,3.522218942642212,0.0,-0.0,-0.0,1707477037,501283840,0,0
1707477037,640340694,base_link,False,-3.522218942642212,0.0,0.0,3.5217375194602965,0.0,3.522218942642212,0.0,-0.0,-0.0,1707477037,551707904,0,0
1707477037,690368404,base_link,False,-3.522218942642212,0.0,0.0,3.5235027377939865,0.0,3.522218942642212,0.0,-0.0,-0.0,1707477037,602126336,0,0
1707477037,740344569,base_link,False,-3.522218942642212,0.0,0.0,3.524064398172888,0.0,3.522218942642212,0.0,-0.0,-0.0,1707477037,652553216,0,0
1707477037,790350348,base_link,False,-3.522218942642212,0.0,0.0,3.520052538323592,0.0,3.522218942642212,0.0,-0.0,-0.0,1707477037,702996736,0,0
1707477037,840379664,base_link,False,-3.522218942642212,0.0,0.0,3.52245965423317,0.0,3.522218942642212,0.0,-0.0,-0.0,1707477037,753406976,0,0
1707477037,890355270,base_link,False,-3.522218942642212,0.0,0.0,3.5235027377939865,0.0,3.522218942642212,0.0,-0.0,-0.0,1707477037,803841792,0,0
1707477037,940350991,base_link,False,-3.522218942642212,0.0,0.0,3.523021314612071,0.0,3.522218942642212,0.0,-0.0,-0.0,1707477037,854285056,0,0
1707477037,990347480,base_link,False,-3.522218942642212,0.0,0.0,3.523021314612071,0.0,3.522218942642212,0.0,-0.0,-0.0,1707477037,904700160,0,0
1707477038,40350535,base_link,False,-3.522218942642212,0.0,0.0,3.522218942642212,0.0,3.522218942642212,0.0,-0.0,-0.0,1707477037,955144704,0,0
1707477038,90439009,base_link,False,-3.522218942642212,0.0,0.0,3.5233422634000147,0.0,3.522218942642212,0.0,-0.0,-0.0,1707477038,5583360,0,0
1707477038,140354619,base_link,False,-3.522218942642212,0.0,0.0,3.522218942642212,0.0,3.522218942642212,0.0,-0.0,-0.0,1707477038,55992064,0,0
1707477038,190369268,base_link,False,-3.522218942642212,0.0,0.0,3.523262026203029,0.0,3.522218942642212,0.0,-0.0,-0.0,1707477038,106424320,0,0
1707477038,240364221,base_link,False,-3.522218942642212,0.0,0.0,3.523021314612071,0.0,3.522218942642212,0.0,-0.0,-0.0,1707477038,156852480,0,0
1707477038,290374749,base_link,False,-3.522218942642212,0.0,0.0,3.5201327755205782,0.0,3.522218942642212,0.0,-0.0,-0.0,1707477038,207302656,0,0
1707477038,340342323,base_link,False,-3.522218942642212,0.0,0.0,3.523262026203029,0.0,3.522218942642212,0.0,-0.0,-0.0,1707477038,257714432,0,0
1707477038,390353899,base_link,False,-3.522218942642212,0.0,0.0,3.523262026203029,0.0,3.522218942642212,0.0,-0.0,-0.0,1707477038,308154368,0,0
1707477038,440351576,base_link,False,-3.522218942642212,0.0,0.0,3.523262026203029,0.0,3.522218942642212,0.0,-0.0,-0.0,1707477038,358571776,0,0
1707477038,490351488,base_link,False,-3.522218942642212,0.0,0.0,3.520854910293451,0.0,3.522218942642212,0.0,-0.0,-0.0,1707477038,409018624,0,0
1707477038,540367324,base_link,False,-3.522218942642212,0.0,0.0,3.524064398172888,0.0,3.522218942642212,0.0,-0.0,-0.0,1707477038,459435776,0,0
1707477038,590351660,base_link,False,-3.522218942642212,0.0,0.0,3.5216572822633103,0.0,3.522218942642212,0.0,-0.0,-0.0,1707477038,509876480,0,0
1707477038,640358347,base_link,False,-3.522218942642212,0.0,0.0,3.5225398914301556,0.0,3.522218942642212,0.0,-0.0,-0.0,1707477038,560300288,0,0
1707477038,690352671,base_link,False,-3.522218942642212,0.0,0.0,3.523262026203029,0.0,3.522218942642212,0.0,-0.0,-0.0,1707477038,610731520,0,0
1707477038,740364666,base_link,False,-3.522218942642212,0.0,0.0,3.5237434493849444,0.0,3.522218942642212,0.0,-0.0,-0.0,1707477038,661155072,0,0
1707477038,790346558,base_link,False,-3.522218942642212,0.0,0.0,3.523101551809057,0.0,3.522218942642212,0.0,-0.0,-0.0,1707477038,711581184,0,0
1707477038,840347029,base_link,False,-3.522218942642212,0.0,0.0,3.5214968078693385,0.0,3.522218942642212,0.0,-0.0,-0.0,1707477038,762011392,0,0
1707477038,890350433,base_link,False,-3.522218942642212,0.0,0.0,3.5203734871115357,0.0,3.522218942642212,0.0,-0.0,-0.0,1707477038,812452352,0,0
1707477038,940355234,base_link,False,-3.522218942642212,0.0,0.0,3.52245965423317,0.0,3.522218942642212,0.0,-0.0,-0.0,1707477038,862873088,0,0
1707477038,990360733,base_link,False,-3.522218942642212,0.0,0.0,3.523262026203029,0.0,3.522218942642212,0.0,-0.0,-0.0,1707477038,913310208,0,0
1707477039,40344301,base_link,False,-3.522218942642212,0.0,0.0,3.5214968078693385,0.0,3.522218942642212,0.0,-0.0,-0.0,1707477038,963739648,0,0
1707477039,90366214,base_link,False,-3.522218942642212,0.0,0.0,3.5206141987024937,0.0,3.522218942642212,0.0,-0.0,-0.0,1707477039,14173440,0,0
1707477039,140353135,base_link,False,-3.522218942642212,0.0,0.0,3.5225398914301556,0.0,3.522218942642212,0.0,-0.0,-0.0,1707477039,64606464,0,0
1707477039,190357377,base_link,False,-3.522218942642212,0.0,0.0,3.5235027377939865,0.0,3.522218942642212,0.0,-0.0,-0.0,1707477039,115021312,0,0
1707477039,240354914,base_link,False,-3.522218942642212,0.0,0.0,3.5203734871115357,0.0,3.522218942642212,0.0,-0.0,-0.0,1707477039,165463808,0,0
1707477039,290355175,base_link,False,-3.522218942642212,0.0,0.0,3.5201327755205782,0.0,3.522218942642212,0.0,-0.0,-0.0,1707477039,215887872,0,0
1707477039,340351665,base_link,False,-3.522218942642212,0.0,0.0,3.5235027377939865,0.0,3.522218942642212,0.0,-0.0,-0.0,1707477039,266309120,0,0
1707477039,390373438,base_link,False,-3.522218942642212,0.0,0.0,3.524064398172888,0.0,3.522218942642212,0.0,-0.0,-0.0,1707477039,316740352,0,0
1707477039,440362943,base_link,False,-3.522218942642212,0.0,0.0,3.523262026203029,0.0,3.522218942642212,0.0,-0.0,-0.0,1707477039,367165696,0,0
1707477039,490368582,base_link,False,-3.522218942642212,0.0,0.0,3.522218942642212,0.0,3.522218942642212,0.0,-0.0,-0.0,1707477039,417603584,0,0
1707477039,540346772,base_link,False,-3.522218942642212,0.0,0.0,3.5227003658241274,0.0,3.522218942642212,0.0,-0.0,-0.0,1707477039,468043776,0,0
1707477039,590345357,base_link,False,-3.522218942642212,0.0,0.0,3.5235027377939865,0.0,3.522218942642212,0.0,-0.0,-0.0,1707477039,518470400,0,0
1707477039,640345059,base_link,False,-3.522218942642212,0.0,0.0,3.520854910293451,0.0,3.522218942642212,0.0,-0.0,-0.0,1707477039,568898304,0,0
1707477039,690357822,base_link,False,-3.522218942642212,0.0,0.0,3.5225398914301556,0.0,3.522218942642212,0.0,-0.0,-0.0,1707477039,619329024,0,0
1707477039,740342648,base_link,False,-3.522218942642212,0.0,0.0,3.524064398172888,0.0,3.522218942642212,0.0,-0.0,-0.0,1707477039,669757440,0,0
1707477039,790360719,base_link,False,-3.522218942642212,0.0,0.0,3.523262026203029,0.0,3.522218942642212,0.0,-0.0,-0.0,1707477039,720178432,0,0
1707477039,840373692,base_link,False,-3.522218942642212,0.0,0.0,3.524064398172888,0.0,3.522218942642212,0.0,-0.0,-0.0,1707477039,770606080,0,0
1707477039,890362708,base_link,False,-3.522218942642212,0.0,0.0,3.523262026203029,0.0,3.522218942642212,0.0,-0.0,-0.0,1707477039,821052416,0,0
1707477039,940355076,base_link,False,-3.522218942642212,0.0,0.0,3.523262026203029,0.0,3.522218942642212,0.0,-0.0,-0.0,1707477039,871470592,0,0
1707477039,990352474,base_link,False,-3.522218942642212,0.0,0.0,3.522218942642212,0.0,3.522218942642212,0.0,-0.0,-0.0,1707477039,921896448,0,0
1707477040,40342817,base_link,False,-3.522218942642212,0.0,0.0,3.5225398914301556,0.0,3.522218942642212,0.0,-0.0,-0.0,1707477039,972326656,0,0
1707477040,90342799,base_link,False,-3.522218942642212,0.0,0.0,3.5235027377939865,0.0,3.522218942642212,0.0,-0.0,-0.0,1707477040,22757120,0,0
1707477040,140340196,base_link,False,-3.522218942642212,0.0,0.0,3.522218942642212,0.0,3.522218942642212,0.0,-0.0,-0.0,1707477040,73187328,0,0
1707477040,190362528,base_link,False,-3.522218942642212,0.0,0.0,3.52245965423317,0.0,3.522218942642212,0.0,-0.0,-0.0,1707477040,123617280,0,0
1707477040,240344001,base_link,False,-3.522218942642212,0.0,0.0,3.522218942642212,0.0,3.522218942642212,0.0,-0.0,-0.0,1707477040,174049792,0,0
1707477040,290343214,base_link,False,-3.522218942642212,0.0,0.0,3.521175859081395,0.0,3.522218942642212,0.0,-0.0,-0.0,1707477040,224477696,0,0
1707477040,340344034,base_link,False,-3.522218942642212,0.0,0.0,3.523262026203029,0.0,3.522218942642212,0.0,-0.0,-0.0,1707477040,274906112,0,0
1707477040,390479093,base_link,False,-3.522218942642212,0.0,0.0,3.5218979938542683,0.0,3.522218942642212,0.0,-0.0,-0.0,1707477040,325335808,0,0
1707477040,440344207,base_link,False,-3.522218942642212,0.0,0.0,3.5217375194602965,0.0,3.522218942642212,0.0,-0.0,-0.0,1707477040,375776512,0,0
1707477040,490354525,base_link,False,-3.522218942642212,0.0,0.0,3.522218942642212,0.0,3.522218942642212,0.0,-0.0,-0.0,1707477040,426198784,0,0
1707477040,540388661,base_link,False,-3.522218942642212,0.0,0.0,3.522299179839198,0.0,3.522218942642212,0.0,-0.0,-0.0,1707477040,476650240,0,0
1707477040,590343453,base_link,False,-3.522218942642212,0.0,0.0,3.523262026203029,0.0,3.522218942642212,0.0,-0.0,-0.0,1707477040,527070976,0,0
1707477040,640362852,base_link,False,-3.522218942642212,0.0,0.0,3.5225398914301556,0.0,3.522218942642212,0.0,-0.0,-0.0,1707477040,577487104,0,0
1707477040,690352636,base_link,False,-3.522218942642212,0.0,0.0,3.523021314612071,0.0,3.522218942642212,0.0,-0.0,-0.0,1707477040,627921920,0,0
1707477040,740349195,base_link,False,-3.522218942642212,0.0,0.0,3.523021314612071,0.0,3.522218942642212,0.0,-0.0,-0.0,1707477040,678355712,0,0
1707477040,790349666,base_link,False,-3.522218942642212,0.0,0.0,3.52245965423317,0.0,3.522218942642212,0.0,-0.0,-0.0,1707477040,728776960,0,0
1707477040,840416488,base_link,False,-3.522218942642212,0.0,0.0,3.52382368658193,0.0,3.522218942642212,0.0,-0.0,-0.0,1707477040,779214848,0,0
1707477040,890345159,base_link,False,-3.522218942642212,0.0,0.0,3.520854910293451,0.0,3.522218942642212,0.0,-0.0,-0.0,1707477040,829636096,0,0
1707477040,940346538,base_link,False,-3.522218942642212,0.0,0.0,3.520052538323592,0.0,3.522218942642212,0.0,-0.0,-0.0,1707477040,880069120,0,0
1707477040,990346519,base_link,False,-3.522218942642212,0.0,0.0,3.52245965423317,0.0,3.522218942642212,0.0,-0.0,-0.0,1707477040,930496256,0,0
1707477041,40355651,base_link,False,-3.522218942642212,0.0,0.0,3.52245965423317,0.0,3.522218942642212,0.0,-0.0,-0.0,1707477040,980939264,0,0
1707477041,90346553,base_link,False,-3.522218942642212,0.0,0.0,3.520854910293451,0.0,3.522218942642212,0.0,-0.0,-0.0,1707477041,31357184,0,0
1707477041,140345836,base_link,False,-3.522218942642212,0.0,0.0,3.5198118267326346,0.0,3.522218942642212,0.0,-0.0,-0.0,1707477041,81785856,0,0
1707477041,190354688,base_link,False,-3.522218942642212,0.0,0.0,3.518207082792916,0.0,3.522218942642212,0.0,-0.0,-0.0,1707477041,132220928,0,0
1707477041,240372968,base_link,False,-3.522218942642212,0.0,0.0,3.52245965423317,0.0,3.522218942642212,0.0,-0.0,-0.0,1707477041,182655232,0,0
1707477041,290351089,base_link,False,-3.522218942642212,0.0,0.0,3.5233422634000147,0.0,3.522218942642212,0.0,-0.0,-0.0,1707477041,233078272,0,0
1707477041,340342899,base_link,False,-3.522218942642212,0.0,0.0,3.5235027377939865,0.0,3.522218942642212,0.0,-0.0,-0.0,1707477041,283519744,0,0
1707477041,390371237,base_link,False,-3.522218942642212,0.0,0.0,3.523021314612071,0.0,3.522218942642212,0.0,-0.0,-0.0,1707477041,333934336,0,0
1707477041,440369473,base_link,False,-3.522218942642212,0.0,0.0,3.522218942642212,0.0,3.522218942642212,0.0,-0.0,-0.0,1707477041,384367360,0,0
1707477041,490361632,base_link,False,-3.522218942642212,0.0,0.0,3.5198920639296203,0.0,3.522218942642212,0.0,-0.0,-0.0,1707477041,434825728,0,0
1707477041,540346946,base_link,False,-3.522218942642212,0.0,0.0,3.5225398914301556,0.0,3.522218942642212,0.0,-0.0,-0.0,1707477041,485230592,0,0
1707477041,590347207,base_link,False,-3.522218942642212,0.0,0.0,3.5225398914301556,0.0,3.522218942642212,0.0,-0.0,-0.0,1707477041,535668224,0,0
1707477041,640374218,base_link,False,-3.522218942642212,0.0,0.0,3.5201327755205782,0.0,3.522218942642212,0.0,-0.0,-0.0,1707477041,586081536,0,0
1707477041,690347659,base_link,False,-3.522218942642212,0.0,0.0,3.521095621884409,0.0,3.522218942642212,0.0,-0.0,-0.0,1707477041,636534016,0,0
1707477041,740350575,base_link,False,-3.522218942642212,0.0,0.0,3.522299179839198,0.0,3.522218942642212,0.0,-0.0,-0.0,1707477041,636534016,0,0
1707477041,790367109,base_link,False,-3.522218942642212,0.0,0.0,3.5216572822633103,0.0,3.522218942642212,0.0,-0.0,-0.0,1707477041,686955264,0,0
1707477041,840432744,base_link,False,-3.522218942642212,0.0,0.0,3.5214968078693385,0.0,3.522218942642212,0.0,-0.0,-0.0,1707477041,737377280,0,0
1707477041,890354151,base_link,False,-3.522218942642212,0.0,0.0,3.5235027377939865,0.0,3.522218942642212,0.0,-0.0,-0.0,1707477041,787806208,0,0
1707477041,940363492,base_link,False,-3.522218942642212,0.0,0.0,3.5225398914301556,0.0,3.522218942642212,0.0,-0.0,-0.0,1707477041,838244352,0,0
1707477041,990392319,base_link,False,-3.522218942642212,0.0,0.0,3.5235027377939865,0.0,3.522218942642212,0.0,-0.0,-0.0,1707477041,888680192,0,0
1707477042,40353677,base_link,False,-3.522218942642212,0.0,0.0,3.5214968078693385,0.0,3.522218942642212,0.0,-0.0,-0.0,1707477041,939102464,0,0
1707477042,90348141,base_link,False,-3.522218942642212,0.0,0.0,3.5233422634000147,0.0,3.522218942642212,0.0,-0.0,-0.0,1707477041,989520896,0,0
1707477042,140346656,base_link,False,-3.522218942642212,0.0,0.0,3.524064398172888,0.0,3.522218942642212,0.0,-0.0,-0.0,1707477042,39950336,0,0
1707477042,190357673,base_link,False,-3.522218942642212,0.0,0.0,3.5235829749909726,0.0,3.522218942642212,0.0,-0.0,-0.0,1707477042,90396672,0,0
1707477042,240376722,base_link,False,-3.522218942642212,0.0,0.0,3.52245965423317,0.0,3.522218942642212,0.0,-0.0,-0.0,1707477042,140820480,0,0
1707477042,290384806,base_link,False,-3.522218942642212,0.0,0.0,3.523262026203029,0.0,3.522218942642212,0.0,-0.0,-0.0,1707477042,191251968,0,0
1707477042,340374311,base_link,False,-3.522218942642212,0.0,0.0,3.5217375194602965,0.0,3.522218942642212,0.0,-0.0,-0.0,1707477042,241675008,0,0
1707477042,390345796,base_link,False,-3.522218942642212,0.0,0.0,3.5246260585517892,0.0,3.522218942642212,0.0,-0.0,-0.0,1707477042,292109824,0,0
1707477042,440361213,base_link,False,-3.522218942642212,0.0,0.0,3.520854910293451,0.0,3.522218942642212,0.0,-0.0,-0.0,1707477042,342528256,0,0
1707477042,490385920,base_link,False,-3.522218942642212,0.0,0.0,3.5235027377939865,0.0,3.522218942642212,0.0,-0.0,-0.0,1707477042,392958720,0,0
1707477042,540376891,base_link,False,-3.522218942642212,0.0,0.0,3.524064398172888,0.0,3.522218942642212,0.0,-0.0,-0.0,1707477042,443396864,0,0
1707477042,590343767,base_link,False,-3.522218942642212,0.0,0.0,3.5215770450663246,0.0,3.522218942642212,0.0,-0.0,-0.0,1707477042,493841664,0,0
1707477042,640349755,base_link,False,-3.522218942642212,0.0,0.0,3.5241446353698738,0.0,3.522218942642212,0.0,-0.0,-0.0,1707477042,544252160,0,0
1707477042,690357001,base_link,False,-3.522218942642212,0.0,0.0,3.522299179839198,0.0,3.522218942642212,0.0,-0.0,-0.0,1707477042,594678528,0,0
1707477042,740343014,base_link,False,-3.522218942642212,0.0,0.0,3.5227806030211135,0.0,3.522218942642212,0.0,-0.0,-0.0,1707477042,645111808,0,0
1707477042,790342227,base_link,False,-3.522218942642212,0.0,0.0,3.523262026203029,0.0,3.522218942642212,0.0,-0.0,-0.0,1707477042,695557376,0,0
1707477042,840358063,base_link,False,-3.522218942642212,0.0,0.0,3.52245965423317,0.0,3.522218942642212,0.0,-0.0,-0.0,1707477042,745982464,0,0
1707477042,890364471,base_link,False,-3.522218942642212,0.0,0.0,3.5235027377939865,0.0,3.522218942642212,0.0,-0.0,-0.0,1707477042,796406016,0,0
1707477042,940361868,base_link,False,-3.522218942642212,0.0,0.0,3.522218942642212,0.0,3.522218942642212,0.0,-0.0,-0.0,1707477042,846832640,0,0
1707477042,990354237,base_link,False,-3.522218942642212,0.0,0.0,3.5201327755205782,0.0,3.522218942642212,0.0,-0.0,-0.0,1707477042,897278976,0,0
1707477043,40345139,base_link,False,-3.522218942642212,0.0,0.0,3.5235027377939865,0.0,3.522218942642212,0.0,-0.0,-0.0,1707477042,947690752,0,0
1707477043,90365515,base_link,False,-3.522218942642212,0.0,0.0,3.521978231051254,0.0,3.522218942642212,0.0,-0.0,-0.0,1707477042,998140928,0,0
1707477043,140386170,base_link,False,-3.522218942642212,0.0,0.0,3.5235027377939865,0.0,3.522218942642212,0.0,-0.0,-0.0,1707477043,48556800,0,0
1707477043,190359471,base_link,False,-3.522218942642212,0.0,0.0,3.520854910293451,0.0,3.522218942642212,0.0,-0.0,-0.0,1707477043,99003392,0,0
1707477043,240347021,base_link,False,-3.522218942642212,0.0,0.0,3.52245965423317,0.0,3.522218942642212,0.0,-0.0,-0.0,1707477043,149427200,0,0
1707477043,290345675,base_link,False,-3.522218942642212,0.0,0.0,3.5198118267326346,0.0,3.522218942642212,0.0,-0.0,-0.0,1707477043,199852288,0,0
1707477043,340377715,base_link,False,-3.522218942642212,0.0,0.0,3.520854910293451,0.0,3.522218942642212,0.0,-0.0,-0.0,1707477043,250268928,0,0
1707477043,390362820,base_link,False,-3.522218942642212,0.0,0.0,3.5229410774150853,0.0,3.522218942642212,0.0,-0.0,-0.0,1707477043,300702208,0,0
1707477043,440361615,base_link,False,-3.522218942642212,0.0,0.0,3.5217375194602965,0.0,3.522218942642212,0.0,-0.0,-0.0,1707477043,351153152,0,0
1707477043,490359641,base_link,False,-3.522218942642212,0.0,0.0,3.5237434493849444,0.0,3.522218942642212,0.0,-0.0,-0.0,1707477043,401562368,0,0
1707477043,540355362,base_link,False,-3.522218942642212,0.0,0.0,3.5227003658241274,0.0,3.522218942642212,0.0,-0.0,-0.0,1707477043,452005888,0,0
1707477043,590352201,base_link,False,-3.522218942642212,0.0,0.0,3.5225398914301556,0.0,3.522218942642212,0.0,-0.0,-0.0,1707477043,502418944,0,0
1707477043,640351623,base_link,False,-3.522218942642212,0.0,0.0,3.521978231051254,0.0,3.522218942642212,0.0,-0.0,-0.0,1707477043,552847360,0,0
1707477043,690355097,base_link,False,-3.522218942642212,0.0,0.0,3.523262026203029,0.0,3.522218942642212,0.0,-0.0,-0.0,1707477043,603317504,0,0
1707477043,740354590,base_link,False,-3.522218942642212,0.0,0.0,3.5214968078693385,0.0,3.522218942642212,0.0,-0.0,-0.0,1707477043,653711616,0,0
1707477043,790356108,base_link,False,-3.522218942642212,0.0,0.0,3.521256096278381,0.0,3.522218942642212,0.0,-0.0,-0.0,1707477043,704151808,0,0
1707477043,840356998,base_link,False,-3.522218942642212,0.0,0.0,3.524064398172888,0.0,3.522218942642212,0.0,-0.0,-0.0,1707477043,754576128,0,0
1707477043,890363196,base_link,False,-3.522218942642212,0.0,0.0,3.523021314612071,0.0,3.522218942642212,0.0,-0.0,-0.0,1707477043,805000704,0,0
1707477043,940359476,base_link,False,-3.522218942642212,0.0,0.0,3.523262026203029,0.0,3.522218942642212,0.0,-0.0,-0.0,1707477043,855437568,0,0
1707477043,990348073,base_link,False,-3.522218942642212,0.0,0.0,3.523021314612071,0.0,3.522218942642212,0.0,-0.0,-0.0,1707477043,905869824,0,0
1707477044,40344492,base_link,False,-3.522218942642212,0.0,0.0,3.523262026203029,0.0,3.522218942642212,0.0,-0.0,-0.0,1707477043,956286464,0,0
1707477044,90364449,base_link,False,-3.522218942642212,0.0,0.0,3.523021314612071,0.0,3.522218942642212,0.0,-0.0,-0.0,1707477044,6742528,0,0
1707477044,140374279,base_link,False,-3.522218942642212,0.0,0.0,3.5227806030211135,0.0,3.522218942642212,0.0,-0.0,-0.0,1707477044,57152768,0,0
1707477044,190365111,base_link,False,-3.522218942642212,0.0,0.0,3.52245965423317,0.0,3.522218942642212,0.0,-0.0,-0.0,1707477044,107575040,0,0
1707477044,240425996,base_link,False,-3.522218942642212,0.0,0.0,3.5201327755205782,0.0,3.522218942642212,0.0,-0.0,-0.0,1707477044,158099712,0,0
1707477044,290346286,base_link,False,-3.522218942642212,0.0,0.0,3.520854910293451,0.0,3.522218942642212,0.0,-0.0,-0.0,1707477044,208455680,0,0
1707477044,340347036,base_link,False,-3.522218942642212,0.0,0.0,3.52029324991455,0.0,3.522218942642212,0.0,-0.0,-0.0,1707477044,258870528,0,0
1707477044,390378029,base_link,False,-3.522218942642212,0.0,0.0,3.5233422634000147,0.0,3.522218942642212,0.0,-0.0,-0.0,1707477044,309301248,0,0
1707477044,440359083,base_link,False,-3.522218942642212,0.0,0.0,3.523021314612071,0.0,3.522218942642212,0.0,-0.0,-0.0,1707477044,359730944,0,0
1707477044,490343978,base_link,False,-3.522218942642212,0.0,0.0,3.52382368658193,0.0,7.305070877075195,0.0,-0.0,-0.0,1707477044,410162688,0,0
1707477044,540359325,base_link,False,-7.305070877075195,0.0,0.0,7.304509216696294,0.0,7.225918292999268,0.0,-0.0,-0.0,1707477044,460599040,0,0
1707477044,590362101,base_link,False,-7.225918292999268,0.0,0.0,7.225918292999268,0.0,7.151373863220215,0.0,-0.0,-0.0,1707477044,511039232,0,0
1707477044,640348742,base_link,False,-7.151373863220215,0.0,0.0,7.1516948120081585,0.0,7.077376365661621,0.0,-0.0,-0.0,1707477044,561460992,0,0
1707477044,690371144,base_link,False,-7.077376365661621,0.0,0.0,7.078660160813396,0.0,7.008914947509766,0.0,-0.0,-0.0,1707477044,611876352,0,0
1707477044,740354083,base_link,False,-7.008914947509766,0.0,0.0,7.009155659100723,0.0,6.940506458282471,0.0,-0.0,-0.0,1707477044,662316800,0,0
1707477044,790365170,base_link,False,-6.940506458282471,0.0,0.0,6.942351913813146,0.0,6.8686628341674805,0.0,-0.0,-0.0,1707477044,712739328,0,0
1707477044,840352231,base_link,False,-6.8686628341674805,0.0,0.0,6.866496429848861,0.0,6.798060417175293,0.0,-0.0,-0.0,1707477044,763189760,0,0
1707477044,890369394,base_link,False,-6.798060417175293,0.0,0.0,6.798060417175293,0.0,6.7297468185424805,0.0,-0.0,-0.0,1707477044,813614080,0,0
1707477044,940361763,base_link,False,-6.7297468185424805,0.0,0.0,6.727419939829889,0.0,6.620296001434326,0.0,-0.0,-0.0,1707477044,864034816,0,0
1707477044,990354690,base_link,False,-6.620296001434326,0.0,0.0,6.621339084995143,0.0,6.567370891571045,0.0,-0.0,-0.0,1707477044,914473472,0,0
1707477045,40358583,base_link,False,-6.567395394566826,0.0,0.0,6.56662405969393,-3.505784140736609e-09,6.567370891571045,0.0,-0.0,-0.0,1707477044,964888832,0,0
1707477045,90344736,base_link,False,-6.567434660816128,0.0,0.0,6.566377271060378,-4.397747499729188e-09,6.429618651587964,0.0,1.2927179992001978,0.4375805450336247,1707477045,15324672,0,0
1707477045,140347232,base_link,False,-6.429680877424382,0.0,0.0,6.4294767292283534,1.2927179997787184,6.400179631276231,0.0,0.8873085895236492,0.13880790006054677,1707477045,65750272,0,0
1707477045,190400853,base_link,False,-6.4002030263402325,0.0,0.0,6.399249450238877,0.8873085842136641,6.271969910070606,0.0,1.9318693454772793,1.3277522681010288,1707477045,116178944,0,0
1707477045,240347684,base_link,False,-6.271970917940255,0.0,0.0,6.271921751418651,1.9318693456378766,6.253319916902691,0.0,0.98615139842649,-0.27237681970534555,1707477045,166616576,0,0
1707477045,290364498,base_link,False,-6.253278843836406,0.0,0.0,6.252189980392652,0.9861513907317572,6.105864013225931,0.0,2.252056048579907,2.2074035064350834,1707477045,217034752,0,0
1707477045,340344644,base_link,False,-6.1058451782300684,0.0,0.0,6.104870940280751,2.252056044104363,6.084992585472524,0.0,1.1141010522367534,-0.5486271513597538,1707477045,267467776,0,0
1707477045,390369280,base_link,False,-6.085036701799352,0.0,0.0,6.084036268004645,1.114101046446978,5.954621283374977,0.0,2.094518658313597,1.8740022725411016,1707477045,317896192,0,0
1707477045,440358227,base_link,False,-5.95467176473777,0.0,0.0,5.9543013489712076,2.0945186576547044,5.8994212198216385,0.0,1.4882882776360085,0.09391057421933402,1707477045,368327680,0,0
1707477045,490361491,base_link,False,-5.899466766837138,0.0,0.0,5.897564675737321,1.4882882575444742,5.810156732471675,0.0,1.6930437521577595,0.6223210695862008,1707477045,418785792,0,0
1707477045,540352742,base_link,False,-5.810249376921606,0.0,0.0,5.808837576785111,1.6930437419014848,5.718606510488208,0.0,1.8076332629229377,0.8484977605198927,1707477045,469199616,0,0
1707477045,590345251,base_link,False,-5.718687343875383,0.0,0.0,5.7181924040044745,1.8076332618190705,5.623960390670792,0.0,1.893889523946576,0.9693355430688761,1707477045,519623680,0,0
1707477045,640360598,base_link,False,-5.624011789143406,0.0,0.0,5.622688954661474,1.8938895136107625,5.540806244084688,0.0,1.7675281519632255,0.4816493573114078,1707477045,570052352,0,0
1707477045,690379368,base_link,False,-5.54086472548235,0.0,0.0,5.54024310161357,1.767528150052927,5.46061275444325,0.0,1.6709941979243044,0.14248000919260762,1707477045,620475136,0,0
1707477045,740360142,base_link,False,-5.46064877383713,0.0,0.0,5.460932664125521,1.6709941980389253,5.3947418479265234,0.0,1.4327001045810057,-0.5514091394729593,1707477045,670917632,0,0
1707477045,790342174,base_link,False,-5.3947301401323475,0.0,0.0,5.394461349059726,1.4327001042299718,5.321238780406253,0.0,1.4403006203424191,-0.45159611317686194,1707477045,721358080,0,0
1707477045,840342365,base_link,False,-5.321276170670707,0.0,0.0,5.320652669106058,1.440300618260222,5.225111912121754,0.0,1.7572550987353683,0.5144366864162553,1707477045,771760640,0,0
1707477045,890353103,base_link,False,-5.225128584006316,0.0,0.0,5.223497030186416,1.757255081988896,5.138227922897509,0.0,1.7606544084871345,0.4508148250577113,1707477045,822197504,0,0
1707477045,940344703,base_link,False,-5.138237055428398,0.0,0.0,5.137945278754668,1.7606544081281394,5.058195684723497,0.0,1.6652947364328736,0.11438542827036324,1707477045,872622592,0,0
1707477045,990347967,base_link,False,-5.058216509393267,0.0,0.0,5.05803917115062,1.6652947362751862,4.979016800861331,0.0,1.6127869556427312,-0.051900534633382595,1707477045,923058944,0,0
1707477046,40351930,base_link,False,-4.979004123034442,0.0,0.0,4.977596197225592,1.6127869426518526,4.905707550026834,0.0,1.5101463977825325,-0.3377708625455783,1707477045,973484032,0,0
1707477046,90380967,base_link,False,-4.905704416761904,0.0,0.0,4.905241405955646,1.510146396523262,4.838063870817195,0.0,1.3907786664924788,-0.6307059857455624,1707477046,23930112,0,0
1707477046,140354338,base_link,False,-4.838045643259456,0.0,0.0,4.838174466156861,1.390778666602848,4.7715169508620034,0.0,1.32889472893502,-0.7174795223811908,1707477046,74350080,0,0
1707477046,190386727,base_link,False,-4.7714514215869235,0.0,0.0,4.77106970331593,1.328894727647397,4.687953890766387,0.0,1.5411357924521807,-0.007937821567200243,1707477046,124777728,0,0
1707477046,240351857,base_link,False,-4.687901608255641,0.0,0.0,4.687788236929553,1.541135792275538,4.605518198741857,0.0,1.6149584783622457,0.20433566324078112,1707477046,175217920,0,0
1707477046,290347299,base_link,False,-4.605443534818072,0.0,0.0,4.604157486043681,1.614958467396239,4.520007348126027,0.0,1.6872575213990124,0.3819101733665249,1707477046,225638400,0,0
1707477046,340361039,base_link,False,-4.51992362462066,0.0,0.0,4.519826848761463,1.6872575213533363,4.431325322749649,0.0,1.75926647878902,0.5332675742928626,1707477046,276083968,0,0
1707477046,390345865,base_link,False,-4.4312172707295,0.0,0.0,4.429755034574413,1.7592664629607078,4.3379431450299695,0.0,1.8513844042723526,0.7205056394349858,1707477046,326499328,0,0
1707477046,440359746,base_link,False,-4.337760240777674,0.0,0.0,4.3361892213404865,1.6366842105550952,4.248398590396456,0.0,1.8333450235091153,0.5658451943066055,1707477046,376929024,0,0
1707477046,490347086,base_link,False,-4.248198540898161,0.0,0.0,4.248059397569826,1.8333450229188966,4.161604792670166,0.0,1.784771031552705,0.34595327311974755,1707477046,427355392,0,0
1707477046,540372770,base_link,False,-4.161345401782361,0.0,0.0,4.1605468676377955,1.784771024436742,4.075354233889512,0.0,1.7549574459353738,0.21118007643362463,1707477046,477799168,0,0
1707477046,590359970,base_link,False,-4.075118684180065,0.0,0.0,4.0745942605542895,1.754957442462549,3.9918012047371008,0.0,1.704102955880485,0.03549035175572804,1707477046,528223488,0,0
1707477046,640347240,base_link,False,-3.991607960058422,0.0,0.0,3.9910994005727245,1.704102952710008,3.9103403052646755,0.0,1.6536950137119606,-0.11379238778070228,1707477046,578647808,0,0
1707477046,690367965,base_link,False,-3.9100829444995657,0.0,0.0,3.9094853883451837,1.6536950104026416,3.834060321625811,0.0,1.5617483844025657,-0.3605560189090189,1707477046,629083392,0,0
1707477046,740347483,base_link,False,-3.833825226963022,0.0,0.0,3.8333458486880803,1.5617483811165904,3.7599527004237214,0.0,1.4951124025540141,-0.4996144372515957,1707477046,679516928,0,0
1707477046,790348233,base_link,False,-3.759713235096287,0.0,0.0,3.7598442462466215,1.495112403177961,3.6773844736215326,0.0,1.586340650892224,-0.16716288507720578,1707477046,729930240,0,0
1707477046,840352056,base_link,False,-3.6772115150561913,0.0,0.0,3.676625109648059,1.5863406474253061,3.5909151451186814,0.0,1.6793729043246606,0.12289593923849684,1707477046,780377344,0,0
1707477046,890352526,base_link,False,-3.5907014664627757,0.0,0.0,3.591299192525366,1.6793729050906636,3.4945648624516177,0.0,1.8539407042917246,0.604722829483759,1707477046,830795008,0,0
1707477046,940356559,base_link,False,-3.494348652958616,0.0,0.0,3.4936527113870586,1.8539406989359013,3.403365314107726,0.0,1.8531396952317987,0.5159312618457825,1707477046,881226496,0,0
1707477046,990354306,base_link,False,-3.4031723287546476,0.0,0.0,3.402689410974085,1.853139692528792,3.334694887193629,0.0,1.5396738045852856,-0.45463648097360065,1707477046,931661312,0,0
1707477047,40345487,base_link,False,-3.334458264410666,0.0,0.0,3.3327844882641307,1.32497361085918,3.279852306481524,0.0,1.219808046450789,-1.304682477035826,1707477046,982081536,0,0
1707477047,90341976,base_link,False,-3.2796753165772277,0.0,0.0,3.2786897818770373,1.2198080382694256,3.245778039661842,0.0,0.8063061571478876,-2.3010132249589867,1707477047,32527360,0,0
1707477047,140348384,base_link,False,-3.24555302650632,0.0,0.0,3.2460716976738895,0.8063061573616732,3.205475361445616,0.0,0.7306979046655961,-2.1881756513130055,1707477047,82944000,0,0
1707477047,190351927,base_link,False,-3.205240941310287,0.0,0.0,3.2048283015439916,0.7306979025773883,3.1766991948459142,0.0,0.5520976327531468,-2.3861199630058882,1707477047,133369088,0,0
1707477047,240344226,base_link,False,-3.176467134475693,0.0,0.0,3.1762881128342326,0.5520976318803159,3.129082905487379,0.0,0.7495011482680483,-1.4800713866446926,1707477047,183808000,0,0
1707477047,290345255,base_link,False,-3.12882878057096,0.0,0.0,3.1275084518485885,0.7495011333004056,3.0780583904750425,0.0,0.8876038149845537,-0.8732738237973735,1707477047,234241792,0,0
1707477047,340359695,base_link,False,-3.0778415693497863,0.0,0.0,3.0770850678340707,0.8876038089820859,3.0726866485178403,0.0,0.32169087536749263,-2.367334469311539,1707477047,284661248,0,0
1707477047,390353390,base_link,False,-3.0724756436651566,0.0,0.0,3.072294955560192,0.3216908745257512,3.0749558195274465,0.0,-0.008713216366454807,-2.9739350422686437,1707477047,335089664,0,0
1707477047,440355328,base_link,False,-3.0748116728021118,0.0,0.0,3.0739483525532014,-0.008713222008296523,3.0767450190858887,0.0,-0.12485097738636894,-2.88078965440734,1707477047,385518080,0,0
1707477047,490372002,base_link,False,-3.076568815853234,0.0,0.0,3.074618071064379,-0.3395511708521781,3.0774296340204756,0.0,-0.1427397164414998,-2.5198951777295093,1707477047,435946240,0,0
1707477047,540346421,base_link,False,-3.077219794547091,0.0,0.0,3.0771544867971574,-0.1427397167729313,3.0775328741053967,0.0,-0.1284700741123472,-2.1186240753235617,1707477047,486380544,0,0
1707477047,590367426,base_link,False,-3.077353497949816,0.0,0.0,3.0771748076842744,-0.12847007493766258,3.0866046579051685,0.0,-0.2344012778785253,-2.1186240753235617,1707477047,486380544,0,0
1707477047,640417206,base_link,False,-3.0863912150964827,0.0,0.0,3.084926083336263,-0.4491014722007499,3.07714800000055,0.0,-0.09450236658381175,-1.4719780367860713,1707477047,536812032,0,0
1707477047,690380310,base_link,False,-3.076898730108788,0.0,0.0,3.077102139639567,-0.09450236588691109,3.0771619905156635,0.0,-0.07649063921293217,-1.2092158067772756,1707477047,587251712,0,0
1707477047,740385250,base_link,False,-3.0771619905156635,0.0,0.0,3.0755572465759453,-0.07649063921293217,3.0765068531036377,0.0,-0.0,-0.0,1707477047,637682688,0,0
1707477047,790372590,base_link,False,-3.0765068531036377,0.0,0.0,3.076185904315694,0.0,3.0765068531036377,0.0,-0.0,-0.0,1707477047,688096000,0,0
1707477047,840400021,base_link,False,-3.0765068531036377,0.0,0.0,3.0775499366644548,0.0,3.0765068531036377,0.0,-0.0,-0.0,1707477047,738542848,0,0
1707477047,890409850,base_link,False,-3.0765068531036377,0.0,0.0,3.0775499366644548,0.0,3.0765068531036377,0.0,-0.0,-0.0,1707477047,788977664,0,0
1707477047,940368345,base_link,False,-3.0765068531036377,0.0,0.0,3.0775499366644548,0.0,3.0765068531036377,0.0,-0.0,-0.0,1707477047,839396608,0,0
1707477047,990364834,base_link,False,-3.0765068531036377,0.0,0.0,3.074179974391046,0.0,3.0765068531036377,0.0,-0.0,-0.0,1707477047,889822464,0,0
1707477048,40368937,base_link,False,-3.0765068531036377,0.0,0.0,3.074420685982004,0.0,3.0765068531036377,0.0,-0.0,-0.0,1707477047,940258304,0,0
1707477048,90343286,base_link,False,-3.0765068531036377,0.0,0.0,3.0775499366644548,0.0,3.0765068531036377,0.0,-0.0,-0.0,1707477047,990693632,0,0
1707477048,140342918,base_link,False,-3.0765068531036377,0.0,0.0,3.075142820754877,0.0,3.0765068531036377,0.0,-0.0,-0.0,1707477048,41108736,0,0
1707477048,190356100,base_link,False,-3.0765068531036377,0.0,0.0,3.073377602421187,0.0,3.0765068531036377,0.0,-0.0,-0.0,1707477048,91553536,0,0
1707477048,240344697,base_link,False,-3.0765068531036377,0.0,0.0,3.0777906482554123,0.0,3.0765068531036377,0.0,-0.0,-0.0,1707477048,141982976,0,0
1707477048,290349219,base_link,False,-3.0765068531036377,0.0,0.0,3.0767475646945956,0.0,3.0765068531036377,0.0,-0.0,-0.0,1707477048,192409856,0,0
1707477048,340351924,base_link,False,-3.0765068531036377,0.0,0.0,3.075383532345835,0.0,3.0765068531036377,0.0,-0.0,-0.0,1707477048,242858752,0,0
1707477048,390360148,base_link,False,-3.0765068531036377,0.0,0.0,3.077309225073497,0.0,3.0765068531036377,0.0,-0.0,-0.0,1707477048,293261312,0,0
1707477048,440344414,base_link,False,-3.0765068531036377,0.0,0.0,3.075142820754877,0.0,3.0765068531036377,0.0,-0.0,-0.0,1707477048,343692544,0,0
1707477048,490346282,base_link,False,-3.0765068531036377,0.0,0.0,3.076587090300624,0.0,3.0765068531036377,0.0,-0.0,-0.0,1707477048,394121728,0,0
1707477048,540362467,base_link,False,-3.0765068531036377,0.0,0.0,3.0775499366644548,0.0,3.0765068531036377,0.0,-0.0,-0.0,1707477048,444557568,0,0
1707477048,590381586,base_link,False,-3.0765068531036377,0.0,0.0,3.076988276285553,0.0,3.0765068531036377,0.0,-0.0,-0.0,1707477048,494974976,0,0
1707477048,640362640,base_link,False,-3.0765068531036377,0.0,0.0,3.074420685982004,0.0,3.0765068531036377,0.0,-0.0,-0.0,1707477048,545413120,0,0
1707477048,690355847,base_link,False,-3.0765068531036377,0.0,0.0,3.0775499366644548,0.0,3.0765068531036377,0.0,-0.0,-0.0,1707477048,595840256,0,0
1707477048,740343606,base_link,False,-3.0765068531036377,0.0,0.0,3.0775499366644548,0.0,3.0765068531036377,0.0,-0.0,-0.0,1707477048,646283776,0,0
1707477048,790356928,base_link,False,-3.0765068531036377,0.0,0.0,3.0775499366644548,0.0,3.0765068531036377,0.0,-0.0,-0.0,1707477048,696702208,0,0
1707477048,840358027,base_link,False,-3.0765068531036377,0.0,0.0,3.0767475646945956,0.0,3.0765068531036377,0.0,-0.0,-0.0,1707477048,747130368,0,0
1707477048,890351304,base_link,False,-3.0765068531036377,0.0,0.0,3.0777906482554123,0.0,3.0765068531036377,0.0,-0.0,-0.0,1707477048,797580800,0,0
1707477048,940362600,base_link,False,-3.0765068531036377,0.0,0.0,3.074179974391046,0.0,3.0765068531036377,0.0,-0.0,-0.0,1707477048,847988480,0,0
1707477048,990382836,base_link,False,-3.0765068531036377,0.0,0.0,3.075142820754877,0.0,3.0765068531036377,0.0,-0.0,-0.0,1707477048,898423808,0,0
1707477049,40362563,base_link,False,-3.0765068531036377,0.0,0.0,3.0775499366644548,0.0,3.0765068531036377,0.0,-0.0,-0.0,1707477048,948857344,0,0
1707477049,90386501,base_link,False,-3.0765068531036377,0.0,0.0,3.0770685134825393,0.0,3.0765068531036377,0.0,-0.0,-0.0,1707477048,999294976,0,0
1707477049,140346742,base_link,False,-3.0765068531036377,0.0,0.0,3.0775499366644548,0.0,3.0765068531036377,0.0,-0.0,-0.0,1707477049,49721344,0,0
1707477049,190358038,base_link,False,-3.0765068531036377,0.0,0.0,3.0765068531036377,0.0,3.0765068531036377,0.0,-0.0,-0.0,1707477049,100140032,0,0
1707477049,240367169,base_link,False,-3.0765068531036377,0.0,0.0,3.0777906482554123,0.0,3.0765068531036377,0.0,-0.0,-0.0,1707477049,150586624,0,0
1707477049,290372599,base_link,False,-3.0765068531036377,0.0,0.0,3.0749021091639195,0.0,3.0765068531036377,0.0,-0.0,-0.0,1707477049,201013760,0,0
1707477049,340381939,base_link,False,-3.0765068531036377,0.0,0.0,3.0767475646945956,0.0,3.0765068531036377,0.0,-0.0,-0.0,1707477049,251428608,0,0
1707477049,390346161,base_link,False,-3.0765068531036377,0.0,0.0,3.0775499366644548,0.0,3.0765068531036377,0.0,-0.0,-0.0,1707477049,301860864,0,0
1707477049,440355013,base_link,False,-3.0765068531036377,0.0,0.0,3.0760254299217222,0.0,3.0765068531036377,0.0,-0.0,-0.0,1707477049,352292608,0,0
1707477049,490363446,base_link,False,-3.0765068531036377,0.0,0.0,3.074420685982004,0.0,3.0765068531036377,0.0,-0.0,-0.0,1707477049,402827520,0,0
1707477049,540362030,base_link,False,-3.0765068531036377,0.0,0.0,3.075223057951863,0.0,3.0765068531036377,0.0,-0.0,-0.0,1707477049,453160704,0,0
1707477049,590379683,base_link,False,-3.0765068531036377,0.0,0.0,3.075142820754877,0.0,3.0765068531036377,0.0,-0.0,-0.0,1707477049,503578624,0,0
1707477049,640344463,base_link,False,-3.0765068531036377,0.0,0.0,3.076587090300624,0.0,3.0765068531036377,0.0,-0.0,-0.0,1707477049,554014208,0,0
1707477049,690367563,base_link,False,-3.0765068531036377,0.0,0.0,3.0760254299217222,0.0,3.0765068531036377,0.0,-0.0,-0.0,1707477049,604445184,0,0
1707477049,740365519,base_link,False,-3.0765068531036377,0.0,0.0,3.0793953921951305,0.0,3.0765068531036377,0.0,-0.0,-0.0,1707477049,654866944,0,0
1707477049,790357888,base_link,False,-3.0765068531036377,0.0,0.0,3.075142820754877,0.0,3.0765068531036377,0.0,-0.0,-0.0,1707477049,705304320,0,0
1707477049,840360803,base_link,False,-3.0765068531036377,0.0,0.0,3.0775499366644548,0.0,3.0765068531036377,0.0,-0.0,-0.0,1707477049,755729152,0,0
1707477049,890345140,base_link,False,-3.0765068531036377,0.0,0.0,3.074179974391046,0.0,3.0765068531036377,0.0,-0.0,-0.0,1707477049,806157312,0,0
1707477049,940359579,base_link,False,-3.0765068531036377,0.0,0.0,3.0793953921951305,0.0,3.0765068531036377,0.0,-0.0,-0.0,1707477049,856594432,0,0
1707477049,990349014,base_link,False,-3.0765068531036377,0.0,0.0,3.075142820754877,0.0,3.0765068531036377,0.0,-0.0,-0.0,1707477049,907020288,0,0
1707477050,40352348,base_link,False,-3.0765068531036377,0.0,0.0,3.075223057951863,0.0,3.0765068531036377,0.0,-0.0,-0.0,1707477049,957444352,0,0
1707477050,90383061,base_link,False,-3.0765068531036377,0.0,0.0,3.074982346360905,0.0,3.0765068531036377,0.0,-0.0,-0.0,1707477050,7881472,0,0
1707477050,140362439,base_link,False,-3.0765068531036377,0.0,0.0,3.0757044811337786,0.0,3.0765068531036377,0.0,-0.0,-0.0,1707477050,58320128,0,0
1707477050,190359697,base_link,False,-3.0765068531036377,0.0,0.0,3.074982346360905,0.0,3.0765068531036377,0.0,-0.0,-0.0,1707477050,108762112,0,0
1707477050,240358840,base_link,False,-3.0765068531036377,0.0,0.0,3.077309225073497,0.0,3.0765068531036377,0.0,-0.0,-0.0,1707477050,159165952,0,0
1707477050,290347228,base_link,False,-3.0765068531036377,0.0,0.0,3.0775499366644548,0.0,3.0765068531036377,0.0,-0.0,-0.0,1707477050,209595136,0,0
1707477050,340351610,base_link,False,-3.0765068531036377,0.0,0.0,3.0767475646945956,0.0,3.0765068531036377,0.0,-0.0,-0.0,1707477050,260026112,0,0
1707477050,390345585,base_link,False,-3.0765068531036377,0.0,0.0,3.074340448785018,0.0,3.0765068531036377,0.0,-0.0,-0.0,1707477050,310466048,0,0
1707477050,440364564,base_link,False,-3.0765068531036377,0.0,0.0,3.076587090300624,0.0,3.0765068531036377,0.0,-0.0,-0.0,1707477050,360896000,0,0
1707477050,490347085,base_link,False,-3.0765068531036377,0.0,0.0,3.077228987876511,0.0,3.0765068531036377,0.0,-0.0,-0.0,1707477050,411323648,0,0
1707477050,540350139,base_link,False,-3.0765068531036377,0.0,0.0,3.074340448785018,0.0,3.0765068531036377,0.0,-0.0,-0.0,1707477050,461750784,0,0
1707477050,590378408,base_link,False,-3.0765068531036377,0.0,0.0,3.0775499366644548,0.0,3.0765068531036377,0.0,-0.0,-0.0,1707477050,512175104,0,0
1707477050,640335296,base_link,False,-3.0765068531036377,0.0,0.0,3.0749021091639195,0.0,3.0765068531036377,0.0,-0.0,-0.0,1707477050,562607616,0,0
1707477050,690344497,base_link,False,-3.0765068531036377,0.0,0.0,3.075223057951863,0.0,3.0765068531036377,0.0,-0.0,-0.0,1707477050,613036032,0,0
1707477050,740345107,base_link,False,-3.0765068531036377,0.0,0.0,3.0767475646945956,0.0,3.0765068531036377,0.0,-0.0,-0.0,1707477050,663481856,0,0
1707477050,790366391,base_link,False,-3.0765068531036377,0.0,0.0,3.076587090300624,0.0,3.0765068531036377,0.0,-0.0,-0.0,1707477050,713911808,0,0
1707477050,840345489,base_link,False,-3.0765068531036377,0.0,0.0,3.0768278018915813,0.0,3.0765068531036377,0.0,-0.0,-0.0,1707477050,764327168,0,0
1707477050,890345052,base_link,False,-3.0765068531036377,0.0,0.0,3.075142820754877,0.0,3.0765068531036377,0.0,-0.0,-0.0,1707477050,814756608,0,0
1707477050,940344615,base_link,False,-3.0765068531036377,0.0,0.0,3.076587090300624,0.0,3.0765068531036377,0.0,-0.0,-0.0,1707477050,865181696,0,0
1707477050,990348158,base_link,False,-3.0765068531036377,0.0,0.0,3.075223057951863,0.0,3.0765068531036377,0.0,-0.0,-0.0,1707477050,915614720,0,0
1707477051,40358966,base_link,False,-3.0765068531036377,0.0,0.0,3.0767475646945956,0.0,3.0765068531036377,0.0,-0.0,-0.0,1707477050,966041856,0,0
1707477051,90343302,base_link,False,-3.0765068531036377,0.0,0.0,3.074982346360905,0.0,3.0765068531036377,0.0,-0.0,-0.0,1707477051,16477184,0,0
1707477051,140365704,base_link,False,-3.0765068531036377,0.0,0.0,3.0785930202252714,0.0,3.0765068531036377,0.0,-0.0,-0.0,1707477051,66906112,0,0
1707477051,190354441,base_link,False,-3.0765068531036377,0.0,0.0,3.0749021091639195,0.008918181818181818,3.0765068531036377,0.0,-0.0,-0.0,1707477051,117334528,0,0
1707477051,240359521,base_link,False,-3.0765068531036377,0.0,0.0,3.074340448785018,0.008918181818181818,3.0765068531036377,0.0,-0.0,-0.0,1707477051,167775488,0,0
1707477051,290378640,base_link,False,-3.0765068531036377,0.0,0.0,3.078352308634314,0.008918181818181818,3.0765068531036377,0.0,-0.0,-0.0,1707477051,218216704,0,0
1707477051,340361091,base_link,False,-3.0765068531036377,0.0,0.0,3.0758649555277504,0.008918181818181818,3.0765068531036377,0.0,-0.0,-0.0,1707477051,268631552,0,0
1707477051,390358907,base_link,False,-3.0765068531036377,0.0,0.0,3.077309225073497,0.008918181818181818,3.0765068531036377,0.0,-0.0,-0.0,1707477051,319065344,0,0
1707477051,440346457,base_link,False,-3.0765068531036377,0.0,0.0,3.0788337318162293,0.0,3.0765068531036377,0.0,-0.0,-0.0,1707477051,369494272,0,0
1707477051,490362782,base_link,False,-3.0765068531036377,0.0,0.0,3.0793953921951305,0.0,3.0765068531036377,0.0,-0.0,-0.0,1707477051,419921920,0,0
1707477051,540330496,base_link,False,-3.0765068531036377,0.0,0.0,3.083888675226342,0.0,3.0765068531036377,0.0,-0.0,-0.0,1707477051,470354176,0,0
1707477051,590350802,base_link,False,-3.0765068531036377,0.0,0.0,3.0820432196956657,0.008918181818181818,3.0765068531036377,0.0,-0.0,-0.0,1707477051,520775424,0,0
1707477051,640352669,base_link,False,-3.0765068531036377,0.0,0.0,3.0835677264383983,0.0,3.0765068531036377,0.0,-0.0,-0.0,1707477051,571209216,0,0
1707477051,690356772,base_link,False,-3.0765068531036377,0.0,0.0,3.0804384757559475,0.0,3.0765068531036377,0.0,-0.0,-0.0,1707477051,621636352,0,0
1707477051,740349909,base_link,False,-3.0765068531036377,0.0,0.0,3.081000136134849,0.0,3.0765068531036377,0.0,-0.0,-0.0,1707477051,672076800,0,0
1707477051,790381669,base_link,False,-3.0765068531036377,0.0,0.0,3.0782720714373277,0.0,3.0765068531036377,0.0,-0.0,-0.0,1707477051,722504192,0,0
1707477051,840352596,base_link,False,-3.0765068531036377,0.0,0.0,3.0775499366644548,0.0,3.0765068531036377,0.0,-0.0,-0.0,1707477051,772921088,0,0
1707477051,890367594,base_link,False,-3.0765068531036377,0.0,0.0,3.0770685134825393,0.0,3.0765068531036377,0.0,-0.0,-0.0,1707477051,823344384,0,0
1707477051,940347880,base_link,False,-3.0765068531036377,0.0,0.0,3.0778708854523984,0.0,3.0765068531036377,0.0,-0.0,-0.0,1707477051,873793792,0,0
1707477051,990349957,base_link,False,-3.0765068531036377,0.0,0.0,3.072575230451328,0.0,3.0765068531036377,0.0,-0.0,-0.0,1707477051,924211456,0,0
1707477052,40350776,base_link,False,-3.0765068531036377,0.0,0.0,3.072655467648314,0.0,3.0765068531036377,0.0,-0.0,-0.0,1707477051,974653184,0,0
1707477052,90349920,base_link,False,-3.0765068531036377,0.0,0.0,3.0745009231789897,0.0,3.0765068531036377,0.0,-0.0,-0.0,1707477052,25068800,0,0
1707477052,140362404,base_link,False,-3.0765068531036377,0.0,0.0,3.0754637695428206,0.0,3.0765068531036377,0.0,-0.0,-0.0,1707477052,75498496,0,0
1707477052,190358614,base_link,False,-3.0765068531036377,0.0,0.0,3.0785930202252714,0.008918181818181818,3.0765068531036377,0.0,-0.0,-0.0,1707477052,125946368,0,0
1707477052,240351401,base_link,False,-3.0765068531036377,0.0,0.0,3.0760254299217222,-0.00891818181818182,3.0765068531036377,0.0,-0.0,-0.0,1707477052,176374784,0,0
1707477052,290350894,base_link,False,-3.0765068531036377,0.0,0.0,3.0757847183307643,0.0,3.0765068531036377,0.0,-0.0,-0.0,1707477052,226787328,0,0
1707477052,340357232,base_link,False,-3.0765068531036377,0.0,0.0,3.0762661415126797,-0.026754545454545454,3.0765068531036377,0.0,-0.0,-0.0,1707477052,277220096,0,0
1707477052,390352953,base_link,False,-3.0765068531036377,0.0,0.0,3.0747416347699477,0.0,3.0765068531036377,0.0,-0.0,-0.0,1707477052,327651072,0,0
1707477052,440346299,base_link,False,-3.0765068531036377,0.0,0.0,3.0765068531036377,0.008918181818181818,3.0765068531036377,0.0,-0.0,-0.0,1707477052,378077184,0,0
1707477052,490359202,base_link,False,-3.0765068531036377,0.0,0.0,3.0738590256031024,-0.00891818181818182,3.0765068531036377,0.0,-0.0,-0.0,1707477052,428521216,0,0
1707477052,540365190,base_link,False,-3.0765068531036377,0.0,0.0,3.0754637695428206,-0.00891818181818182,3.0765068531036377,0.0,-0.0,-0.0,1707477052,478942720,0,0
1707477052,590355464,base_link,False,-3.0765068531036377,0.0,0.0,3.0738590256031024,-0.00891818181818182,3.0765068531036377,0.0,-0.0,-0.0,1707477052,529372416,0,0
1707477052,640458744,base_link,False,-3.0765068531036377,0.0,0.0,3.0765068531036377,0.0,3.0765068531036377,0.0,-0.0,-0.0,1707477052,579802368,0,0
1707477052,690364297,base_link,False,-3.0765068531036377,0.0,0.0,3.0736985512091306,0.0,3.0765068531036377,0.0,-0.0,-0.0,1707477052,630254592,0,0
