header_stamp_sec, header_stamp_nanosec, header_frame_id, runner_detected, x, y, phi, vx_b, ax_b, relative_distance_to_airshield_x, relative_distance_to_airshield_y, relative_speed_to_airshield_x, relative_acceleration_to_airshield_x, stamp_lidar_sec, stamp_lidar_nanosec, stamp_zed_sec, stamp_zed_nanosec
1707477538,740207831,base_link,False,0.0,0.0,0.0,0.0,0.0,0.0,0.0,-0.0,-0.0,1707477538,673262592,0,0
1707477538,790194845,base_link,False,0.0,0.0,0.0,0.0,0.0,0.0,0.0,-0.0,-0.0,1707477538,723670528,0,0
1707477538,840194850,base_link,False,0.0,0.0,0.0,0.0,0.0,0.0,0.0,-0.0,-0.0,1707477538,774095872,0,0
1707477538,890195204,base_link,False,-2.222978243801013e-05,0.0,0.0,-0.0006655549583148262,-2.6403438196125627e-09,0.0,0.0,-0.0,-0.0,1707477538,824548096,0,0
1707477538,940195348,base_link,False,0.0,0.0,0.0,0.0,0.0,0.0,0.0,-0.0,-0.0,1707477538,874958080,0,0
1707477538,990195633,base_link,False,0.0,0.0,0.0,0.0,0.0,0.0,0.0,-0.0,-0.0,1707477538,925402368,0,0
1707477539,40195498,base_link,False,9.216059339388098e-06,0.0,0.0,-0.0004311618034659523,-1.108085444766601e-09,0.0,0.0,-0.0,-0.0,1707477538,975828224,0,0
1707477539,90196202,base_link,False,7.021114218235822e-06,0.0,0.0,0.00027441662030063224,0.0,0.0,0.0,-0.0,-0.0,1707477539,26285568,0,0
1707477539,140208220,base_link,False,0.0,0.0,0.0,0.0,0.0,0.0,0.0,-0.0,-0.0,1707477539,76680960,0,0
1707477539,190193348,base_link,False,0.0,0.0,0.0,0.0,0.0,0.0,0.0,-0.0,-0.0,1707477539,127105280,0,0
1707477539,240197264,base_link,False,0.0,0.0,0.0,0.0,0.0,0.0,0.0,-0.0,-0.0,1707477539,177536768,0,0
1707477539,290197199,base_link,False,0.0,0.0,0.0,0.0,0.0,0.0,0.0,-0.0,-0.0,1707477539,227987200,0,0
1707477539,340191687,base_link,False,0.0,0.0,0.0,0.0,0.0,0.0,0.0,-0.0,-0.0,1707477539,278401024,0,0
1707477539,390207546,base_link,False,0.0,0.0,0.0,0.0,0.0,0.0,0.0,-0.0,-0.0,1707477539,328826112,0,0
1707477539,440200776,base_link,False,0.0,0.0,0.0,0.0,0.0,0.0,0.0,-0.0,-0.0,1707477539,379288320,0,0
1707477539,490195543,base_link,False,0.0,0.0,0.0,0.0,0.0,0.0,0.0,-0.0,-0.0,1707477539,429690880,0,0
1707477539,540243042,base_link,False,0.0,0.0,0.0,0.0,0.0,0.0,0.0,-0.0,-0.0,1707477539,480118272,0,0
1707477539,590204703,base_link,False,0.0,0.0,0.0,0.0,0.0,0.0,0.0,-0.0,-0.0,1707477539,530548224,0,0
1707477539,640205336,base_link,False,0.0,0.0,0.0,0.0,0.0,0.0,0.0,-0.0,-0.0,1707477539,580974592,0,0
1707477539,690206459,base_link,False,0.0,0.0,0.0,0.0,0.0,0.0,0.0,-0.0,-0.0,1707477539,631382784,0,0
1707477539,740197873,base_link,False,0.0,0.0,0.0,0.0,0.0,0.0,0.0,-0.0,-0.0,1707477539,681843456,0,0
1707477539,790207796,base_link,False,0.0,0.0,0.0,0.0,0.0,0.0,0.0,-0.0,-0.0,1707477539,732265728,0,0
1707477539,840206264,base_link,False,0.0,0.0,0.0,0.0,0.0,0.0,0.0,-0.0,-0.0,1707477539,782693632,0,0
1707477539,890195164,base_link,False,0.0,0.0,0.0,0.0,0.0,0.0,0.0,-0.0,-0.0,1707477539,833134848,0,0
1707477539,940221570,base_link,False,0.0,0.0,0.0,0.0,0.0,0.0,0.0,-0.0,-0.0,1707477539,883555328,0,0
1707477539,990210191,base_link,False,0.0,0.0,0.0,0.0,0.0,0.0,0.0,-0.0,-0.0,1707477539,933980928,0,0
1707477540,40195249,base_link,False,0.0,0.0,0.0,0.0,0.0,0.0,0.0,-0.0,-0.0,1707477539,984422656,0,0
1707477540,90196022,base_link,False,0.0,0.0,0.0,0.0,0.0,0.0,0.0,-0.0,-0.0,1707477540,34848000,0,0
1707477540,140212929,base_link,False,0.0,0.0,0.0,0.0,0.0,0.0,0.0,-0.0,-0.0,1707477540,85297152,0,0
1707477540,190194356,base_link,False,0.0,0.0,0.0,0.0,0.0,0.0,0.0,-0.0,-0.0,1707477540,135727872,0,0
1707477540,240196666,base_link,False,4.029459796513601e-06,0.0,0.0,-0.00058644747144162,-2.0499860452126983e-09,0.0,0.0,-0.0,-0.0,1707477540,186152192,0,0
1707477540,290221535,base_link,False,0.0,0.0,0.0,0.0,0.0,0.0,0.0,-0.0,-0.0,1707477540,186152192,0,0
1707477540,340226359,base_link,False,0.0,0.0,0.0,0.0,0.0,0.0,0.0,-0.0,-0.0,1707477540,236564480,0,0
1707477540,390214491,base_link,False,0.0,0.0,0.0,0.0,0.0,0.0,0.0,-0.0,-0.0,1707477540,287012352,0,0
1707477540,440204089,base_link,False,0.0,0.0,0.0,0.0,0.0,0.0,0.0,-0.0,-0.0,1707477540,337423104,0,0
1707477540,490237480,base_link,False,2.3151831058406814e-05,0.0,0.0,-0.0014915932696048055,-0.2147001961467993,0.0,0.0,-0.0,-0.0,1707477540,387876096,0,0
1707477540,540227218,base_link,False,0.0,0.0,0.0,0.0,0.0,0.0,0.0,-0.0,-0.0,1707477540,438293248,0,0
1707477540,590235115,base_link,False,0.0,0.0,0.0,0.0,0.0,0.0,0.0,-0.0,-0.0,1707477540,488723456,0,0
1707477540,640201036,base_link,False,0.0,0.0,0.0,0.0,0.0,0.0,0.0,-0.0,-0.0,1707477540,539148288,0,0
1707477540,690200482,base_link,False,0.0,0.0,0.0,0.0,0.0,0.0,0.0,-0.0,-0.0,1707477540,589582592,0,0
1707477540,740205865,base_link,False,0.0,0.0,0.0,0.0,0.0,0.0,0.0,-0.0,-0.0,1707477540,640005120,0,0
1707477540,790192181,base_link,False,0.0,0.0,0.0,0.0,0.0,0.0,0.0,-0.0,-0.0,1707477540,690450176,0,0
1707477540,840201824,base_link,False,0.0,0.0,0.0,0.0,0.0,0.0,0.0,-0.0,-0.0,1707477540,740864000,0,0
1707477540,890207417,base_link,False,0.0,0.0,0.0,0.0,0.0,0.0,0.0,-0.0,-0.0,1707477540,791308032,0,0
1707477540,940196037,base_link,False,0.0,0.0,0.0,0.0,0.0,0.0,0.0,-0.0,-0.0,1707477540,841731840,0,0
1707477540,990195344,base_link,False,0.0,0.0,0.0,0.0,0.0,0.0,0.0,-0.0,-0.0,1707477540,892172544,0,0
1707477541,40227128,base_link,False,0.0,0.0,0.0,0.0,0.0,0.0,0.0,-0.0,-0.0,1707477540,942598144,0,0
1707477541,90220218,base_link,False,0.0,0.0,0.0,0.0,0.0,0.0,0.0,-0.0,-0.0,1707477540,993024256,0,0
1707477541,140215614,base_link,False,0.0,0.0,0.0,0.0,0.0,0.0,0.0,-0.0,-0.0,1707477541,43453440,0,0
1707477541,190207447,base_link,False,0.0,0.0,0.0,0.0,0.0,0.0,0.0,-0.0,-0.0,1707477541,93880832,0,0
1707477541,240208430,base_link,False,0.0,0.0,0.0,0.0,0.0,0.0,0.0,-0.0,-0.0,1707477541,144303104,0,0
1707477541,290205362,base_link,False,0.0,0.0,0.0,0.0,0.0,0.0,0.0,-0.0,-0.0,1707477541,194735616,0,0
1707477541,340201805,base_link,False,0.0,0.0,0.0,0.0,0.0,0.0,0.0,-0.0,-0.0,1707477541,245165568,0,0
1707477541,390200552,base_link,False,0.0,0.0,0.0,0.0,0.0,0.0,0.0,-0.0,-0.0,1707477541,295606784,0,0
1707477541,440196995,base_link,False,0.0,0.0,0.0,0.0,0.0,0.0,0.0,-0.0,-0.0,1707477541,346035712,0,0
1707477541,490215020,base_link,False,0.0,0.0,0.0,0.0,0.0,0.0,0.0,-0.0,-0.0,1707477541,396453376,0,0
1707477541,540194072,base_link,False,0.0,0.0,0.0,0.0,0.0,0.0,0.0,-0.0,-0.0,1707477541,446882048,0,0
1707477541,590194706,base_link,False,0.0,0.0,0.0,0.0,0.0,0.0,0.0,-0.0,-0.0,1707477541,497322496,0,0
1707477541,640218527,base_link,False,0.0,0.0,0.0,0.0,0.0,0.0,0.0,-0.0,-0.0,1707477541,547747584,0,0
1707477541,690193389,base_link,False,0.0,0.0,0.0,0.0,0.0,0.0,0.0,-0.0,-0.0,1707477541,598172928,0,0
1707477541,740203311,base_link,False,0.0,0.0,0.0,0.0,0.0,0.0,0.0,-0.0,-0.0,1707477541,648615168,0,0
1707477541,790200592,base_link,False,0.0,0.0,0.0,0.0,0.0,0.0,0.0,-0.0,-0.0,1707477541,699037440,0,0
1707477541,840204020,base_link,False,0.0,0.0,0.0,0.0,0.0,0.0,0.0,-0.0,-0.0,1707477541,749480448,0,0
1707477541,890199764,base_link,False,0.0,0.0,0.0,0.0,0.0,0.0,0.0,-0.0,-0.0,1707477541,799894016,0,0
1707477541,940195509,base_link,False,0.0,0.0,0.0,0.0,0.0,0.0,0.0,-0.0,-0.0,1707477541,850320640,0,0
1707477541,990197400,base_link,False,0.0,0.0,0.0,0.0,0.0,0.0,0.0,-0.0,-0.0,1707477541,900773888,0,0
1707477542,40240359,base_link,False,0.0,0.0,0.0,0.0,0.0,0.0,0.0,-0.0,-0.0,1707477541,951189504,0,0
1707477542,90206280,base_link,False,0.0,0.0,0.0,0.0,0.0,0.0,0.0,-0.0,-0.0,1707477542,1623552,0,0
1707477542,140197904,base_link,False,0.0,0.0,0.0,0.0,0.0,0.0,0.0,-0.0,-0.0,1707477542,52041984,0,0
1707477542,190200074,base_link,False,0.0,0.0,0.0,0.0,0.0,0.0,0.0,-0.0,-0.0,1707477542,102475520,0,0
1707477542,240215305,base_link,False,0.0,0.0,0.0,0.0,0.0,0.0,0.0,-0.0,-0.0,1707477542,152917760,0,0
1707477542,290203716,base_link,False,0.0,0.0,0.0,0.0,0.0,0.0,0.0,-0.0,-0.0,1707477542,203350016,0,0
1707477542,340204559,base_link,False,0.0,0.0,0.0,0.0,0.0,0.0,0.0,-0.0,-0.0,1707477542,253783808,0,0
1707477542,390196182,base_link,False,0.0,0.0,0.0,0.0,0.0,0.0,0.0,-0.0,-0.0,1707477542,304191232,0,0
1707477542,440206804,base_link,False,0.0,0.0,0.0,0.0,0.0,0.0,0.0,-0.0,-0.0,1707477542,354624256,0,0
1707477542,490219171,base_link,False,0.0,0.0,0.0,0.0,0.0,0.0,0.0,-0.0,-0.0,1707477542,405055488,0,0
1707477542,540204579,base_link,False,0.0,0.0,0.0,0.0,0.0,0.0,0.0,-0.0,-0.0,1707477542,455480832,0,0
1707477542,590197879,base_link,False,0.0,0.0,0.0,0.0,0.0,0.0,0.0,-0.0,-0.0,1707477542,505934336,0,0
1707477542,640217999,base_link,False,0.0,0.0,0.0,0.0,0.0,0.0,0.0,-0.0,-0.0,1707477542,556450560,0,0
1707477542,690195235,base_link,False,0.0,0.0,0.0,0.0,0.0,0.0,0.0,-0.0,-0.0,1707477542,606782720,0,0
1707477542,740263337,base_link,False,0.0,0.0,0.0,0.0,0.0,0.0,0.0,-0.0,-0.0,1707477542,657201152,0,0
1707477542,790196222,base_link,False,0.0,0.0,0.0,0.0,0.0,0.0,0.0,-0.0,-0.0,1707477542,707643648,0,0
1707477542,840194411,base_link,False,0.0,0.0,0.0,0.0,0.0,0.0,0.0,-0.0,-0.0,1707477542,758061312,0,0
1707477542,890209712,base_link,False,0.0,0.0,0.0,0.0,0.0,0.0,0.0,-0.0,-0.0,1707477542,808506624,0,0
1707477542,940193514,base_link,False,0.0,0.0,0.0,0.0,0.0,0.0,0.0,-0.0,-0.0,1707477542,858914304,0,0
1707477542,990197011,base_link,False,0.0,0.0,0.0,0.0,0.0,0.0,0.0,-0.0,-0.0,1707477542,909363712,0,0
1707477543,40195130,base_link,False,0.0,0.0,0.0,0.0,0.0,0.0,0.0,-0.0,-0.0,1707477542,959784704,0,0
1707477543,90206659,base_link,False,0.0,0.0,0.0,0.0,0.0,0.0,0.0,-0.0,-0.0,1707477543,10212096,0,0
1707477543,140205686,base_link,False,0.0,0.0,0.0,0.0,0.0,0.0,0.0,-0.0,-0.0,1707477543,60653568,0,0
1707477543,190203806,base_link,False,0.0,0.0,0.0,0.0,0.0,0.0,0.0,-0.0,-0.0,1707477543,111068928,0,0
1707477543,240237755,base_link,False,0.0,0.0,0.0,0.0,0.0,0.0,0.0,-0.0,-0.0,1707477543,161522688,0,0
1707477543,290196063,base_link,False,0.0,0.0,0.0,0.0,0.0,0.0,0.0,-0.0,-0.0,1707477543,211930112,0,0
1707477543,340216392,base_link,False,0.0,0.0,0.0,0.0,0.0,0.0,0.0,-0.0,-0.0,1707477543,262357504,0,0
1707477543,390215699,base_link,False,0.0,0.0,0.0,0.0,0.0,0.0,0.0,-0.0,-0.0,1707477543,312797184,0,0
1707477543,440213399,base_link,False,0.0,0.0,0.0,0.0,0.0,0.0,0.0,-0.0,-0.0,1707477543,363217664,0,0
1707477543,490220947,base_link,False,0.0,0.0,0.0,0.0,0.0,0.0,0.0,-0.0,-0.0,1707477543,413660416,0,0
1707477543,540217809,base_link,False,0.0,0.0,0.0,0.0,0.0,0.0,0.0,-0.0,-0.0,1707477543,464079616,0,0
1707477543,590221726,base_link,False,0.0,0.0,0.0,0.0,0.0,0.0,0.0,-0.0,-0.0,1707477543,514515712,0,0
1707477543,640214956,base_link,False,7.021114218235822e-06,0.0,0.0,0.00027441662030063224,0.0,0.0,0.0,-0.0,-0.0,1707477543,564936704,0,0
1707477543,690214542,base_link,False,0.0,0.0,0.0,0.0,0.0,0.0,0.0,-0.0,-0.0,1707477543,615385856,0,0
1707477543,740212451,base_link,False,0.0,0.0,0.0,0.0,0.0,0.0,0.0,-0.0,-0.0,1707477543,665809920,0,0
1707477543,790215879,base_link,False,0.0,0.0,0.0,0.0,0.0,0.0,0.0,-0.0,-0.0,1707477543,716235264,0,0
1707477543,840228176,base_link,False,0.0,0.0,0.0,0.0,0.0,0.0,0.0,-0.0,-0.0,1707477543,766685696,0,0
1707477543,890196332,base_link,False,0.0,0.0,0.0,0.0,0.0,0.0,0.0,-0.0,-0.0,1707477543,817092608,0,0
1707477543,940195499,base_link,False,0.0,0.0,0.0,0.0,0.0,0.0,0.0,-0.0,-0.0,1707477543,867516160,0,0
1707477543,990195854,base_link,False,0.0,0.0,0.0,0.0,0.0,0.0,0.0,-0.0,-0.0,1707477543,917947648,0,0
1707477544,40194671,base_link,False,0.0,0.0,0.0,0.0,0.0,0.0,0.0,-0.0,-0.0,1707477543,968382208,0,0
1707477544,90195933,base_link,False,0.0,0.0,0.0,0.0,0.0,0.0,0.0,-0.0,-0.0,1707477544,18838272,0,0
1707477544,140208999,base_link,False,0.0,0.0,0.0,0.0,0.0,0.0,0.0,-0.0,-0.0,1707477544,69258496,0,0
1707477544,190204604,base_link,False,0.0,0.0,0.0,0.0,0.0,0.0,0.0,-0.0,-0.0,1707477544,119667968,0,0
1707477544,240213828,base_link,False,0.0,0.0,0.0,0.0,0.0,0.0,0.0,-0.0,-0.0,1707477544,170106880,0,0
1707477544,290214043,base_link,False,0.0,0.0,0.0,0.0,0.0,0.0,0.0,-0.0,-0.0,1707477544,220553216,0,0
1707477544,340228226,base_link,False,0.0,0.0,0.0,0.0,0.0,0.0,0.0,-0.0,-0.0,1707477544,270953984,0,0
1707477544,390211608,base_link,False,0.0,0.0,0.0,0.0,0.0,0.0,0.0,-0.0,-0.0,1707477544,321382144,0,0
1707477544,440211124,base_link,False,0.0,0.0,0.0,0.0,0.0,0.0,0.0,-0.0,-0.0,1707477544,371820544,0,0
1707477544,490211688,base_link,False,0.0,0.0,0.0,0.0,0.0,0.0,0.0,-0.0,-0.0,1707477544,422247168,0,0
1707477544,540206176,base_link,False,0.0,0.0,0.0,0.0,0.0,0.0,0.0,-0.0,-0.0,1707477544,472676864,0,0
1707477544,590213933,base_link,False,0.0,0.0,0.0,0.0,0.0,0.0,0.0,-0.0,-0.0,1707477544,523105280,0,0
1707477544,640211075,base_link,False,0.0,0.0,0.0,0.0,0.0,0.0,0.0,-0.0,-0.0,1707477544,573536000,0,0
1707477544,690215689,base_link,False,1.6089691765847196e-05,0.0,0.0,-0.0009456154721496957,-5.32993366362202e-09,0.0,0.0,-0.0,-0.0,1707477544,623974912,0,0
1707477544,740216113,base_link,False,2.3151831058406814e-05,0.0,0.0,-0.0014915932696048055,-0.2147001961467993,0.0,0.0,-0.0,-0.0,1707477544,674401792,0,0
1707477544,790213953,base_link,False,0.0,0.0,0.0,0.0,0.0,0.0,0.0,-0.0,-0.0,1707477544,724849408,0,0
1707477544,840215634,base_link,False,0.0,0.0,0.0,0.0,0.0,0.0,0.0,-0.0,-0.0,1707477544,775254528,0,0
1707477544,890214382,base_link,False,-2.2149994297224945e-05,0.0,0.0,-0.0006943958607252696,-2.8741332647697264e-09,0.0,0.0,-0.0,-0.0,1707477544,825683200,0,0
1707477544,940215644,base_link,False,0.0,0.0,0.0,0.0,0.0,0.0,0.0,-0.0,-0.0,1707477544,876116992,0,0
1707477544,990210202,base_link,False,1.6089691765847196e-05,0.0,0.0,-0.0009456154721496957,-5.32993366362202e-09,0.0,0.0,-0.0,-0.0,1707477544,926552576,0,0
1707477545,40214467,base_link,False,0.0,0.0,0.0,0.0,0.0,0.0,0.0,-0.0,-0.0,1707477544,976978688,0,0
1707477545,90210910,base_link,False,0.0,0.0,0.0,0.0,0.0,0.0,0.0,-0.0,-0.0,1707477545,27406336,0,0
1707477545,140214128,base_link,False,0.0,0.0,0.0,0.0,0.0,0.0,0.0,-0.0,-0.0,1707477545,77834752,0,0
1707477545,190215320,base_link,False,0.0,0.0,0.0,0.0,0.0,0.0,0.0,-0.0,-0.0,1707477545,128271104,0,0
1707477545,240216163,base_link,False,0.0,0.0,0.0,0.0,0.0,0.0,0.0,-0.0,-0.0,1707477545,178707200,0,0
1707477545,290197171,base_link,False,0.0,0.0,0.0,0.0,0.0,0.0,0.0,-0.0,-0.0,1707477545,229115392,0,0
1707477545,340195360,base_link,False,0.0,0.0,0.0,0.0,0.0,0.0,0.0,-0.0,-0.0,1707477545,279558656,0,0
1707477545,390196832,base_link,False,0.0,0.0,0.0,0.0,0.0,0.0,0.0,-0.0,-0.0,1707477545,329982720,0,0
1707477545,440206056,base_link,False,0.0,0.0,0.0,0.0,0.0,0.0,0.0,-0.0,-0.0,1707477545,380416000,0,0
1707477545,490213953,base_link,False,0.0,0.0,0.0,0.0,0.0,0.0,0.0,-0.0,-0.0,1707477545,430842624,0,0
1707477545,540215146,base_link,False,0.0,0.0,0.0,0.0,0.0,0.0,0.0,-0.0,-0.0,1707477545,481288960,0,0
1707477545,590170451,base_link,False,1.6089691765847196e-05,0.0,0.0,-0.0009456154721496957,-5.32993366362202e-09,0.0,0.0,-0.0,-0.0,1707477545,531784704,0,0
1707477545,640209429,base_link,False,0.0,0.0,0.0,0.0,0.0,0.0,0.0,-0.0,-0.0,1707477545,582135552,0,0
1707477545,690232063,base_link,False,0.0,0.0,0.0,0.0,0.0,0.0,0.0,-0.0,-0.0,1707477545,632568320,0,0
1707477545,740220264,base_link,False,0.0,0.0,0.0,0.0,0.0,0.0,0.0,-0.0,-0.0,1707477545,683003392,0,0
1707477545,790204974,base_link,False,0.0,0.0,0.0,0.0,0.0,0.0,0.0,-0.0,-0.0,1707477545,733423872,0,0
1707477545,840198343,base_link,False,0.0,0.0,0.0,0.0,0.0,0.0,0.0,-0.0,-0.0,1707477545,783854848,0,0
1707477545,890196532,base_link,False,0.0,0.0,0.0,0.0,0.0,0.0,0.0,-0.0,-0.0,1707477545,834283520,0,0
1707477545,940201706,base_link,False,0.0,0.0,0.0,0.0,0.0,0.0,0.0,-0.0,-0.0,1707477545,884715008,0,0
1707477545,990197869,base_link,False,0.0,0.0,0.0,0.0,0.0,0.0,0.0,-0.0,-0.0,1707477545,935159040,0,0
1707477546,40205907,base_link,False,7.021114218235822e-06,0.0,0.0,0.00027441662030063224,0.0,0.0,0.0,-0.0,-0.0,1707477545,985594624,0,0
1707477546,90191873,base_link,False,-7.383332049341917e-06,0.0,0.0,-0.00023146529823476206,-3.1934820958789854e-10,0.0,0.0,-0.0,-0.0,1707477546,36001536,0,0
1707477546,140196418,base_link,False,9.216059339388098e-06,0.0,0.0,-0.0004311618034659523,-1.108085444766601e-09,0.0,0.0,-0.0,-0.0,1707477546,86448640,0,0
1707477546,190208366,base_link,False,0.0,0.0,0.0,0.0,0.0,0.0,0.0,-0.0,-0.0,1707477546,86448640,0,0
1707477546,240197336,base_link,False,0.0,0.0,0.0,0.0,0.0,0.0,0.0,-0.0,-0.0,1707477546,136864000,0,0
1707477546,290232402,base_link,False,0.0,0.0,0.0,0.0,0.0,0.0,0.0,-0.0,-0.0,1707477546,187312896,0,0
1707477546,340268796,base_link,False,0.0,0.0,0.0,0.0,0.0,0.0,0.0,-0.0,-0.0,1707477546,237724928,0,0
1707477546,390198817,base_link,False,0.0,0.0,0.0,0.0,0.0,0.0,0.0,-0.0,-0.0,1707477546,288165376,0,0
1707477546,440216423,base_link,False,0.0,0.0,0.0,0.0,0.0,0.0,0.0,-0.0,-0.0,1707477546,338577152,0,0
1707477546,490223622,base_link,False,0.0,0.0,0.0,0.0,0.0,0.0,0.0,-0.0,-0.0,1707477546,389021184,0,0
1707477546,540197855,base_link,False,0.0,0.0,0.0,0.0,0.0,0.0,0.0,-0.0,-0.0,1707477546,439459840,0,0
1707477546,590196044,base_link,False,4.029459796513601e-06,0.0,0.0,-0.00058644747144162,-2.0499860452126983e-09,0.0,0.0,-0.0,-0.0,1707477546,489881088,0,0
1707477546,640206036,base_link,False,0.0,0.0,0.0,0.0,0.0,0.0,0.0,-0.0,-0.0,1707477546,540353536,0,0
1707477546,690199406,base_link,False,0.0,0.0,0.0,0.0,0.0,0.0,0.0,-0.0,-0.0,1707477546,590736896,0,0
1707477546,740207164,base_link,False,0.0,0.0,0.0,0.0,0.0,0.0,0.0,-0.0,-0.0,1707477546,641159168,0,0
1707477546,790196134,base_link,False,7.021114218235822e-06,0.0,0.0,0.00027441662030063224,0.0,0.0,0.0,-0.0,-0.0,1707477546,691590144,0,0
1707477546,840202983,base_link,False,0.0,0.0,0.0,0.0,0.0,0.0,0.0,-0.0,-0.0,1707477546,742031616,0,0
1707477546,890198169,base_link,False,0.0,0.0,0.0,0.0,0.0,0.0,0.0,-0.0,-0.0,1707477546,792455680,0,0
1707477546,940221642,base_link,False,-2.9148785121521994e-05,0.0,0.0,-0.000977848514146151,-5.699487527219458e-09,0.0,0.0,-0.0,-0.0,1707477546,842902272,0,0
1707477546,990195036,base_link,False,0.0,0.0,0.0,0.0,0.0,0.0,0.0,-0.0,-0.0,1707477546,893327104,0,0
1707477547,40205797,base_link,False,0.0,0.0,0.0,0.0,0.0,0.0,0.0,-0.0,-0.0,1707477546,943751936,0,0
1707477547,90216698,base_link,False,7.021114218235822e-06,0.0,0.0,0.00027441662030063224,0.0,0.0,0.0,-0.0,-0.0,1707477546,994173952,0,0
1707477547,140211045,base_link,False,0.0,0.0,0.0,0.0,0.0,0.0,0.0,-0.0,-0.0,1707477547,44604672,0,0
1707477547,190193170,base_link,False,0.0,0.0,0.0,0.0,0.0,0.0,0.0,-0.0,-0.0,1707477547,95047424,0,0
1707477547,240207842,base_link,False,0.0,0.0,0.0,0.0,0.0,0.0,0.0,-0.0,-0.0,1707477547,145466880,0,0
1707477547,290199117,base_link,False,2.3151831058406814e-05,0.0,0.0,-0.0014915932696048055,-0.2147001961467993,0.0,0.0,-0.0,-0.0,1707477547,195914496,0,0
1707477547,340195630,base_link,False,0.0,0.0,0.0,0.0,0.0,0.0,0.0,-0.0,-0.0,1707477547,246323968,0,0
1707477547,390206042,base_link,False,-7.383332049341917e-06,0.0,0.0,-0.00023146529823476206,-3.1934820958789854e-10,0.0,0.0,-0.0,-0.0,1707477547,296753408,0,0
1707477547,440206675,base_link,False,0.0,0.0,0.0,0.0,0.0,0.0,0.0,-0.0,-0.0,1707477547,347184384,0,0
1707477547,490203537,base_link,False,0.0,0.0,0.0,0.0,0.0,0.0,0.0,-0.0,-0.0,1707477547,397610240,0,0
1707477547,540195231,base_link,False,2.3151831058406814e-05,0.0,0.0,-0.0014915932696048055,-0.2147001961467993,0.0,0.0,-0.0,-0.0,1707477547,448042240,0,0
1707477547,590195864,base_link,False,0.0,0.0,0.0,0.0,0.0,0.0,0.0,-0.0,-0.0,1707477547,498466560,0,0
1707477547,640206486,base_link,False,0.0,0.0,0.0,0.0,0.0,0.0,0.0,-0.0,-0.0,1707477547,548894464,0,0
1707477547,690195944,base_link,False,0.0,0.0,0.0,0.0,0.0,0.0,0.0,-0.0,-0.0,1707477547,599343616,0,0
1707477547,740209499,base_link,False,0.0,0.0,0.0,0.0,0.0,0.0,0.0,-0.0,-0.0,1707477547,649763584,0,0
1707477547,790214952,base_link,False,0.0,0.0,0.0,0.0,0.0,0.0,0.0,-0.0,-0.0,1707477547,700187904,0,0
1707477547,840216214,base_link,False,4.029459796513601e-06,0.0,0.0,-0.00058644747144162,-2.0499860452126983e-09,0.0,0.0,-0.0,-0.0,1707477547,750623488,0,0
1707477547,890194847,base_link,False,0.0,0.0,0.0,0.0,0.0,0.0,0.0,-0.0,-0.0,1707477547,801060864,0,0
1707477547,940206865,base_link,False,7.021114218235822e-06,0.0,0.0,0.00027441662030063224,0.0,0.0,0.0,-0.0,-0.0,1707477547,851492608,0,0
1707477547,990203028,base_link,False,0.0,0.0,0.0,0.0,0.0,0.0,0.0,-0.0,-0.0,1707477547,901911040,0,0
1707477548,40202335,base_link,False,0.0,0.0,0.0,0.0,0.0,0.0,0.0,-0.0,-0.0,1707477547,952340992,0,0
1707477548,90195146,base_link,False,9.216059339388098e-06,0.0,0.0,-0.0004311618034659523,-1.108085444766601e-09,0.0,0.0,-0.0,-0.0,1707477548,2780928,0,0
1707477548,140194662,base_link,False,0.0,0.0,0.0,0.0,0.0,0.0,0.0,-0.0,-0.0,1707477548,53201408,0,0
1707477548,190197042,base_link,False,0.0,0.0,0.0,0.0,0.0,0.0,0.0,-0.0,-0.0,1707477548,103640320,0,0
1707477548,240194742,base_link,False,0.0,0.0,0.0,0.0,0.0,0.0,0.0,-0.0,-0.0,1707477548,154068224,0,0
1707477548,290208646,base_link,False,0.0,0.0,0.0,0.0,0.0,0.0,0.0,-0.0,-0.0,1707477548,204496896,0,0
1707477548,340218080,base_link,False,0.0,0.0,0.0,0.0,0.0,0.0,0.0,-0.0,-0.0,1707477548,254922496,0,0
1707477548,390195944,base_link,False,2.3151831058406814e-05,0.0,0.0,-0.0014915932696048055,-0.2147001961467993,0.0,0.0,-0.0,-0.0,1707477548,305359360,0,0
1707477548,440196019,base_link,False,0.0,0.0,0.0,0.0,0.0,0.0,0.0,-0.0,-0.0,1707477548,355785216,0,0
1707477548,490203428,base_link,False,0.0,0.0,0.0,0.0,0.0,0.0,0.0,-0.0,-0.0,1707477548,406207744,0,0
1707477548,540207065,base_link,False,0.0,0.0,0.0,0.0,0.0,0.0,0.0,-0.0,-0.0,1707477548,456641024,0,0
1707477548,590195336,base_link,False,4.029459796513601e-06,0.0,0.0,-0.00058644747144162,-2.0499860452126983e-09,0.0,0.0,-0.0,-0.0,1707477548,507067648,0,0
1707477548,640195550,base_link,False,0.0,0.0,0.0,0.0,0.0,0.0,0.0,-0.0,-0.0,1707477548,557508608,0,0
1707477548,690209315,base_link,False,0.0,0.0,0.0,0.0,0.0,0.0,0.0,-0.0,-0.0,1707477548,607937024,0,0
1707477548,740195560,base_link,False,0.0,0.0,0.0,0.0,0.0,0.0,0.0,-0.0,-0.0,1707477548,658359808,0,0
1707477548,790194168,base_link,False,0.0,0.0,0.0,0.0,0.0,0.0,0.0,-0.0,-0.0,1707477548,708788224,0,0
1707477548,840197316,base_link,False,7.021114218235822e-06,0.0,0.0,0.00027441662030063224,0.0,0.0,0.0,-0.0,-0.0,1707477548,759215360,0,0
1707477548,890222954,base_link,False,0.0,0.0,0.0,0.0,0.0,0.0,0.0,-0.0,-0.0,1707477548,809646336,0,0
1707477548,940204101,base_link,False,1.659939063039871e-05,0.0,0.0,-0.00019969652976252033,-2.377025015567689e-10,0.0,0.0,-0.0,-0.0,1707477548,860080640,0,0
1707477548,990203967,base_link,False,0.0,0.0,0.0,0.0,0.0,0.0,0.0,-0.0,-0.0,1707477548,910504704,0,0
1707477549,40229325,base_link,False,9.216059339388098e-06,0.0,0.0,-0.0004311618034659523,-1.108085444766601e-09,0.0,0.0,-0.0,-0.0,1707477548,960935936,0,0
1707477549,90196643,base_link,False,0.0,0.0,0.0,0.0,0.0,0.0,0.0,-0.0,-0.0,1707477549,11367936,0,0
1707477549,140247564,base_link,False,-7.409929103168233e-06,0.0,0.0,-0.00022185170357411565,-2.9337171249230895e-10,0.0,0.0,-0.0,-0.0,1707477549,61794048,0,0
1707477549,190195256,base_link,False,4.029459796513601e-06,0.0,0.0,-0.00058644747144162,-2.0499860452126983e-09,0.0,0.0,-0.0,-0.0,1707477549,112236800,0,0
1707477549,240198474,base_link,False,1.6089691765847196e-05,0.0,0.0,-0.0009456154721496957,-5.32993366362202e-09,0.0,0.0,-0.0,-0.0,1707477549,162670592,0,0
1707477549,290207209,base_link,False,0.0,0.0,0.0,0.0,0.0,0.0,0.0,-0.0,-0.0,1707477549,213083648,0,0
1707477549,340245559,base_link,False,1.8822219359020444e-05,0.0,0.0,-0.0001331455227530417,-1.056685772513725e-10,0.0,0.0,-0.0,-0.0,1707477549,263515648,0,0
1707477549,390179631,base_link,False,0.0,0.0,0.0,0.0,0.0,0.0,0.0,-0.0,-0.0,1707477549,313956864,0,0
1707477549,440215466,base_link,False,0.0,0.0,0.0,0.0,0.0,0.0,0.0,-0.0,-0.0,1707477549,364376064,0,0
1707477549,490198918,base_link,False,9.216059339388098e-06,0.0,0.0,-0.0004311618034659523,-1.108085444766601e-09,0.0,0.0,-0.0,-0.0,1707477549,414806528,0,0
1707477549,540196548,base_link,False,9.216059339388098e-06,0.0,0.0,-0.0004311618034659523,-1.108085444766601e-09,0.0,0.0,-0.0,-0.0,1707477549,465239808,0,0
1707477549,590196064,base_link,False,0.0,0.0,0.0,0.0,0.0,0.0,0.0,-0.0,-0.0,1707477549,515666688,0,0
1707477549,640197815,base_link,False,0.0,0.0,0.0,0.0,0.0,0.0,0.0,-0.0,-0.0,1707477549,566103296,0,0
1707477549,690199986,base_link,False,0.0,0.0,0.0,0.0,0.0,0.0,0.0,-0.0,-0.0,1707477549,616550656,0,0
1707477549,740204740,base_link,False,0.0,0.0,0.0,0.0,0.0,0.0,0.0,-0.0,-0.0,1707477549,666966784,0,0
1707477549,790193221,base_link,False,9.216059339388098e-06,0.0,0.0,-0.0004311618034659523,-1.108085444766601e-09,0.0,0.0,-0.0,-0.0,1707477549,717397248,0,0
1707477549,840210268,base_link,False,2.3151831058406814e-05,0.0,0.0,-0.0014915932696048055,-0.2147001961467993,0.0,0.0,-0.0,-0.0,1707477549,767821056,0,0
1707477549,890194278,base_link,False,9.216059339388098e-06,0.0,0.0,-0.0004311618034659523,-1.108085444766601e-09,0.0,0.0,-0.0,-0.0,1707477549,818256896,0,0
1707477549,940193375,base_link,False,0.0,0.0,0.0,0.0,0.0,0.0,0.0,-0.0,-0.0,1707477549,868683008,0,0
1707477549,990194288,base_link,False,0.0,0.0,0.0,0.0,0.0,0.0,0.0,-0.0,-0.0,1707477549,919111168,0,0
1707477550,40196738,base_link,False,0.0,0.0,0.0,0.0,0.0,0.0,0.0,-0.0,-0.0,1707477549,969549568,0,0
1707477550,90230408,base_link,False,0.0,0.0,0.0,0.0,0.0,0.0,0.0,-0.0,-0.0,1707477549,969549568,0,0
1707477550,140196399,base_link,False,0.0,0.0,0.0,0.0,0.0,0.0,0.0,-0.0,-0.0,1707477550,70392576,0,0
1707477550,190202340,base_link,False,1.6089691765847196e-05,0.0,0.0,-0.0009456154721496957,-5.32993366362202e-09,0.0,0.0,-0.0,-0.0,1707477550,120823552,0,0
1707477550,240196129,base_link,False,0.0,0.0,0.0,0.0,0.0,0.0,0.0,-0.0,-0.0,1707477550,171263488,0,0
1707477550,290213316,base_link,False,-7.255151251969292e-06,0.0,0.0,-0.00024879438921273235,-3.689554041826292e-10,0.0,0.0,-0.0,-0.0,1707477550,221685504,0,0
1707477550,340224496,base_link,False,0.0,0.0,0.0,0.0,0.0,0.0,0.0,-0.0,-0.0,1707477550,272127488,0,0
1707477550,390195236,base_link,False,9.216059339388098e-06,0.0,0.0,-0.0004311618034659523,-1.108085444766601e-09,0.0,0.0,-0.0,-0.0,1707477550,322554368,0,0
1707477550,440201597,base_link,False,1.6089691765847196e-05,0.0,0.0,-0.0009456154721496957,-5.32993366362202e-09,0.0,0.0,-0.0,-0.0,1707477550,372967936,0,0
1707477550,490197831,base_link,False,9.216059339388098e-06,0.0,0.0,-0.0004311618034659523,-1.108085444766601e-09,0.0,0.0,-0.0,-0.0,1707477550,423408384,0,0
1707477550,540207404,base_link,False,0.0,0.0,0.0,0.0,0.0,0.0,0.0,-0.0,-0.0,1707477550,473837312,0,0
1707477550,590196514,base_link,False,0.0,0.0,0.0,0.0,0.0,0.0,0.0,-0.0,-0.0,1707477550,524275456,0,0
1707477550,640204062,base_link,False,0.0,0.0,0.0,0.0,0.0,0.0,0.0,-0.0,-0.0,1707477550,574693120,0,0
1707477550,690219083,base_link,False,1.6089691765847196e-05,0.0,0.0,-0.0009456154721496957,-5.32993366362202e-09,0.0,0.0,-0.0,-0.0,1707477550,625121280,0,0
1707477550,740197157,base_link,False,0.0,0.0,0.0,0.0,0.0,0.0,0.0,-0.0,-0.0,1707477550,675575040,0,0
1707477550,790206940,base_link,False,0.0,0.0,0.0,0.0,0.0,0.0,0.0,-0.0,-0.0,1707477550,725997824,0,0
1707477550,840195770,base_link,False,0.0,0.0,0.0,0.0,0.0,0.0,0.0,-0.0,-0.0,1707477550,776422400,0,0
1707477550,890197452,base_link,False,0.0,0.0,0.0,0.0,0.0,0.0,0.0,-0.0,-0.0,1707477550,826854144,0,0
1707477550,940200390,base_link,False,0.0,0.0,0.0,0.0,0.0,0.0,0.0,-0.0,-0.0,1707477550,877289728,0,0
1707477550,990194179,base_link,False,2.3151831058406814e-05,0.0,0.0,-0.0014915932696048055,-0.2147001961467993,0.0,0.0,-0.0,-0.0,1707477550,927707648,0,0
1707477551,40196209,base_link,False,0.0,0.0,0.0,0.0,0.0,0.0,0.0,-0.0,-0.0,1707477550,978131200,0,0
1707477551,90205434,base_link,False,0.0,0.0,0.0,0.0,0.0,0.0,0.0,-0.0,-0.0,1707477551,28572928,0,0
1707477551,140197546,base_link,False,2.3151831058406814e-05,0.0,0.0,-0.0014915932696048055,-0.2147001961467993,0.0,0.0,-0.0,-0.0,1707477551,78996480,0,0
1707477551,190205583,base_link,False,0.0,0.0,0.0,0.0,0.0,0.0,0.0,-0.0,-0.0,1707477551,129432320,0,0
1707477551,240197487,base_link,False,2.3110806446903906e-05,0.0,0.0,-0.0006711988023687296,-1.377855883916672e-09,3.123112916946411,0.0,-0.0,-0.0,1707477551,179849984,0,0
1707477551,290195326,base_link,False,-3.123112916946411,0.0,0.0,3.123112916946411,0.0,3.1520981788635254,0.0,-0.0,-0.0,1707477551,230303744,0,0
1707477551,340195750,base_link,False,-3.1520981788635254,0.0,0.0,3.1520981788635254,0.0,3.181858777999878,0.0,-0.0,-0.0,1707477551,280712448,0,0
1707477551,390206791,base_link,False,-3.181858777999878,0.0,0.0,3.181858777999878,0.0,3.196850061416626,0.0,-0.0,-0.0,1707477551,331150848,0,0
1707477551,440207285,base_link,False,-3.1968648546774134,0.0,0.0,3.196396744410914,-1.2248888948933748e-09,3.242326498031616,0.0,-0.0,-0.0,1707477551,381577216,0,0
1707477551,490195835,base_link,False,-3.24231040833985,0.0,0.0,3.2413808825594663,-5.32993366362202e-09,3.2896971702575684,0.0,-0.0,-0.0,1707477551,432000512,0,0
1707477551,540216305,base_link,False,-3.2896971702575684,0.0,0.0,3.2896971702575684,0.0,3.315100908279419,0.0,-0.0,-0.0,1707477551,482429952,0,0
1707477551,590208766,base_link,False,-3.315100908279419,0.0,0.0,3.315100908279419,0.0,3.33396315574646,0.0,-0.0,-0.0,1707477551,532868864,0,0
1707477551,640195082,base_link,False,-3.33396315574646,0.0,0.0,3.33396315574646,0.0,3.3618767261505127,0.0,-0.0,-0.0,1707477551,583295744,0,0
1707477551,690195157,base_link,False,-3.3618767261505127,0.0,0.0,3.3618767261505127,0.0,3.3822550773620605,0.0,-0.0,-0.0,1707477551,633724672,0,0
1707477551,740193695,base_link,False,-3.382243638474102,0.0,0.0,3.3818904665667753,-7.92413281381169e-10,3.397178888320923,0.0,-0.0,-0.0,1707477551,684154624,0,0
1707477551,790195376,base_link,False,-3.3971428294262225,0.0,0.0,3.3952795010972125,-0.2147001936420689,3.443997223085563,0.0,-0.002125931575860962,-5.3081936975304916e-05,1707477551,734578944,0,0
1707477551,840199013,base_link,False,-3.4439736279261757,0.0,0.0,3.4432555416386155,-0.002125935113565638,3.452693755170946,0.0,-0.08318676810434181,-0.038918541665846754,1707477551,785021952,0,0
1707477551,890194478,base_link,False,-3.4526747482612565,0.0,0.0,3.4523970486036966,-0.08318676867094944,3.4771725959194124,0.0,-0.3306882314890536,-0.27816006132799104,1707477551,835437824,0,0
1707477551,940211316,base_link,False,-3.477155386804453,0.0,0.0,3.4770534439289067,-0.3306882315804407,3.4955041083235923,0.0,-0.36296453625765457,-0.3067613906074259,1707477551,885882624,0,0
1707477551,990199308,base_link,False,-3.4954876155303607,0.0,0.0,3.495456229501818,-0.3629645362724109,3.5140357868747345,0.0,-0.3783026057880259,-0.3067613906074259,1707477551,885882624,0,0
1707477552,40197357,base_link,False,-3.514019581038866,0.0,0.0,3.5140165458197203,-0.37830260579040903,3.5303121209597927,0.0,-0.36356932879134524,-0.24297698053061162,1707477551,936302848,0,0
1707477552,90211051,base_link,False,-3.5302960303028463,0.0,0.0,3.530304388435362,-0.36356932879173015,3.5404148287647197,0.0,-0.259491183275398,0.07957565093221919,1707477551,986747904,0,0
1707477552,140203723,base_link,False,-3.5403987843728704,0.0,0.0,3.5404117212381445,-0.25949118327546017,3.5652106417794958,0.0,-0.4219348819167966,-0.4108570145950903,1707477552,37160448,0,0
1707477552,190232573,base_link,False,-3.565194615976903,0.0,0.0,3.565209392934364,-0.42193488191680667,3.5853642183348273,0.0,-0.42215930679966734,-0.3486473970154386,1707477552,87586304,0,0
1707477552,240211625,base_link,False,-3.5853482000022514,0.0,0.0,3.585363716451985,-0.42215930679966895,3.611675776688674,0.0,-0.506335846896054,-0.5582234271787739,1707477552,138018560,0,0
1707477552,290209325,base_link,False,-3.6116597613580352,0.0,0.0,3.611675574993216,-0.5063358468960543,3.6411147679986273,0.0,-0.5823383986295217,-0.7116283918868525,1707477552,188454400,0,0
1707477552,340221274,base_link,False,-3.641098753874385,0.0,0.0,3.6411146869417466,-0.5823383986295217,3.676614117194524,0.0,-0.6952217793651837,-0.9606338621783621,1707477552,238877952,0,0
1707477552,390215761,base_link,False,-3.676598103555103,0.0,0.0,3.676614084619582,-0.6952217793651837,3.7140077369687643,0.0,-0.763429149221687,-1.0260222926277913,1707477552,289310464,0,0
1707477552,440212134,base_link,False,-3.7139917235241815,0.0,0.0,3.7140077238776255,-0.763429149221687,3.7466302916329526,0.0,-0.7183829141998477,-0.7125624484674049,1707477552,339743488,0,0
1707477552,490213396,base_link,False,-3.746593296566666,0.0,0.0,3.7455751853461305,-0.7183829213659848,3.786349923075302,0.0,-0.7950710364470768,-0.8464727654198902,1707477552,390184448,0,0
1707477552,540214868,base_link,False,-3.7863192388208176,0.0,0.0,3.785925899641454,-0.7950710376044474,3.8339187720080887,0.0,-0.9327777588389455,-1.1580254045924747,1707477552,440601856,0,0
1707477552,590215362,base_link,False,-3.8338906239276844,0.0,0.0,3.833748366532374,-0.9327777590258672,3.8802243475509113,0.0,-0.9655357232143812,-1.0758195766945635,1707477552,491030016,0,0
1707477552,640210757,base_link,False,-3.8802062008124816,0.0,0.0,3.880010992686567,-0.9655357235074016,3.9307264926887235,0.0,-1.0317611317768025,-1.1164987031062485,1707477552,541467136,0,0
1707477552,690220959,base_link,False,-3.9306654233629224,0.0,0.0,3.92935011580891,-1.0317611439713987,3.9821087967476623,0.0,-1.0649716687043125,-1.0424873084987478,1707477552,591896832,0,0
1707477552,740212793,base_link,False,-3.982055959820022,0.0,0.0,3.981555661855337,-1.0649716706738073,4.026232260066532,0.0,-0.9698221794738006,-0.5603782793334406,1707477552,642334208,0,0
1707477552,790212379,base_link,False,-4.026173507989292,0.0,0.0,4.02613069490594,-0.9698221795402028,4.064173676796097,0.0,-0.8389539582430009,-0.040172250664896714,1707477552,692772352,0,0
1707477552,840211406,base_link,False,-4.064115532217465,0.0,0.0,4.064132859791628,-0.8478721400719071,4.095166134435159,0.0,-0.685528152528036,0.46877902720698283,1707477552,743191296,0,0
1707477552,890212039,base_link,False,-4.095082609901911,0.0,0.0,4.093630384897122,-0.6855281677101924,4.122271603264272,0.0,-0.5690858634642882,0.7733260326285434,1707477552,793610496,0,0
1707477552,940213581,base_link,False,-4.122131949465183,0.0,0.0,4.120338256001722,-0.7748678752467393,4.146104399440313,0.0,-0.47879966943133984,0.9423661641492966,1707477552,844047872,0,0
1707477552,990211560,base_link,False,-4.1460105179501525,0.0,0.0,4.144575824012441,-0.4787996824609794,4.175206626816456,0.0,-0.5212290155890279,0.6491164202378957,1707477552,894483712,0,0
1707477553,40205000,base_link,False,-4.175123800883793,0.0,0.0,4.174783612704435,-0.5212290165977254,4.2040667658367346,0.0,-0.5397614220480501,0.4821380932505588,1707477552,944898560,0,0
1707477553,90215342,base_link,False,-4.204030835111693,0.0,0.0,4.203117800210307,-0.5486796087813798,4.233028570412285,0.0,-0.5520433307819551,0.3629693498490223,1707477552,995341056,0,0
1707477553,140212204,base_link,False,-4.233036149219314,0.0,0.0,4.232258189953957,-0.5520433346023058,4.270030395491427,0.0,-0.6730627309765544,-0.09279058187804773,1707477553,45774592,0,0
1707477553,190196564,base_link,False,-4.270024665848812,0.0,0.0,4.2700153741790325,-0.6819809126179012,4.307324603567112,0.0,-0.7274901742328729,-0.2558413347937435,1707477553,96190720,0,0
1707477553,240204042,base_link,False,-4.307318963779493,0.0,0.0,4.307318566765939,-0.7274901742331075,4.3274845723188,0.0,-0.506752771610135,0.5089476930892084,1707477553,146625792,0,0
1707477553,290196644,base_link,False,-4.32746174711416,0.0,0.0,4.325759978874446,-0.5067527897403595,4.359498151295966,0.0,-0.5845811812674789,0.17072777303594333,1707477553,197051392,0,0
1707477553,340198814,base_link,False,-4.3594483798020764,0.0,0.0,4.359251227308906,-0.5845811815016327,4.408988302355765,0.0,-0.8652248717675061,-0.7763146685903736,1707477553,247501056,0,0
1707477553,390214185,base_link,False,-4.408924176910491,0.0,0.0,4.407305971855536,-0.865224887935408,4.442977757186331,0.0,-0.7593808972558095,-0.30256499179827834,1707477553,297908480,0,0
1707477553,440212094,base_link,False,-4.442923694797809,0.0,0.0,4.442301658280225,-0.7593809001982872,4.487705129030083,0.0,-0.8646214369108778,-0.5976760897271833,1707477553,348338432,0,0
1707477553,490218106,base_link,False,-4.487664334094414,0.0,0.0,4.487312692811077,-0.8646214379022367,4.532625831828649,0.0,-0.9078175392714692,-0.6412728934966777,1707477553,398760960,0,0
1707477553,540195691,base_link,False,-4.5325308856370725,0.0,0.0,4.532033693485946,-0.9078175409121185,4.569893977318037,0.0,-0.8138347890447926,-0.22848008584685603,1707477553,449203200,0,0
1707477553,590194788,base_link,False,-4.569792812695823,0.0,0.0,4.569723081005429,-0.8138347892327927,4.602712537422427,0.0,-0.7100248638904203,0.1489027189365616,1707477553,499637760,0,0
1707477553,640194863,base_link,False,-4.602612394967749,0.0,0.0,4.602643858034367,-0.7100248639207833,4.63138307248077,0.0,-0.6087322293605346,0.4562465251501806,1707477553,550054656,0,0
1707477553,690201713,base_link,False,-4.631217786529572,0.0,0.0,4.6310585387850995,-0.6087322293760461,4.65577378751727,0.0,-0.5085831432596889,0.7095188599621647,1707477553,600493312,0,0
1707477553,740193825,base_link,False,-4.655584208765293,0.0,0.0,4.6540629752603815,-0.5175013439186291,4.679717256327965,0.0,-0.4646499424952576,0.7372157725189663,1707477553,650933760,0,0
1707477553,790195088,base_link,False,-4.679547303330062,0.0,0.0,4.678925742061594,-0.4735681283462815,4.70511007998799,0.0,-0.4713168980266826,0.594665530310045,1707477553,701349120,0,0
1707477553,840193277,base_link,False,-4.7048637293849,0.0,0.0,4.703980372158981,-0.4713169061596765,4.7278542580970555,0.0,-0.4404772260850924,0.5982888960648309,1707477553,751775744,0,0
1707477553,890194678,base_link,False,-4.72760327205035,0.0,0.0,4.727304072099588,-0.44939540903876324,4.745873342917454,0.0,-0.364562375138923,0.7489369315321155,1707477553,802221568,0,0
1707477553,940202436,base_link,False,-4.745634709302542,0.0,0.0,4.7455152739428135,-0.364562375753843,4.762565432503953,0.0,-0.31864318315322154,0.7766832560509206,1707477553,852647424,0,0
1707477553,990193920,base_link,False,-4.762343745022047,0.0,0.0,4.760772721994383,-0.31864320350705355,4.78317994212467,0.0,-0.3596544187919702,0.5151952931349819,1707477553,903110656,0,0
1707477554,40206357,base_link,False,-4.783014651029074,0.0,0.0,4.781811454631547,-0.3596544305497815,4.802111786700886,0.0,-0.35639571898349104,0.44150591672790185,1707477553,953492224,0,0
1707477554,90206991,base_link,False,-4.802008283737907,0.0,0.0,4.800663611052843,-0.3563957321792878,4.819840351334382,0.0,-0.340826762569876,0.42019812092002184,1707477554,3922944,0,0
1707477554,140195472,base_link,False,-4.819807879493412,0.0,0.0,4.818193683730123,-0.3319085972042543,4.8358117768490585,0.0,-0.31212405313460206,0.4453915012931136,1707477554,54352896,0,0
1707477554,190196943,base_link,False,-4.835742918076188,0.0,0.0,4.835741849860678,-0.3121240524597825,4.8485331115275745,0.0,-0.25697218009556333,0.5530786731637712,1707477554,104795392,0,0
1707477554,240195761,base_link,False,-4.848376558268538,0.0,0.0,4.848038408817648,-0.248053998364196,4.862530622182436,0.0,-0.25530978682350725,0.4679582390734718,1707477554,155219712,0,0
1707477554,290195696,base_link,False,-4.8623393422974415,0.0,0.0,4.860649449624395,-0.47000998071922795,4.87973674733219,0.0,-0.30289280675488417,0.23550076847286386,1707477554,205642240,0,0
1707477554,340203943,base_link,False,-4.879510724896952,0.0,0.0,4.879596720988855,-0.31181098800507057,4.8937510864079945,0.0,-0.27931122773569095,0.27416634373062737,1707477554,256098560,0,0
1707477554,390195217,base_link,False,-4.893467623295263,0.0,0.0,4.893082375306867,-0.288229412432403,4.910942776127554,0.0,-0.31600886206657486,0.1090904609019806,1707477554,306508800,0,0
1707477554,440206886,base_link,False,-4.910653847881802,0.0,0.0,4.910770616412667,-0.31600886225736496,4.9307699176661535,0.0,-0.36935307936103123,-0.08347120451584952,1707477554,356933376,0,0
1707477554,490195507,base_link,False,-4.930450712576768,0.0,0.0,4.9296562266596196,-0.36935308706960746,4.946851746954736,0.0,-0.33835577133903044,0.03171087124039296,1707477554,407365888,0,0
1707477554,540228548,base_link,False,-4.946522019556081,0.0,0.0,4.946771995548459,-0.3383557706753681,4.9654247916410155,0.0,-0.36070878203303147,-0.04668618027482592,1707477554,457790208,0,0
1707477554,590207949,base_link,False,-4.965061303881985,0.0,0.0,4.964055157498526,-0.3607087941084399,4.986335806512885,0.0,-0.40283324832619566,-0.1769960969349536,1707477554,508226560,0,0
1707477554,640198385,base_link,False,-4.98595291443911,0.0,0.0,4.9861549346034115,-0.41175143035496664,5.006233717780186,0.0,-0.4051154838794045,-0.1554877776464329,1707477554,558662144,0,0
1707477554,690212569,base_link,False,-5.005774488351476,0.0,0.0,5.005720683200484,-0.4051154854382674,5.020341619414306,0.0,-0.3233127026667666,0.13787104191987976,1707477554,609084672,0,0
1707477554,740233387,base_link,False,-5.019886313359184,0.0,0.0,5.020220885670354,-0.3322308838812475,5.040837997459671,0.0,-0.380020308452607,-0.070418197174585,1707477554,659545344,0,0
1707477554,790233671,base_link,False,-5.04041964786404,0.0,0.0,5.0402405702605995,-0.3800203099289544,5.053088181666463,0.0,-0.2869498042150332,0.2459117693739807,1707477554,709944832,0,0
1707477554,840210838,base_link,False,-5.052710747700341,0.0,0.0,5.052409983158996,-0.2869498069378501,5.0705245673320185,0.0,-0.3226230696971123,0.08881720659524447,1707477554,760372224,0,0
1707477554,890196874,base_link,False,-5.07017882089856,0.0,0.0,5.069885801534227,-0.322623072323604,5.08064203810687,0.0,-0.2348135052610858,0.3618437444910838,1707477554,810806528,0,0
1707477554,940194783,base_link,False,-5.080253533374002,0.0,0.0,5.078856694695764,-0.44951369874767366,5.096379093098145,0.0,-0.2795541728227494,0.15607064303404403,1707477554,861231104,0,0
1707477554,990223843,base_link,False,-5.096000656531253,0.0,0.0,5.095600569342663,-0.2795541767242929,5.107760371253921,0.0,-0.23783428007533614,0.2671442960402972,1707477554,911661312,0,0
1707477555,40203035,base_link,False,-5.107413626220715,0.0,0.0,5.107021733119719,-0.23783428347134977,5.115143480105718,0.0,-0.16551430004972995,0.46024313122497906,1707477554,962092800,0,0
1707477555,90207300,base_link,False,-5.114801073756235,0.0,0.0,5.114838725022864,-0.1655143004942338,5.123742707087691,0.0,-0.15519694566522868,0.41866856286926357,1707477555,12524544,0,0
1707477555,140194594,base_link,False,-5.123396269726087,0.0,0.0,5.12199164742587,-0.16411514620120668,5.13318365699725,0.0,-0.16539882421867252,0.31670266229636945,1707477555,62948864,0,0
1707477555,190206822,base_link,False,-5.132874504132312,0.0,0.0,5.1320316313071315,-0.1653988318451293,5.143761317876916,0.0,-0.18774908811324847,0.19164822063951711,1707477555,113381632,0,0
1707477555,240196560,base_link,False,-5.143430903240454,0.0,0.0,5.143612369913265,-0.18774908808929774,5.15337373844702,0.0,-0.18472761053523196,0.17016163325034275,1707477555,163822848,0,0
1707477555,290196146,base_link,False,-5.1530279421888965,0.0,0.0,5.151686540145791,-0.19364581067765227,5.159987293763048,0.0,-0.14217914632620376,0.2816414492672483,1707477555,214251520,0,0
1707477555,340195103,base_link,False,-5.159716025169472,0.0,0.0,5.158451277758791,-0.14217916120182106,5.16904092216147,0.0,-0.1605358001921669,0.1754069427050814,1707477555,264670208,0,0
1707477555,390211032,base_link,False,-5.168769858664964,0.0,0.0,5.16856850486485,-0.16053580162879483,5.179039528097183,0.0,-0.18271201158915434,0.0740591788596854,1707477555,315098880,0,0
1707477555,440195253,base_link,False,-5.178763128805234,0.0,0.0,5.179076644595482,-0.18271201087329772,5.190015276198793,0.0,-0.20630665299787804,-0.015338508159651293,1707477555,365531648,0,0
1707477555,490194978,base_link,False,-5.189672923605997,0.0,0.0,5.189715566324168,-0.20630665357610034,5.201725388074258,0.0,-0.22650252633205736,-0.07896692177266171,1707477555,415968256,0,0
1707477555,540222851,base_link,False,-5.2014138904175065,0.0,0.0,5.201381857837632,-0.22650252643253274,5.211322070707891,0.0,-0.20464432225925677,0.005547682612200386,1707477555,466396416,0,0
1707477555,590198899,base_link,False,-5.210924555377622,0.0,0.0,5.210721435038909,-0.20464432312039973,5.218337164350381,0.0,-0.1590265072147064,0.1540343481044919,1707477555,516822528,0,0
1707477555,640313029,base_link,False,-5.217907582830168,0.0,0.0,5.216615999461234,-0.16794470810235854,5.225381405477873,0.0,-0.1412326669486482,0.18708532801661634,1707477555,567268864,0,0
1707477555,690203449,base_link,False,-5.2249509428862,0.0,0.0,5.224615118053205,-0.141232670482964,5.235974893559179,0.0,-0.18506500032313328,0.012903021181028568,1707477555,617680640,0,0
1707477555,740194724,base_link,False,-5.235585947989226,0.0,0.0,5.235187916496581,-0.18506500406253498,5.245243789949531,0.0,-0.1848686388936631,0.01143326727131105,1707477555,668120832,0,0
1707477555,790304174,base_link,False,-5.244870033968825,0.0,0.0,5.244932760669318,-0.17595045749184846,5.259317703306521,0.0,-0.2527241531357298,-0.21266084094293633,1707477555,718545920,0,0
1707477555,840194105,base_link,False,-5.258974344740407,0.0,0.0,5.258917035535241,-0.2527241541691134,5.269229097903118,0.0,-0.22111765294216745,-0.0743293638745231,1707477555,768978944,0,0
1707477555,890210733,base_link,False,-5.268905932461797,0.0,0.0,5.2687615642873,-0.22111765434924627,5.282672387749554,0.0,-0.2572413878609353,-0.18046084248473712,1707477555,819479552,0,0
1707477555,940284772,base_link,False,-5.282305867615723,0.0,0.0,5.280998649223683,-0.47194158327650526,5.304040143310386,0.0,-0.38321202811469934,-0.5634558545203854,1707477555,869842944,0,0
1707477555,990220521,base_link,False,-5.303692248031142,0.0,0.0,5.3031857342071165,-0.3921302146320977,5.316918463059339,0.0,-0.31270663295851675,-0.2402918532063837,1707477555,920273664,0,0
1707477556,40195173,base_link,False,-5.316703391716048,0.0,0.0,5.314742959481821,-0.3216248430643789,5.336361431895484,0.0,-0.3742576537794503,-0.4025201093058769,1707477555,970685952,0,0
1707477556,90195806,base_link,False,-5.336325433681904,0.0,0.0,5.33331767784854,-0.36533952919541474,5.353959442702309,0.0,-0.3715308485699855,-0.32767879029277835,1707477556,21121280,0,0
1707477556,140195881,base_link,False,-5.354023080246914,0.0,0.0,5.351491682441005,-0.3626127036994037,5.373730449275491,0.0,-0.39900016643681624,-0.3639826108356774,1707477556,71551744,0,0
1707477556,190203220,base_link,False,-5.3737722676826225,0.0,0.0,5.373253148188084,-0.3900819860851158,5.389155393330031,0.0,-0.3468615835304808,-0.13363163450535795,1707477556,121983488,0,0
1707477556,240195891,base_link,False,-5.389131379505532,0.0,0.0,5.388353411285171,-0.34686158767068725,5.409409555232616,0.0,-0.39229980676927223,-0.2605568610199974,1707477556,172416256,0,0
1707477556,290197503,base_link,False,-5.409240799758422,0.0,0.0,5.409779592531336,-0.40121798482005094,5.429450295961015,0.0,-0.40674080876418367,-0.2651848553985758,1707477556,222842368,0,0
1707477556,340202676,base_link,False,-5.429037537135198,0.0,0.0,5.430453999487162,-0.4067408030645232,5.4455951326387515,0.0,-0.3561078969366809,-0.05594262289095081,1707477556,273277952,0,0
1707477556,390207151,base_link,False,-5.444736012080766,0.0,0.0,5.4457719855053455,-0.570808110680482,5.4644276313191495,0.0,-0.3724240973435172,-0.10021660694564154,1707477556,323697408,0,0
1707477556,440193327,base_link,False,-5.463195553525094,0.0,0.0,5.464859578153011,-0.3724240918564422,5.4804109739017886,0.0,-0.3384086625516521,0.027591617641574487,1707477556,374130944,0,0
1707477556,490206253,base_link,False,-5.479067252959931,0.0,0.0,5.479066172685119,-0.34732685601135904,5.498462980063927,0.0,-0.35349845386092577,-0.02634439730471297,1707477556,424557312,0,0
1707477556,540195363,base_link,False,-5.497036451020124,0.0,0.0,5.49718153404566,-0.541444103875855,5.513616622547041,0.0,-0.318740210584716,0.09180016197684257,1707477556,474992128,0,0
1707477556,590207800,base_link,False,-5.512105176241802,0.0,0.0,5.512188026377364,-0.5245222256193076,5.529363363954153,0.0,-0.31308357944046594,0.09529327609502283,1707477556,525423104,0,0
1707477556,640207805,base_link,False,-5.527869155879108,0.0,0.0,5.528615378495423,-0.3309199464343159,5.540312502998203,0.0,-0.24354770950976704,0.30741433943054675,1707477556,575858176,0,0
1707477556,690201873,base_link,False,-5.538876718317788,0.0,0.0,5.5391482954082525,-0.24354771631762137,5.553818622228962,0.0,-0.25237128817461835,0.228179753200004,1707477556,626301440,0,0
1707477556,740194195,base_link,False,-5.55241926828495,0.0,0.0,5.553168179469914,-0.2612894724806185,5.5623299107133,0.0,-0.18697996146064141,0.404968049209225,1707477556,676722432,0,0
1707477556,790204328,base_link,False,-5.56084346332035,0.0,0.0,5.561314808548487,-0.40168016097025455,5.576740216243485,0.0,-0.2453667211337877,0.147443522417065,1707477556,727150336,0,0
1707477556,840195183,base_link,False,-5.575133483506521,0.0,0.0,5.576213486571951,-0.24536672278549249,5.581152985483483,0.0,-0.12964626202214058,0.502276392965979,1707477556,777587456,0,0
1707477556,890212998,base_link,False,-5.579507004568785,0.0,0.0,5.579830651725367,-0.1296462729844878,5.588249277350873,0.0,-0.12207186663283097,0.4448360340991823,1707477556,828011008,0,0
1707477556,940195472,base_link,False,-5.586802676102013,0.0,0.0,5.584959262767551,-0.1577446595760343,5.595749318540326,0.0,-0.12740691498282367,0.35452382429215706,1707477556,878444288,0,0
1707477556,990194709,base_link,False,-5.594421744705381,0.0,0.0,5.592887991691881,-0.11848878200815789,5.603541716441079,0.0,-0.13602475394271413,0.26824901134067997,1707477556,928865536,0,0
1707477557,40194993,base_link,False,-5.602311224719171,0.0,0.0,5.60100076405966,-0.11818842628420277,5.6098869651445105,0.0,-0.12090786099259831,0.2738309381306554,1707477556,979304448,0,0
1707477557,90199329,base_link,False,-5.60882593788625,0.0,0.0,5.606559896374376,-0.12982610814423387,5.616101483213026,0.0,-0.11443947924315452,0.2501755893204066,1707477557,29729280,0,0
1707477557,140213931,base_link,False,-5.615271852265151,0.0,0.0,5.611922713856526,-0.12335776915507758,5.619583146461814,0.0,-0.07470555892536318,0.33933597666455345,1707477557,80150784,0,0
1707477557,190194799,base_link,False,-5.618891429676977,0.0,0.0,5.616679113394859,-0.07470561321233816,5.626165529174339,0.0,-0.10394197696071175,0.18802374893442952,1707477557,130577408,0,0
1707477557,240196271,base_link,False,-5.625464814964452,0.0,0.0,5.625491032551258,-0.10394197928704639,5.629624491859181,0.0,-0.07331103655340089,0.25754967012221897,1707477557,181016320,0,0
1707477557,290195577,base_link,False,-5.628837939323507,0.0,0.0,5.6287108303390525,-0.07331104182604334,5.634176702923714,0.0,-0.07750366869824193,0.20164626335070704,1707477557,231453440,0,0
1707477557,340193836,base_link,False,-5.633413378525065,0.0,0.0,5.633499652200599,-0.0775036716490104,5.638037846033714,0.0,-0.0707830952965192,0.19063680627197252,1707477557,281878784,0,0
1707477557,390193213,base_link,False,-5.637314652585139,0.0,0.0,5.637201555632605,-0.0707830995469605,5.6383599786289915,0.0,-0.019179970268990473,0.32841725198510757,1707477557,332306432,0,0
1707477557,440196151,base_link,False,-5.6376694179464915,0.0,0.0,5.637657684122434,-0.01917997344389932,5.640138856693804,0.0,-0.02013719241733323,0.27150526846842843,1707477557,382744576,0,0
1707477557,490533431,base_link,False,-5.639453558977924,0.0,0.0,5.639962860397807,-0.020137191928687407,5.643201531478154,0.0,-0.04039149200356033,0.16071587134296697,1707477557,433166848,0,0
1707477557,540196720,base_link,False,-5.642449046847128,0.0,0.0,5.642565316435772,-0.040391494609117395,5.64523987603793,0.0,-0.03545822609059643,0.1505553153737949,1707477557,483597568,0,0
1707477557,590217259,base_link,False,-5.644436167355128,0.0,0.0,5.643653547015646,-0.2501584198342409,5.64166616302374,0.0,0.04492678561706391,0.3891575802478008,1707477557,534011904,0,0
1707477557,640211048,base_link,False,-5.64090018455604,0.0,0.0,5.64072346480105,0.03600859807831495,5.645982299672314,0.0,-0.03517374603078503,0.06311091234756433,1707477557,584446464,0,0
1707477557,690198271,base_link,False,-5.645257018890894,0.0,0.0,5.644937035720147,-0.03517375117766038,5.644410029473209,0.0,0.013913754220754637,0.21353477567862264,1707477557,634893312,0,0
1707477557,740226982,base_link,False,-5.643700593083392,0.0,0.0,5.643906123026804,0.013913752586225908,5.640292164075302,0.0,0.06915511615887748,0.3594807262948963,1707477557,685320704,0,0
1707477557,790196954,base_link,False,-5.639531465023706,0.0,0.0,5.63883429856725,0.0691551034468983,5.646418557089957,0.0,-0.0545831772007383,-0.10461700873612378,1707477557,735745536,0,0
1707477557,840219030,base_link,False,-5.645683682511704,0.0,0.0,5.64545693956988,-0.05458318289084921,5.644490591576653,0.0,0.007809818756605684,0.11684624726797885,1707477557,786167808,0,0
1707477557,890209955,base_link,False,-5.643799302208214,0.0,0.0,5.643715126576701,0.0078098148856597,5.639254855843617,0.0,0.08002306382223288,0.33420630062241447,1707477557,836598784,0,0
1707477557,940223859,base_link,False,-5.638577428056135,0.0,0.0,5.638822489253702,0.08002306261886895,5.634835944776727,0.0,0.0967333788533536,0.33420630062241447,1707477557,836598784,0,0
1707477557,990239788,base_link,False,-5.6342361602563455,0.0,0.0,5.633823119045965,0.08781519043183936,5.637898781393996,0.0,0.025522962194405738,0.07267254742302093,1707477557,887043328,0,0
1707477558,40214440,base_link,False,-5.637350479115196,0.0,0.0,5.636818761780938,0.025522955590133747,5.634970738229278,0.0,0.051578892893997724,0.14632819381282589,1707477557,937465856,0,0
1707477558,90208369,base_link,False,-5.634493185532075,0.0,0.0,5.633663968255388,0.05157888219371061,5.636985556886943,0.0,-0.009258526027802298,-0.0767629393571434,1707477557,987897600,0,0
1707477558,140203345,base_link,False,-5.636524801049944,0.0,0.0,5.636315536359408,-0.00034034709942136303,5.637405509428103,0.0,-0.011131698643410608,-0.07033552107280766,1707477558,38327040,0,0
1707477558,190227097,base_link,False,-5.63698508418551,0.0,0.0,5.636596184556712,-0.020049884428705568,5.638645352955999,0.0,-0.02305738249109373,-0.09786189433114348,1707477558,88758016,0,0
1707477558,240200911,base_link,False,-5.638266259990687,0.0,0.0,5.637796807512749,-0.02305738687339236,5.634742919056917,0.0,0.04517716710164244,0.14161000213843133,1707477558,139184896,0,0
1707477558,290208319,base_link,False,-5.634378743372704,0.0,0.0,5.634343019675095,0.04517716621737794,5.635155977930771,0.0,0.012019375702400081,0.009829015172833994,1707477558,189607936,0,0
1707477558,340208114,base_link,False,-5.634738755267685,0.0,0.0,5.633623707934657,-0.20268081857985734,5.639525177958457,0.0,-0.057861495265476556,-0.2206427026059192,1707477558,240046336,0,0
1707477558,390193313,base_link,False,-5.6390790856627,0.0,0.0,5.639278282047586,-0.05786149565786892,5.63035502522961,0.0,0.10538274545031334,0.3501129047915955,1707477558,290474240,0,0
1707477558,440219509,base_link,False,-5.629866870236605,0.0,0.0,5.629031022731579,0.09646455241350058,5.629765051558629,0.0,0.05061882480692119,0.11343184573894063,1707477558,340894720,0,0
1707477558,490206523,base_link,False,-5.629347393141655,0.0,0.0,5.628189072507079,0.0506188098086061,5.630072498029433,0.0,0.014198549894945338,-0.024417238838192606,1707477558,391350528,0,0
1707477558,540194305,base_link,False,-5.629684714369118,0.0,0.0,5.629397832126063,0.014198547567109693,5.627450947280956,0.0,0.04040841610524898,0.065416933368151,1707477558,441767424,0,0
1707477558,590195288,base_link,False,-5.627104422115786,0.0,0.0,5.626729766150835,0.04040841275728001,5.619891874536982,0.0,0.12075186000352484,0.3178250558766938,1707477558,492205824,0,0
1707477558,640203255,base_link,False,-5.619547951259926,0.0,0.0,5.619430883638566,0.12075185885481904,5.620256891016829,0.0,0.04060196455057932,0.003296476378961577,1707477558,542637056,0,0
1707477558,690192574,base_link,False,-5.619915035536803,0.0,0.0,5.6200026804602645,0.04060196429229255,5.6215165481867295,0.0,-0.005755661063835543,-0.1490614275075211,1707477558,593046016,0,0
1707477558,740208783,base_link,False,-5.621116630763607,0.0,0.0,5.6206715515207115,-0.005755665553231408,5.603495044353923,0.0,0.24802185317222047,0.7064507934382085,1707477558,643495168,0,0
1707477558,790204039,base_link,False,-5.6030903726119945,0.0,0.0,5.603217700865698,0.24802185288053777,5.603010869552725,0.0,0.10255848085921371,0.11438954381227806,1707477558,693914112,0,0
1707477558,840211796,base_link,False,-5.602573499932714,0.0,0.0,5.601549888679142,0.10255846717319023,5.598226344086029,0.0,0.10140828840584001,0.09189185958354416,1707477558,744336896,0,0
1707477558,890195667,base_link,False,-5.597751266605323,0.0,0.0,5.598209980652654,0.11032647022229822,5.602827750792289,0.0,-0.03222347742442512,-0.3607896711278777,1707477558,794781440,0,0
1707477558,940198047,base_link,False,-5.6023527711995085,0.0,0.0,5.602821174576383,-0.0322234774247035,5.593880433051199,0.0,0.10523402067839402,0.1484518839796975,1707477558,845219072,0,0
1707477558,990209087,base_link,False,-5.593466918944326,0.0,0.0,5.592718806602488,0.09631583516368039,5.589323953203324,0.0,0.10007522543437353,0.10724873054538486,1707477558,895630848,0,0
1707477559,40195752,base_link,False,-5.58892351376828,0.0,0.0,5.588426659066954,0.10899340525207327,5.587639810991,0.0,0.05665816786016499,-0.05250062967302227,1707477558,946065152,0,0
1707477559,90210634,base_link,False,-5.587224500512167,0.0,0.0,5.587341585579073,0.06557634910583951,5.591946571672728,0.0,-0.04588007329906465,-0.379709250571717,1707477558,996511232,0,0
1707477559,140196461,base_link,False,-5.5915234523909465,0.0,0.0,5.591910560691408,-0.04588007330741227,5.585531830966533,0.0,0.06483978613269853,0.04506640326913547,1707477559,46915584,0,0
1707477559,190203171,base_link,False,-5.585108927104855,0.0,0.0,5.585517358609678,0.05592160431316845,5.586351928669539,0.0,0.008924878636335586,-0.14543038097561287,1707477559,97358848,0,0
1707477559,240197029,base_link,False,-5.585929111370254,0.0,0.0,5.586346112553958,0.008924878636117834,5.588648109088112,0.0,-0.03451285922913714,-0.26387215965920696,1707477559,147778304,0,0
1707477559,290205555,base_link,False,-5.588225326577194,0.0,0.0,5.58864577170752,-0.04343104104735413,5.588817827541932,0.0,-0.021072080668118744,-0.1766464498886196,1707477559,198202368,0,0
1707477559,340198576,base_link,False,-5.588374077700012,0.0,0.0,5.587761780778108,-0.029990269665235353,5.590366347919834,0.0,-0.03377588612647544,-0.18932527949601882,1707477559,248749824,0,0
1707477559,390197184,base_link,False,-5.589910507624318,0.0,0.0,5.590187425401145,-0.03377588633254923,5.599754125786772,0.0,-0.14863944590088574,-0.5344938790258525,1707477559,299076608,0,0
1707477559,440201240,base_link,False,-5.599365015589241,0.0,0.0,5.5989465854905225,-0.1486394499886111,5.596844043604158,0.0,-0.019857373315480153,-0.025220350033223315,1707477559,349513728,0,0
1707477559,490196286,base_link,False,-5.596523707645678,0.0,0.0,5.595612310106373,-0.01985738114734786,5.596712709391507,0.0,-0.004794978592222731,0.028237656520107103,1707477559,399929344,0,0
1707477559,540246090,base_link,False,-5.59640091575477,0.0,0.0,5.596335211430789,-0.004794979362457234,5.599441082266335,0.0,-0.0390307497977964,-0.08850585861867685,1707477559,450377472,0,0
1707477559,590208100,base_link,False,-5.599080456202916,0.0,0.0,5.59835255673819,-0.04794893924328025,5.602215484050652,0.0,-0.05351554884526338,-0.12145002104004197,1707477559,500780544,0,0
1707477559,640207476,base_link,False,-5.601861682937884,0.0,0.0,5.601809416670725,-0.05351554969214848,5.601847302410928,0.0,-0.014451233043092475,0.026369823016268848,1707477559,551234048,0,0
1707477559,690212510,base_link,False,-5.601532903478352,0.0,0.0,5.601209118220209,-0.014451235430283225,5.608039463138173,0.0,-0.09085046846864676,-0.22815016803846927,1707477559,601714944,0,0
1707477559,740206858,base_link,False,-5.607673045424483,0.0,0.0,5.60637172556842,-0.3055506628838924,5.611509570566958,0.0,-0.0830832931670776,-0.16535445154725978,1707477559,652078592,0,0
1707477559,790212031,base_link,False,-5.611180267436125,0.0,0.0,5.610424042301742,-0.08308330047938746,5.605435856181807,0.0,0.05602602739233331,0.31729481458550557,1707477559,702512384,0,0
