header_stamp_sec, header_stamp_nanosec, header_frame_id, runner_detected, x, y, phi, vx_b, ax_b, relative_distance_to_airshield_x, relative_distance_to_airshield_y, relative_speed_to_airshield_x, relative_acceleration_to_airshield_x, stamp_lidar_sec, stamp_lidar_nanosec, stamp_zed_sec, stamp_zed_nanosec
1707470594,119203012,base_link,False,-3.830120755674151,0.0,0.0,3.8299215926306216,-2.798825388326002e-10,3.830134391784668,0.0,-0.0,-0.0,1707470594,56603136,0,0
1707470594,169239851,base_link,False,-3.83012511207936,0.0,0.0,3.8281295580422094,-0.2147001936803629,3.830134391784668,0.0,-0.0,-0.0,1707470594,107035648,0,0
1707470594,219201608,base_link,False,-3.830103692691279,0.0,0.0,3.828106186102096,-0.2147001935673704,3.830134391784668,0.0,-0.0,-0.0,1707470594,157459968,0,0
1707470594,269224967,base_link,False,-3.8301605651694763,0.0,0.0,3.8289823822690567,-8.202534245399333e-09,3.830134391784668,0.0,-0.0,-0.0,1707470594,207880448,0,0
1707470594,319204045,base_link,False,-3.830115464428976,0.0,0.0,3.8290046217991627,-7.888892009677795e-09,3.830134391784668,0.0,-0.0,-0.0,1707470594,258311680,0,0
1707470594,369280346,base_link,False,-3.8301747779355066,0.0,0.0,3.8292689444893244,-3.7821683245537955e-09,3.830134391784668,0.0,-0.0,-0.0,1707470594,308735488,0,0
1707470594,419200546,base_link,False,-3.8300739214852,0.0,0.0,3.8295426031618405,2.0126764702615805e-10,3.830134391784668,0.0,-0.0,-0.0,1707470594,359170816,0,0
1707470594,469202882,base_link,False,-3.830153914586668,0.0,0.0,3.8297293645061337,1.184217202410544e-09,3.830134391784668,0.0,-0.0,-0.0,1707470594,409604096,0,0
1707470594,519204519,base_link,False,-3.83008393466716,0.0,0.0,3.829696871936923,-1.1831274329490777e-09,3.830134391784668,0.0,-0.0,-0.0,1707470594,460029440,0,0
1707470594,569236749,base_link,False,-3.8300996799900835,0.0,0.0,3.8288562500449297,-7.1149526445368295e-09,3.830134391784668,0.0,-0.0,-0.0,1707470594,510465792,0,0
1707470594,619201509,base_link,False,-3.830153181869047,0.0,0.0,3.8291096523200365,-6.490271535705671e-09,3.830134391784668,0.0,-0.0,-0.0,1707470594,560886016,0,0
1707470594,669205452,base_link,False,-3.830141924308674,0.0,0.0,3.8298958987346325,0.0,3.830134391784668,0.0,-0.0,-0.0,1707470594,611356672,0,0
1707470594,719208975,base_link,False,-3.8301152229886877,0.0,0.0,3.829525127761018,-2.109185764118332e-09,3.830134391784668,0.0,-0.0,-0.0,1707470594,661756416,0,0
1707470594,769209984,base_link,False,-3.830156288257868,0.0,0.0,3.827833863360998,-3.294190385083736e-08,3.830134391784668,0.0,-0.0,-0.0,1707470594,712197888,0,0
1707470594,819213997,base_link,False,-3.8300881839715886,0.0,0.0,3.8290827280417634,-6.8358066010018054e-09,3.830134391784668,0.0,-0.0,-0.0,1707470594,762609408,0,0
1707470594,869215565,base_link,False,-3.8301661746909503,0.0,0.0,3.829381139342001,-3.506848888395299e-09,3.830134391784668,0.0,-0.0,-0.0,1707470594,813039104,0,0
1707470594,919205329,base_link,False,-3.830098926744684,0.0,0.0,3.828775790755295,-1.1559578173863948e-08,3.830134391784668,0.0,-0.0,-0.0,1707470594,863483136,0,0
1707470594,969200681,base_link,False,-3.8301610582851855,0.0,0.0,3.829561983261723,3.233193550698436e-10,3.830134391784668,0.0,-0.0,-0.0,1707470594,913903104,0,0
1707470595,19198826,base_link,False,-3.830161447123827,0.0,0.0,3.8289860647749236,-8.150177611293188e-09,3.830134391784668,0.0,-0.0,-0.0,1707470594,964344064,0,0
1707470595,69203816,base_link,False,-3.8301141365530857,0.0,0.0,3.8297370042449805,1.2152479458567417e-09,3.830134391784668,0.0,-0.0,-0.0,1707470595,14763776,0,0
1707470595,119204337,base_link,False,-3.8301290073105774,0.0,0.0,3.8296670181505648,-1.1012978475962798e-09,3.830134391784668,0.0,-0.0,-0.0,1707470595,65189120,0,0
1707470595,169210724,base_link,False,-3.8301331884099845,0.0,0.0,3.8285031186732574,-1.6720817869792328e-08,3.830134391784668,0.0,-0.0,-0.0,1707470595,65189120,0,0
1707470595,219225562,base_link,False,-3.830080267592161,0.0,0.0,3.8287284891060565,-0.21470019769050228,3.830134391784668,0.0,-0.0,-0.0,1707470595,115633920,0,0
1707470595,269209669,base_link,False,-3.8301577343988757,0.0,0.0,3.8295056827762397,-2.2666988424734543e-09,3.830134391784668,0.0,-0.0,-0.0,1707470595,166062336,0,0
1707470595,319206976,base_link,False,-3.8301761151260485,0.0,0.0,3.829091308080326,-6.734381243817671e-09,3.830134391784668,0.0,-0.0,-0.0,1707470595,216483328,0,0
1707470595,369243117,base_link,False,-3.8301673437193764,0.0,0.0,3.829175664967214,-2.844667648002419e-09,3.830134391784668,0.0,-0.0,-0.0,1707470595,266908928,0,0
1707470595,419232532,base_link,False,-3.8301510354939055,0.0,0.0,3.829982046857685,1.827817023388336e-09,3.830134391784668,0.0,-0.0,-0.0,1707470595,317355264,0,0
1707470595,469213775,base_link,False,-3.8301688801670943,0.0,0.0,3.8292734347549664,-3.5199630957213595e-09,3.830134391784668,0.0,-0.0,-0.0,1707470595,367766272,0,0
1707470595,519226868,base_link,False,-3.8301171422815843,0.0,0.0,3.8294144998646895,-3.0676679635924756e-09,3.830134391784668,0.0,-0.0,-0.0,1707470595,418199296,0,0
1707470595,569204828,base_link,False,-3.830139150578096,0.0,0.0,3.8289564551974236,-8.57590080079148e-09,3.830134391784668,0.0,-0.0,-0.0,1707470595,468627200,0,0
1707470595,619202066,base_link,False,-3.830166657409517,0.0,0.0,3.8294692024658326,-2.734805687858845e-09,3.830134391784668,0.0,-0.0,-0.0,1707470595,519054848,0,0
1707470595,669202027,base_link,False,-3.8300763291712534,0.0,0.0,3.8294912700399486,-1.4444556510725456e-10,3.830134391784668,0.0,-0.0,-0.0,1707470595,569510656,0,0
1707470595,719203525,base_link,False,-3.830136881942635,0.0,0.0,3.8294554305855355,-2.8492193981221743e-09,3.830134391784668,0.0,-0.0,-0.0,1707470595,619931904,0,0
1707470595,769201880,base_link,False,-3.83017271941737,0.0,0.0,3.829015329695924,-5.119656821238811e-09,3.830134391784668,0.0,-0.0,-0.0,1707470595,670355968,0,0
1707470595,819214903,base_link,False,-3.8301726617072402,0.0,0.0,3.829126628065029,-6.270822023840243e-09,3.830134391784668,0.0,-0.0,-0.0,1707470595,720777216,0,0
1707470595,869225271,base_link,False,-3.830120421776122,0.0,0.0,3.829888376006929,-2.590471105772879e-11,3.830134391784668,0.0,-0.0,-0.0,1707470595,771206656,0,0
1707470595,919227607,base_link,False,-3.8301215007124143,0.0,0.0,3.8300083629595307,1.8494640482879276e-09,3.830134391784668,0.0,-0.0,-0.0,1707470595,821645824,0,0
1707470595,969211993,base_link,False,-3.8301145196868616,0.0,0.0,3.8302029247944627,1.743912031875617e-09,3.830134391784668,0.0,-0.0,-0.0,1707470595,872074752,0,0
1707470596,19210209,base_link,False,-3.8301536552925244,0.0,0.0,3.829708855933139,-1.1192015216360648e-09,3.830134391784668,0.0,-0.0,-0.0,1707470595,922498816,0,0
1707470596,69202907,base_link,False,-3.83013616599413,0.0,0.0,3.82894144361189,-8.872815863135674e-09,3.830134391784668,0.0,-0.0,-0.0,1707470595,972928000,0,0
1707470596,119200074,base_link,False,-3.8301062226862927,0.0,0.0,3.8290658879673223,-6.1813869763927345e-09,3.830134391784668,0.0,-0.0,-0.0,1707470596,23355904,0,0
1707470596,169200245,base_link,False,-3.830171818472271,0.0,0.0,3.829364215044085,-1.1402049243954254e-09,3.830134391784668,0.0,-0.0,-0.0,1707470596,73797632,0,0
1707470596,219204258,base_link,False,-3.830184458613676,0.0,0.0,3.828821975590303,-1.0776392994465643e-08,3.830134391784668,0.0,-0.0,-0.0,1707470596,124226304,0,0
1707470596,269212950,base_link,False,-3.8301384224084276,0.0,0.0,3.8283448337630053,-2.013850236750333e-08,3.830134391784668,0.0,-0.0,-0.0,1707470596,174646272,0,0
1707470596,319216403,base_link,False,-3.8301613930145733,0.0,0.0,3.829075549770743,-4.144255308590728e-09,3.830134391784668,0.0,-0.0,-0.0,1707470596,225089792,0,0
1707470596,369201837,base_link,False,-3.8300809107294995,0.0,0.0,3.828677217700093,-0.2147001970488589,3.830134391784668,0.0,-0.0,-0.0,1707470596,275505664,0,0
1707470596,419211018,base_link,False,-3.830151812824032,0.0,0.0,3.8285388859563336,-1.5991429684341726e-08,3.830134391784668,0.0,-0.0,-0.0,1707470596,325951232,0,0
1707470596,469202110,base_link,False,-3.8301036126511665,0.0,0.0,3.8280928194280905,-0.21470019350578387,3.830134391784668,0.0,-0.0,-0.0,1707470596,376375040,0,0
1707470596,519204096,base_link,False,-3.8300970591258277,0.0,0.0,3.828977171302574,-0.21470019635714846,3.830134391784668,0.0,-0.0,-0.0,1707470596,426808320,0,0
1707470596,569200496,base_link,False,-3.8300688696196032,0.0,0.0,3.830173858040563,1.789411499915154e-09,3.830134391784668,0.0,-0.0,-0.0,1707470596,477233408,0,0
1707470596,619221131,base_link,False,-3.8301368750435567,0.0,0.0,3.829446887604351,-2.771398014193769e-09,3.830134391784668,0.0,-0.0,-0.0,1707470596,527659776,0,0
1707470596,669206705,base_link,False,-3.8300891129494983,0.0,0.0,3.8291616608165433,-0.2147001996676133,3.830134391784668,0.0,-0.0,-0.0,1707470596,578096896,0,0
1707470596,719204850,base_link,False,-3.830153755851363,0.0,0.0,3.8291829699285316,-4.709021100425663e-09,3.830134391784668,0.0,-0.0,-0.0,1707470596,628517376,0,0
1707470596,769231562,base_link,False,-3.83010237767142,0.0,0.0,3.829820734621134,-2.902535990767266e-10,3.830134391784668,0.0,-0.0,-0.0,1707470596,678959104,0,0
1707470596,819209174,base_link,False,-3.830138573813437,0.0,0.0,3.828890107520865,-9.669176137751767e-09,3.830134391784668,0.0,-0.0,-0.0,1707470596,729377536,0,0
1707470596,869202989,base_link,False,-3.830160555884025,0.0,0.0,3.829523174986593,-2.3090137896980433e-09,3.830134391784668,0.0,-0.0,-0.0,1707470596,779810304,0,0
1707470596,919201274,base_link,False,-3.830137585278045,0.0,0.0,3.82769692031618,-3.5876283649166366e-08,3.830134391784668,0.0,-0.0,-0.0,1707470596,830259712,0,0
1707470596,969201585,base_link,False,-3.830152251986449,0.0,0.0,3.828695749165386,-9.665897602737676e-09,3.830134391784668,0.0,-0.0,-0.0,1707470596,880669696,0,0
1707470597,19222988,base_link,False,-3.8300851558882183,0.0,0.0,3.8303758764905522,1.257226539932975e-09,3.830134391784668,0.0,-0.0,-0.0,1707470596,931098112,0,0
1707470597,69200320,base_link,False,-3.8301155490985432,0.0,0.0,3.8289157884162583,-9.266724538040328e-09,3.830134391784668,0.0,-0.0,-0.0,1707470596,981539840,0,0
1707470597,119200491,base_link,False,-3.8301693109728276,0.0,0.0,3.8294440253181965,-2.9457460734250345e-09,3.830134391784668,0.0,-0.0,-0.0,1707470597,31957248,0,0
1707470597,169198916,base_link,False,-3.830138304666191,0.0,0.0,3.828322278419785,-1.860882746198478e-08,3.830134391784668,0.0,-0.0,-0.0,1707470597,82384896,0,0
1707470597,219208446,base_link,False,-3.8301592823500163,0.0,0.0,3.828403616405104,-1.8833117931443805e-08,3.830134391784668,0.0,-0.0,-0.0,1707470597,132839168,0,0
1707470597,269229571,base_link,False,-3.8301295982837726,0.0,0.0,3.8303617333981794,1.3109074390280691e-09,3.830134391784668,0.0,-0.0,-0.0,1707470597,183246592,0,0
1707470597,319219614,base_link,False,-3.8300610860126447,0.0,0.0,3.830385531360616,1.219160563519174e-09,3.830134391784668,0.0,-0.0,-0.0,1707470597,233689856,0,0
1707470597,369218528,base_link,False,-3.830177177182621,0.0,0.0,3.8285824817942005,-1.4885688902678375e-08,3.830134391784668,0.0,-0.0,-0.0,1707470597,284119296,0,0
1707470597,419213880,base_link,False,-3.830112820182034,0.0,0.0,3.8295845448725463,-1.868613852187226e-09,3.830134391784668,0.0,-0.0,-0.0,1707470597,334538496,0,0
1707470597,469211048,base_link,False,-3.8301139738173715,0.0,0.0,3.8297098249039956,1.101573650368932e-09,3.830134391784668,0.0,-0.0,-0.0,1707470597,384966400,0,0
1707470597,519209053,base_link,False,-3.8301292624891916,0.0,0.0,3.829672013753103,-1.3213880677855802e-09,3.830134391784668,0.0,-0.0,-0.0,1707470597,435413248,0,0
1707470597,569200983,base_link,False,-3.8301442006841895,0.0,0.0,3.8287565899449656,-1.1733010045820234e-08,3.830134391784668,0.0,-0.0,-0.0,1707470597,485822720,0,0
1707470597,619213586,base_link,False,-3.8301727993335346,0.0,0.0,3.8290361120887835,-4.806850723763103e-09,3.830134391784668,0.0,-0.0,-0.0,1707470597,536272384,0,0
1707470597,669202792,base_link,False,-3.8301199640262626,0.0,0.0,3.829409747427506,-3.2455312649795312e-09,3.830134391784668,0.0,-0.0,-0.0,1707470597,586694656,0,0
1707470597,719223776,base_link,False,-3.830135056794914,0.0,0.0,3.8302077951125777,1.7352661571881538e-09,3.830134391784668,0.0,-0.0,-0.0,1707470597,637127424,0,0
1707470597,769207324,base_link,False,-3.8301292624891916,0.0,0.0,3.829672013753103,-1.3213880677855802e-09,3.830134391784668,0.0,-0.0,-0.0,1707470597,687544064,0,0
1707470597,819200441,base_link,False,-3.830091394220207,0.0,0.0,3.8290142838501797,-7.75453397094505e-09,3.830134391784668,0.0,-0.0,-0.0,1707470597,737973248,0,0
1707470597,869201939,base_link,False,-3.8301503647169173,0.0,0.0,3.8297639397871657,-8.482031353520928e-10,3.830134391784668,0.0,-0.0,-0.0,1707470597,788415232,0,0
1707470597,919173893,base_link,False,-3.8301352968823132,0.0,0.0,3.830247896014673,1.6529359081289326e-09,3.830134391784668,0.0,-0.0,-0.0,1707470597,838839040,0,0
1707470597,969208148,base_link,False,-3.8301290100944434,0.0,0.0,3.8296600481614798,-1.1449954109423789e-09,3.830134391784668,0.0,-0.0,-0.0,1707470597,889270016,0,0
1707470598,19209018,base_link,False,-3.83014557109838,0.0,0.0,3.8299986970079143,1.8425075856662683e-09,3.830134391784668,0.0,-0.0,-0.0,1707470597,939691776,0,0
1707470598,69208630,base_link,False,-3.830086741464531,0.0,0.0,3.829136719528907,-6.151935259117537e-09,3.830134391784668,0.0,-0.0,-0.0,1707470597,990121984,0,0
1707470598,119207194,base_link,False,-3.83012543812983,0.0,0.0,3.828146838798905,-0.21470019376824928,3.830134391784668,0.0,-0.0,-0.0,1707470598,40552192,0,0
1707470598,169198495,base_link,False,-3.830141223099036,0.0,0.0,3.828318265034721,-2.0385820888977983e-08,3.830134391784668,0.0,-0.0,-0.0,1707470598,90979840,0,0
1707470598,219199784,base_link,False,-3.830119335180084,0.0,0.0,3.8301002555809944,1.8579234966957146e-09,3.830134391784668,0.0,-0.0,-0.0,1707470598,141413632,0,0
1707470598,269213365,base_link,False,-3.8301002209366133,0.0,0.0,3.829898890360402,-3.427860086663378e-10,3.830134391784668,0.0,-0.0,-0.0,1707470598,191841536,0,0
1707470598,319202431,base_link,False,-3.830098926744684,0.0,0.0,3.828775790755295,-1.1559578173863948e-08,3.830134391784668,0.0,-0.0,-0.0,1707470598,242286336,0,0
1707470598,369221320,base_link,False,-3.8301447460300495,0.0,0.0,3.829898559748461,-3.4374912718904297e-10,3.830134391784668,0.0,-0.0,-0.0,1707470598,292722176,0,0
1707470598,419225262,base_link,False,-3.830097273196635,0.0,0.0,3.829468644945388,-1.9818947344124674e-09,3.830134391784668,0.0,-0.0,-0.0,1707470598,343131904,0,0
1707470598,469214328,base_link,False,-3.830187937011485,0.0,0.0,3.828911766757679,-8.23144437619947e-09,3.830134391784668,0.0,-0.0,-0.0,1707470598,393564928,0,0
1707470598,519226024,base_link,False,-3.8301177141972818,0.0,0.0,3.828831317914371,-1.0621175608191681e-08,3.830134391784668,0.0,-0.0,-0.0,1707470598,444023808,0,0
1707470598,569191412,base_link,False,-3.830107050536829,0.0,0.0,3.829159055251774,-5.879561468163117e-09,3.830134391784668,0.0,-0.0,-0.0,1707470598,494435584,0,0
1707470598,619211559,base_link,False,-3.8301740384430283,0.0,0.0,3.8291754173840173,-5.683946323882127e-09,3.830134391784668,0.0,-0.0,-0.0,1707470598,544874752,0,0
1707470598,669197970,base_link,False,-3.830100642039386,0.0,0.0,3.829514744102012,1.7688942728351027e-11,3.830134391784668,0.0,-0.0,-0.0,1707470598,595292416,0,0
1707470598,719208897,base_link,False,-3.8300971228116283,0.0,0.0,3.8283543015028982,-0.2147001937544826,3.830134391784668,0.0,-0.0,-0.0,1707470598,645715456,0,0
1707470598,769208719,base_link,False,-3.830076571831753,0.0,0.0,3.829524406104309,8.244359790690496e-11,3.830134391784668,0.0,-0.0,-0.0,1707470598,696149504,0,0
1707470598,819208401,base_link,False,-3.8300998275663813,0.0,0.0,3.829313053081784,-4.169467058679753e-09,3.830134391784668,0.0,-0.0,-0.0,1707470598,746576640,0,0
1707470598,869217093,base_link,False,-3.830127273187165,0.0,0.0,3.8304194684669746,1.0762162461480445e-09,3.830134391784668,0.0,-0.0,-0.0,1707470598,797033472,0,0
1707470598,919196381,base_link,False,-3.830105474312333,0.0,0.0,3.828734932618352,-0.214700195670025,3.830134391784668,0.0,-0.0,-0.0,1707470598,847450880,0,0
1707470598,969205352,base_link,False,-3.8301166845626904,0.0,0.0,3.8301184592593907,1.8472115589445926e-09,3.830134391784668,0.0,-0.0,-0.0,1707470598,897873408,0,0
1707470599,19210901,base_link,False,-3.830088602032661,0.0,0.0,3.828480311880396,-0.21470019618714897,3.830134391784668,0.0,-0.0,-0.0,1707470598,948308736,0,0
1707470599,69197593,base_link,False,-3.8301510568247292,0.0,0.0,3.828981073101692,-5.646922808806228e-09,3.830134391784668,0.0,-0.0,-0.0,1707470598,998726656,0,0
1707470599,119198043,base_link,False,-3.830105061817846,0.0,0.0,3.829906497624199,1.718097876562063e-09,3.830134391784668,0.0,-0.0,-0.0,1707470599,49153792,0,0
1707470599,169200868,base_link,False,-3.8301106403111014,0.0,0.0,3.829113611288961,-6.439867120552188e-09,3.830134391784668,0.0,-0.0,-0.0,1707470599,99585280,0,0
1707470599,219204950,base_link,False,-3.8301363222339178,0.0,0.0,3.82950567294046,-2.4431432546879366e-09,3.830134391784668,0.0,-0.0,-0.0,1707470599,150016768,0,0
1707470599,269219998,base_link,False,-3.830068788224792,0.0,0.0,3.829736079451384,1.2115279776418205e-09,3.830134391784668,0.0,-0.0,-0.0,1707470599,200445440,0,0
1707470599,319198867,base_link,False,-3.830099990407987,0.0,0.0,3.829332817038549,-3.971220676270106e-09,3.830134391784668,0.0,-0.0,-0.0,1707470599,250877696,0,0
1707470599,369209235,base_link,False,-3.8300978383625455,0.0,0.0,3.830060505751102,1.8670740997202995e-09,3.830134391784668,0.0,-0.0,-0.0,1707470599,301304064,0,0
1707470599,419211920,base_link,False,-3.83015285618481,0.0,0.0,3.829070124453802,-7.0006345918002085e-09,3.830134391784668,0.0,-0.0,-0.0,1707470599,351744768,0,0
1707470599,469206574,base_link,False,-3.8300982436566144,0.0,0.0,3.8301208229980928,1.8455208815041236e-09,3.830134391784668,0.0,-0.0,-0.0,1707470599,402173440,0,0
1707470599,519200668,base_link,False,-3.8300751316073245,0.0,0.0,3.8282620226368693,-0.2147001944483528,3.830134391784668,0.0,-0.0,-0.0,1707470599,452595968,0,0
1707470599,569203843,base_link,False,-3.8301056906256665,0.0,0.0,3.8303985787710477,1.1658893100154302e-09,3.830134391784668,0.0,-0.0,-0.0,1707470599,503023872,0,0
1707470599,619198915,base_link,False,-3.830161367081613,0.0,0.0,3.8294775044571603,-1.9134476320675076e-09,3.830134391784668,0.0,-0.0,-0.0,1707470599,553474560,0,0
1707470599,669208375,base_link,False,-3.8300814449399185,0.0,0.0,3.829317853276659,-4.120873781158525e-09,3.830134391784668,0.0,-0.0,-0.0,1707470599,603887104,0,0
1707470599,719227195,base_link,False,-3.8301027576282216,0.0,0.0,3.8288633365767075,-0.21470019452439726,3.830134391784668,0.0,-0.0,-0.0,1707470599,654313216,0,0
1707470599,769203269,base_link,False,-3.830140473465231,0.0,0.0,3.8275745467316358,-3.982082389713892e-08,3.830134391784668,0.0,-0.0,-0.0,1707470599,704750592,0,0
1707470599,819200717,base_link,False,-3.8301644673575463,0.0,0.0,3.8287725198962566,-9.169882875671784e-09,3.830134391784668,0.0,-0.0,-0.0,1707470599,755197440,0,0
1707470599,869207593,base_link,False,-3.8301438829869747,0.0,0.0,3.828854808303015,-1.0119828705097018e-08,3.830134391784668,0.0,-0.0,-0.0,1707470599,805601536,0,0
1707470599,919210557,base_link,False,-3.8301079234822217,0.0,0.0,3.8292494312264,-4.8404282486565775e-09,3.830134391784668,0.0,-0.0,-0.0,1707470599,856034304,0,0
1707470599,969208284,base_link,False,-3.8300819454634367,0.0,0.0,3.8304443245397435,9.624885874722264e-10,3.830134391784668,0.0,-0.0,-0.0,1707470599,906472192,0,0
1707470600,19198328,base_link,False,-3.830151940092166,0.0,0.0,3.8289699014460954,-5.822009787850507e-09,3.830134391784668,0.0,-0.0,-0.0,1707470599,956897536,0,0
1707470600,69203388,base_link,False,-3.830125562955584,0.0,0.0,3.8298252346025414,-2.709110105874551e-10,3.830134391784668,0.0,-0.0,-0.0,1707470600,7349504,0,0
1707470600,119199228,base_link,False,-3.830144098287037,0.0,0.0,3.8292928836273683,-4.295924373651214e-09,3.830134391784668,0.0,-0.0,-0.0,1707470600,57753856,0,0
1707470600,169198422,base_link,False,-3.8301523583486556,0.0,0.0,3.8296882648030577,-9.71799690521604e-10,3.830134391784668,0.0,-0.0,-0.0,1707470600,108186624,0,0
1707470600,219202364,base_link,False,-3.8301036126511665,0.0,0.0,3.8280928194280905,-0.21470019350578387,3.830134391784668,0.0,-0.0,-0.0,1707470600,158611968,0,0
1707470600,269207983,base_link,False,-3.8301613930145733,0.0,0.0,3.829075549770743,-4.144255308590728e-09,3.830134391784668,0.0,-0.0,-0.0,1707470600,209043968,0,0
1707470600,319216535,base_link,False,-3.830137523627565,0.0,0.0,3.8295329133642184,-2.0474292210034934e-09,3.830134391784668,0.0,-0.0,-0.0,1707470600,259484160,0,0
1707470600,369216636,base_link,False,-3.8301131403359268,0.0,0.0,3.830153688758597,4.476540223688627e-10,3.830134391784668,0.0,-0.0,-0.0,1707470600,309905152,0,0
1707470600,419222325,base_link,False,-3.83013149918347,0.0,0.0,3.829607226333411,-1.4956763549216668e-09,3.830134391784668,0.0,-0.0,-0.0,1707470600,360334080,0,0
1707470600,469212648,base_link,False,-3.830161664928216,0.0,0.0,3.828242000904967,-2.0555006649583105e-08,3.830134391784668,0.0,-0.0,-0.0,1707470600,410757632,0,0
1707470600,519208000,base_link,False,-3.8301344969155315,0.0,0.0,3.830265454205808,1.610630087070626e-09,3.830134391784668,0.0,-0.0,-0.0,1707470600,461190912,0,0
1707470600,569197904,base_link,False,-3.830078542860157,0.0,0.0,3.829316657593429,-4.041443679122226e-09,3.830134391784668,0.0,-0.0,-0.0,1707470600,511645952,0,0
1707470600,619198424,base_link,False,-3.8301611330017327,0.0,0.0,3.8295672758956556,-1.2746129969877396e-09,3.830134391784668,0.0,-0.0,-0.0,1707470600,562061824,0,0
1707470600,669216894,base_link,False,-3.830155326139886,0.0,0.0,3.829579267549653,-1.6952522416851608e-09,3.830134391784668,0.0,-0.0,-0.0,1707470600,612506368,0,0
1707470600,719198976,base_link,False,-3.8301761952698516,0.0,0.0,3.8290972595432113,-6.655190625387038e-09,3.830134391784668,0.0,-0.0,-0.0,1707470600,662914048,0,0
1707470600,769205014,base_link,False,-3.8301363146787057,0.0,0.0,3.8295045570361985,-2.2759609605345462e-09,3.830134391784668,0.0,-0.0,-0.0,1707470600,713350912,0,0
1707470600,819198270,base_link,False,-3.8301605562351426,0.0,0.0,3.8295009282694066,-2.480157053803973e-09,3.830134391784668,0.0,-0.0,-0.0,1707470600,763791104,0,0
1707470600,869206473,base_link,False,-3.83013616599413,0.0,0.0,3.82894144361189,-8.872815863135674e-09,3.830134391784668,0.0,-0.0,-0.0,1707470600,814208256,0,0
1707470600,919201126,base_link,False,-3.830152275770915,0.0,0.0,3.8296670366469434,-1.101182659225752e-09,3.830134391784668,0.0,-0.0,-0.0,1707470600,864636416,0,0
1707470600,969213450,base_link,False,-3.830168331517102,0.0,0.0,3.8293029815266704,-4.18698113003463e-09,3.830134391784668,0.0,-0.0,-0.0,1707470600,915064832,0,0
1707470601,19199373,base_link,False,-3.8301448260600712,0.0,0.0,3.829911926681884,-3.0588613344820453e-10,3.830134391784668,0.0,-0.0,-0.0,1707470600,965509120,0,0
1707470601,69199544,base_link,False,-3.8301442006841895,0.0,0.0,3.8287565899449656,-1.1733010045820234e-08,3.830134391784668,0.0,-0.0,-0.0,1707470600,965509120,0,0
1707470601,119240783,base_link,False,-3.830165763661788,0.0,0.0,3.8293201703009694,-4.0044354456462685e-09,3.830134391784668,0.0,-0.0,-0.0,1707470601,15947008,0,0
1707470601,169199048,base_link,False,-3.830145491184851,0.0,0.0,3.8299779145137416,1.8236378139178372e-09,3.830134391784668,0.0,-0.0,-0.0,1707470601,66362112,0,0
1707470601,219207531,base_link,False,-3.830137530530701,0.0,0.0,3.8295414561946086,-2.1729563744561788e-09,3.830134391784668,0.0,-0.0,-0.0,1707470601,116785920,0,0
1707470601,269195967,base_link,False,-3.8301144686250987,0.0,0.0,3.828883611331069,-7.226365828730865e-09,3.830134391784668,0.0,-0.0,-0.0,1707470601,167222784,0,0
1707470601,319204738,base_link,False,-3.8300990945977604,0.0,0.0,3.829445080749078,-2.9367463732053277e-09,3.830134391784668,0.0,-0.0,-0.0,1707470601,217639168,0,0
1707470601,369219375,base_link,False,-3.8301581399987135,0.0,0.0,3.829565993070088,-1.793391349852709e-09,3.830134391784668,0.0,-0.0,-0.0,1707470601,268072448,0,0
1707470601,419225841,base_link,False,-3.8301471766400947,0.0,0.0,3.8287853349579537,-1.1248546096896865e-08,3.830134391784668,0.0,-0.0,-0.0,1707470601,318515712,0,0
1707470601,469210934,base_link,False,-3.8301432461172147,0.0,0.0,3.830049016564801,1.866081314092846e-09,3.830134391784668,0.0,-0.0,-0.0,1707470601,368942592,0,0
1707470601,519212161,base_link,False,-3.8300888557161135,0.0,0.0,3.828500166595607,-0.21470019508297475,3.830134391784668,0.0,-0.0,-0.0,1707470601,419449600,0,0
1707470601,569200258,base_link,False,-3.8301434439242548,0.0,0.0,3.8286905299767744,-1.0702122469733792e-08,3.830134391784668,0.0,-0.0,-0.0,1707470601,469794816,0,0
1707470601,619213289,base_link,False,-3.8301721595399982,0.0,0.0,3.829072988692194,-4.264944858076605e-09,3.830134391784668,0.0,-0.0,-0.0,1707470601,520224256,0,0
1707470601,669197754,base_link,False,-3.830142021111348,0.0,0.0,3.8300406878766227,-5.426894872999644e-11,3.830134391784668,0.0,-0.0,-0.0,1707470601,570670336,0,0
1707470601,719201216,base_link,False,-3.830204665170283,0.0,0.0,3.828281840797852,-1.9579204916514033e-08,3.830134391784668,0.0,-0.0,-0.0,1707470601,621086464,0,0
1707470601,769202234,base_link,False,-3.8301333547768395,0.0,0.0,3.8296072499757203,-1.7174769116985916e-09,3.830134391784668,0.0,-0.0,-0.0,1707470601,671515392,0,0
1707470601,819206814,base_link,False,-3.830130780341608,0.0,0.0,3.828569286142313,-1.5383923110143618e-08,3.830134391784668,0.0,-0.0,-0.0,1707470601,721971456,0,0
1707470601,869209717,base_link,False,-3.8301142021221013,0.0,0.0,3.8307985328583833,5.069020600524703e-10,3.830134391784668,0.0,-0.0,-0.0,1707470601,772369408,0,0
1707470601,919235600,base_link,False,-3.8301583853678576,0.0,0.0,3.828950714783926,-8.73246807164478e-09,3.830134391784668,0.0,-0.0,-0.0,1707470601,822810880,0,0
1707470601,969210356,base_link,False,-3.8300683089815983,0.0,0.0,3.830231533645582,1.6889292927502145e-09,3.830134391784668,0.0,-0.0,-0.0,1707470601,873233152,0,0
1707470602,19199221,base_link,False,-3.83013785621312,0.0,0.0,3.8295809841443202,-1.892893875847073e-09,3.830134391784668,0.0,-0.0,-0.0,1707470601,923680768,0,0
1707470602,69209807,base_link,False,-3.8301357052641274,0.0,0.0,3.8303012364227365,1.5126181087459234e-09,3.830134391784668,0.0,-0.0,-0.0,1707470601,974093824,0,0
1707470602,119199371,base_link,False,-3.830153663514846,0.0,0.0,3.829197738241302,-5.422429187367533e-09,3.830134391784668,0.0,-0.0,-0.0,1707470602,24525056,0,0
1707470602,169198223,base_link,False,-3.830107123403112,0.0,0.0,3.828618133405233,-1.4209616228493048e-08,3.830134391784668,0.0,-0.0,-0.0,1707470602,74970112,0,0
1707470602,219199521,base_link,False,-3.8300967710305076,0.0,0.0,3.8294150055093517,-3.0629428834714663e-09,3.830134391784668,0.0,-0.0,-0.0,1707470602,125392640,0,0
1707470602,269199700,base_link,False,-3.830083862553984,0.0,0.0,3.8298138394230126,-6.350880727827636e-10,3.830134391784668,0.0,-0.0,-0.0,1707470602,175811328,0,0
1707470602,319200648,base_link,False,-3.8301097164189626,0.0,0.0,3.8285441066668002,-0.2147001955347129,3.830134391784668,0.0,-0.0,-0.0,1707470602,226248192,0,0
1707470602,369205996,base_link,False,-3.8301282991575296,0.0,0.0,3.829154142288184,-5.920395342807103e-09,3.830134391784668,0.0,-0.0,-0.0,1707470602,276683520,0,0
1707470602,419207783,base_link,False,-3.8301603850658403,0.0,0.0,3.829494891034006,-2.3561335471063106e-09,3.830134391784668,0.0,-0.0,-0.0,1707470602,327110656,0,0
1707470602,469210407,base_link,False,-3.830096160166906,0.0,0.0,3.82834467917621,-0.21470019367609294,3.830134391784668,0.0,-0.0,-0.0,1707470602,377551872,0,0
1707470602,519209399,base_link,False,-3.8300583596295446,0.0,0.0,3.8305351043953557,4.822505359026565e-10,3.830134391784668,0.0,-0.0,-0.0,1707470602,427965952,0,0
1707470602,569201547,base_link,False,-3.8301090748478397,0.0,0.0,3.829820937570829,1.5086452138383436e-09,3.830134391784668,0.0,-0.0,-0.0,1707470602,478395904,0,0
1707470602,619198444,base_link,False,-3.830152928003016,0.0,0.0,3.8290898025534803,-6.7544832872544775e-09,3.830134391784668,0.0,-0.0,-0.0,1707470602,528819200,0,0
1707470602,669213570,base_link,False,-3.8301518654692743,0.0,0.0,3.8290938326660156,-3.966075855298398e-09,3.830134391784668,0.0,-0.0,-0.0,1707470602,579278336,0,0
1707470602,719213889,base_link,False,-3.830165614691513,0.0,0.0,3.8294462140881946,-2.9270971378576382e-09,3.830134391784668,0.0,-0.0,-0.0,1707470602,629684224,0,0
1707470602,769198983,base_link,False,-3.8301339069311817,0.0,0.0,3.829555891682602,-1.8695310721349125e-09,3.830134391784668,0.0,-0.0,-0.0,1707470602,680127744,0,0
1707470602,819199721,base_link,False,-3.830167909142735,0.0,0.0,3.8292775403244947,-1.5642647362626786e-09,3.830134391784668,0.0,-0.0,-0.0,1707470602,730539520,0,0
1707470602,869206955,base_link,False,-3.8301338487312453,0.0,0.0,3.8296672005949723,-6.806828685016566e-10,3.830134391784668,0.0,-0.0,-0.0,1707470602,780975360,0,0
1707470602,919209370,base_link,False,-3.830179659682099,0.0,0.0,3.8290486584825176,-7.285883864112509e-09,3.830134391784668,0.0,-0.0,-0.0,1707470602,831404032,0,0
1707470602,969227220,base_link,False,-3.830126131534474,0.0,0.0,3.829761253899542,-8.605471946859352e-10,3.830134391784668,0.0,-0.0,-0.0,1707470602,881836544,0,0
1707470603,19211126,base_link,False,-3.8301892744337165,0.0,0.0,3.8287192993144763,-1.2553388792097917e-08,3.830134391784668,0.0,-0.0,-0.0,1707470602,932262144,0,0
1707470603,69207534,base_link,False,-3.8301448260600712,0.0,0.0,3.829911926681884,-3.0588613344820453e-10,3.830134391784668,0.0,-0.0,-0.0,1707470602,982711808,0,0
1707470603,119205199,base_link,False,-3.830089729070833,0.0,0.0,3.8302326512048057,1.6865760114843487e-09,3.830134391784668,0.0,-0.0,-0.0,1707470603,33141504,0,0
1707470603,169197766,base_link,False,-3.830076476743866,0.0,0.0,3.8299480731809767,-2.1455985066422907e-10,3.830134391784668,0.0,-0.0,-0.0,1707470603,83569664,0,0
1707470603,219208841,base_link,False,-3.8301600935821702,0.0,0.0,3.8283727710206,-1.9180535510126293e-08,3.830134391784668,0.0,-0.0,-0.0,1707470603,133982208,0,0
1707470603,269201199,base_link,False,-3.8301266337005817,0.0,0.0,3.829814893350506,1.4904253169533573e-09,3.830134391784668,0.0,-0.0,-0.0,1707470603,184470784,0,0
1707470603,319210668,base_link,False,-3.8301085067103804,0.0,0.0,3.8297408564485287,1.2306182952986813e-09,3.830134391784668,0.0,-0.0,-0.0,1707470603,234845440,0,0
1707470603,369201139,base_link,False,-3.8301176790904887,0.0,0.0,3.8288151624998297,-8.40582149466261e-09,3.830134391784668,0.0,-0.0,-0.0,1707470603,285283584,0,0
1707470603,419201668,base_link,False,-3.8301433894514885,0.0,0.0,3.828787435352032,-1.135962751604451e-08,3.830134391784668,0.0,-0.0,-0.0,1707470603,335704576,0,0
1707470603,469209600,base_link,False,-3.8300970592364076,0.0,0.0,3.828969755893589,-0.2147001962328827,3.830134391784668,0.0,-0.0,-0.0,1707470603,386148608,0,0
1707470603,519214180,base_link,False,-3.830078544157345,0.0,0.0,3.829301803763042,-4.19962276124301e-09,3.830134391784668,0.0,-0.0,-0.0,1707470603,436579328,0,0
1707470603,569209261,base_link,False,-3.830104177997221,0.0,0.0,3.8286846747442196,-0.21470019714016159,3.830134391784668,0.0,-0.0,-0.0,1707470603,487119872,0,0
1707470603,619199034,base_link,False,-3.830151090189527,0.0,0.0,3.829892549431606,-3.6149366456783303e-10,3.830134391784668,0.0,-0.0,-0.0,1707470603,537436416,0,0
1707470603,669227431,base_link,False,-3.83010112212903,0.0,0.0,3.8281377560295535,-0.21470019372159613,3.830134391784668,0.0,-0.0,-0.0,1707470603,587867648,0,0
1707470603,719211127,base_link,False,-3.8302075752448537,0.0,0.0,3.8282841421076816,-2.153109668120634e-08,3.830134391784668,0.0,-0.0,-0.0,1707470603,638285824,0,0
1707470603,769200341,base_link,False,-3.8301241030426065,0.0,0.0,3.8280224314136384,-2.6284980615058926e-08,3.830134391784668,0.0,-0.0,-0.0,1707470603,688715008,0,0
1707470603,819198845,base_link,False,-3.8301304713575637,0.0,0.0,3.8286537695727225,-1.3549536131265713e-08,3.830134391784668,0.0,-0.0,-0.0,1707470603,739142912,0,0
1707470603,869204961,base_link,False,-3.8301003993788494,0.0,0.0,3.829481608039848,-2.1315780425886743e-10,3.830134391784668,0.0,-0.0,-0.0,1707470603,789575168,0,0
1707470603,919209890,base_link,False,-3.830137531186739,0.0,0.0,3.8295340291293534,-2.2277338858298706e-09,3.830134391784668,0.0,-0.0,-0.0,1707470603,840007680,0,0
1707470603,969198755,base_link,False,-3.830128470627105,0.0,0.0,3.8291601727976317,-5.866095561288983e-09,3.830134391784668,0.0,-0.0,-0.0,1707470603,890434304,0,0
1707470604,19208923,base_link,False,-3.8301113093576302,0.0,0.0,3.8302713709465643,1.5955151719793647e-09,3.830134391784668,0.0,-0.0,-0.0,1707470603,940888064,0,0
1707470604,69208893,base_link,False,-3.8301205394716193,0.0,0.0,3.8282505310776163,-0.21470019437313606,3.830134391784668,0.0,-0.0,-0.0,1707470603,991314432,0,0
1707470604,119201739,base_link,False,-3.830115302600713,0.0,0.0,3.829545917020381,-1.945953218844368e-09,3.830134391784668,0.0,-0.0,-0.0,1707470604,41737216,0,0
1707470604,169213024,base_link,False,-3.830126078110701,0.0,0.0,3.828774469401138,-8.374957487158635e-09,3.830134391784668,0.0,-0.0,-0.0,1707470604,92159488,0,0
1707470604,219196930,base_link,False,-3.8301304727356813,0.0,0.0,3.8303642989242235,2.8711154698308294e-11,3.830134391784668,0.0,-0.0,-0.0,1707470604,142606080,0,0
1707470604,269222463,base_link,False,-3.830171784815485,0.0,0.0,3.8292750772364816,-4.491103242748894e-09,3.830134391784668,0.0,-0.0,-0.0,1707470604,193046016,0,0
1707470604,319233468,base_link,False,-3.830136987898059,0.0,0.0,3.8295716492636456,3.824562425184694e-10,3.830134391784668,0.0,-0.0,-0.0,1707470604,243467264,0,0
1707470604,369210669,base_link,False,-3.830126207308506,0.0,0.0,3.8287050952993864,-1.2809475555904774e-08,3.830134391784668,0.0,-0.0,-0.0,1707470604,293873664,0,0
1707470604,419211198,base_link,False,-3.8300971391662184,0.0,0.0,3.828990537974629,-0.21470019658286135,3.830134391784668,0.0,-0.0,-0.0,1707470604,344307968,0,0
1707470604,469209213,base_link,False,-3.8301023880754186,0.0,0.0,3.828734166300925,-1.2118026185812274e-08,3.830134391784668,0.0,-0.0,-0.0,1707470604,394754560,0,0
1707470604,519209253,base_link,False,-3.8301203391681193,0.0,0.0,3.8293442889727483,-7.949142651818668e-10,3.830134391784668,0.0,-0.0,-0.0,1707470604,445162496,0,0
1707470604,569198746,base_link,False,-3.8301570116770014,0.0,0.0,3.8295435779303695,-1.9640524985162655e-09,3.830134391784668,0.0,-0.0,-0.0,1707470604,495593728,0,0
1707470604,619198227,base_link,False,-3.8301686571998705,0.0,0.0,3.8293425094565436,-3.772650078476028e-09,3.830134391784668,0.0,-0.0,-0.0,1707470604,546039808,0,0
1707470604,669199105,base_link,False,-3.8301028070043768,0.0,0.0,3.829445102404489,-4.831906913056432e-10,3.830134391784668,0.0,-0.0,-0.0,1707470604,596456192,0,0
1707470604,719198866,base_link,False,-3.8301297469221267,0.0,0.0,3.829753129611605,-8.98428297288922e-10,3.830134391784668,0.0,-0.0,-0.0,1707470604,646896640,0,0
1707470604,769198627,base_link,False,-3.830166836678995,0.0,0.0,3.829476343926052,-2.5107711368212137e-10,3.830134391784668,0.0,-0.0,-0.0,1707470604,697322240,0,0
1707470604,819202718,base_link,False,-3.830114519030273,0.0,0.0,3.8302103518818207,1.730610718580601e-09,3.830134391784668,0.0,-0.0,-0.0,1707470604,747744768,0,0
1707470604,869202059,base_link,False,-3.8301023073818468,0.0,0.0,3.8287282266130136,-1.222105238218083e-08,3.830134391784668,0.0,-0.0,-0.0,1707470604,798177280,0,0
1707470604,919200632,base_link,False,-3.8301488919502775,0.0,0.0,3.8290655385774133,-4.3730706109885144e-09,3.830134391784668,0.0,-0.0,-0.0,1707470604,848660480,0,0
1707470604,969201301,base_link,False,-3.8300840295484293,0.0,0.0,3.8299220669339333,1.7464794820111984e-09,3.830134391784668,0.0,-0.0,-0.0,1707470604,899046912,0,0
1707470605,19200154,base_link,False,-3.830161861037045,0.0,0.0,3.8295374550405503,1.6806858720980145e-10,3.830134391784668,0.0,-0.0,-0.0,1707470604,949498624,0,0
1707470605,69213674,base_link,False,-3.830130229631106,0.0,0.0,3.8303459991382334,8.686412163928935e-11,3.830134391784668,0.0,-0.0,-0.0,1707470604,999900928,0,0
1707470605,119201631,base_link,False,-3.8301059160037694,0.0,0.0,3.827910405204271,-0.2147001932469684,3.830134391784668,0.0,-0.0,-0.0,1707470605,50331136,0,0
1707470605,169209074,base_link,False,-3.830106627122426,0.0,0.0,3.82920658765665,-5.278359300813591e-09,3.830134391784668,0.0,-0.0,-0.0,1707470605,100758528,0,0
1707470605,219202688,base_link,False,-3.8301208357032372,0.0,0.0,3.8299349595974115,-2.4582526342865645e-10,3.830134391784668,0.0,-0.0,-0.0,1707470605,151195136,0,0
1707470605,269200773,base_link,False,-3.8300583596295446,0.0,0.0,3.8305351043953557,4.822505359026565e-10,3.830134391784668,0.0,-0.0,-0.0,1707470605,201629184,0,0
1707470605,319208286,base_link,False,-3.830122223920363,0.0,0.0,3.8299704574262834,1.8155650306585608e-09,3.830134391784668,0.0,-0.0,-0.0,1707470605,252045568,0,0
1707470605,369197919,base_link,False,-3.830169967313413,0.0,0.0,3.8293871105627963,-9.460272764321878e-10,3.830134391784668,0.0,-0.0,-0.0,1707470605,302479360,0,0
1707470605,419212557,base_link,False,-3.830161673325099,0.0,0.0,3.829551455797564,-1.903365241271166e-09,3.830134391784668,0.0,-0.0,-0.0,1707470605,352907008,0,0
1707470605,469206869,base_link,False,-3.8301601421936233,0.0,0.0,3.829461760171452,-2.639694046214489e-09,3.830134391784668,0.0,-0.0,-0.0,1707470605,403350784,0,0
1707470605,519202649,base_link,False,-3.830152618719533,0.0,0.0,3.8291742917535565,-5.697297585846592e-09,3.830134391784668,0.0,-0.0,-0.0,1707470605,453775872,0,0
1707470605,569202898,base_link,False,-3.8301154558979933,0.0,0.0,3.829018353515277,-7.740699630038377e-09,3.830134391784668,0.0,-0.0,-0.0,1707470605,504199424,0,0
1707470605,619219631,base_link,False,-3.8301530233583754,0.0,0.0,3.8297616681291586,-2.3268895063535125e-10,3.830134391784668,0.0,-0.0,-0.0,1707470605,554632448,0,0
1707470605,669203118,base_link,False,-3.8300734186716294,0.0,0.0,3.8294963905896227,-2.5158165786182036e-09,3.830134391784668,0.0,-0.0,-0.0,1707470605,605056768,0,0
1707470605,719225927,base_link,False,-3.8301583880619976,0.0,0.0,3.8296146139763647,-1.6698268164134695e-09,3.830134391784668,0.0,-0.0,-0.0,1707470605,655489792,0,0
1707470605,769202500,base_link,False,-3.8301508504585624,0.0,0.0,3.829830201631428,-5.719081513133706e-10,3.830134391784668,0.0,-0.0,-0.0,1707470605,705918976,0,0
1707470605,819198768,base_link,False,-3.8301897599430603,0.0,0.0,3.8288003921789167,-1.1139114548872633e-08,3.830134391784668,0.0,-0.0,-0.0,1707470605,756355328,0,0
1707470605,869202161,base_link,False,-3.8301482535683506,0.0,0.0,3.828018717040311,-2.638703824992015e-08,3.830134391784668,0.0,-0.0,-0.0,1707470605,806790400,0,0
1707470605,919231535,base_link,False,-3.830135191918445,0.0,0.0,3.8289525251249468,-7.859914463604615e-09,3.830134391784668,0.0,-0.0,-0.0,1707470605,857213440,0,0
1707470605,969204266,base_link,False,-3.830109521515866,0.0,0.0,3.829645937182491,-1.2353011607758432e-09,3.830134391784668,0.0,-0.0,-0.0,1707470605,907650304,0,0
1707470606,19212617,base_link,False,-3.830131121005228,0.0,0.0,3.8291419745730675,-6.087297387226586e-09,3.830134391784668,0.0,-0.0,-0.0,1707470605,958069248,0,0
1707470606,69214753,base_link,False,-3.830129461315543,0.0,0.0,3.8292731041982955,-1.977121256396814e-09,3.830134391784668,0.0,-0.0,-0.0,1707470606,8508672,0,0
1707470606,119200754,base_link,False,-3.8301310495030285,0.0,0.0,3.8304306465556435,1.0260175223174377e-09,3.830134391784668,0.0,-0.0,-0.0,1707470606,58930688,0,0
1707470606,169200165,base_link,False,-3.83009846738366,0.0,0.0,3.8305525826335582,3.780928471411374e-10,3.830134391784668,0.0,-0.0,-0.0,1707470606,109370112,0,0
1707470606,219208447,base_link,False,-3.8301069796031846,0.0,0.0,3.830440302118444,9.814116614147991e-10,3.830134391784668,0.0,-0.0,-0.0,1707470606,159809536,0,0
1707470606,269225040,base_link,False,-3.830114924741152,0.0,0.0,3.8302632468379083,1.616158710637039e-09,3.830134391784668,0.0,-0.0,-0.0,1707470606,210221824,0,0
1707470606,319197841,base_link,False,-3.8301288472513138,0.0,0.0,3.8296402842596495,-1.27216861795933e-09,3.830134391784668,0.0,-0.0,-0.0,1707470606,260670976,0,0
1707470606,369281484,base_link,False,-3.8301293224264334,0.0,0.0,3.828404048068202,-1.670837149814573e-08,3.830134391784668,0.0,-0.0,-0.0,1707470606,311094784,0,0
1707470606,419198410,base_link,False,-3.830141866597829,0.0,0.0,3.830007197176118,4.1572727023530146e-10,3.830134391784668,0.0,-0.0,-0.0,1707470606,361534208,0,0
1707470606,469198101,base_link,False,-3.8301545894021856,0.0,0.0,3.8289665516891573,-5.874808475275786e-09,3.830134391784668,0.0,-0.0,-0.0,1707470606,411944704,0,0
1707470606,519200306,base_link,False,-3.8301498876489015,0.0,0.0,3.8298279959118013,-5.802321773508823e-10,3.830134391784668,0.0,-0.0,-0.0,1707470606,462403328,0,0
1707470606,569209705,base_link,False,-3.8301317764679714,0.0,0.0,3.828668050595625,-1.0138351528812384e-08,3.830134391784668,0.0,-0.0,-0.0,1707470606,512817920,0,0
1707470606,619196754,base_link,False,-3.8301302497444554,0.0,0.0,3.829799341988931,1.4414758403969838e-09,3.830134391784668,0.0,-0.0,-0.0,1707470606,563234048,0,0
1707470606,669202172,base_link,False,-3.830137033790798,0.0,0.0,3.829488475625677,-2.4099824604748734e-09,3.830134391784668,0.0,-0.0,-0.0,1707470606,613665024,0,0
1707470606,719214574,base_link,False,-3.830206830321925,0.0,0.0,3.8281899563517783,-2.185929439203519e-08,3.830134391784668,0.0,-0.0,-0.0,1707470606,664092928,0,0
1707470606,769199737,base_link,False,-3.8300881893424172,0.0,0.0,3.8296518823397063,-1.4389563717128269e-09,3.830134391784668,0.0,-0.0,-0.0,1707470606,664092928,0,0
1707470606,819225480,base_link,False,-3.8301012049476633,0.0,0.0,3.8281441528559332,-0.21470019375434699,3.830134391784668,0.0,-0.0,-0.0,1707470606,714523136,0,0
1707470606,869199049,base_link,False,-3.8301606361493015,0.0,0.0,3.8295217107355555,-2.3200901519947205e-09,3.830134391784668,0.0,-0.0,-0.0,1707470606,815386112,0,0
1707470606,919205305,base_link,False,-3.8300332793952574,0.0,0.0,3.828884493598515,-0.2147001948529116,3.830134391784668,0.0,-0.0,-0.0,1707470606,815386112,0,0
1707470606,969232235,base_link,False,-3.830161187585111,0.0,0.0,3.8294851939098553,-2.4377248070873315e-09,3.830134391784668,0.0,-0.0,-0.0,1707470606,865811200,0,0
1707470607,19205455,base_link,False,-3.8301378672814477,0.0,0.0,3.830238568641745,1.673860730997949e-09,3.830134391784668,0.0,-0.0,-0.0,1707470606,916256768,0,0
1707470607,69212549,base_link,False,-3.8301621672765354,0.0,0.0,3.829611406517183,-1.690498768683719e-09,3.830134391784668,0.0,-0.0,-0.0,1707470606,966693376,0,0
1707470607,119220063,base_link,False,-3.8300768060046178,0.0,0.0,3.8300760766352364,1.8658154974053262e-09,3.830134391784668,0.0,-0.0,-0.0,1707470607,17109248,0,0
1707470607,169245107,base_link,False,-3.8301205394716193,0.0,0.0,3.8282505310776163,-0.21470019437313606,3.830134391784668,0.0,-0.0,-0.0,1707470607,67534848,0,0
1707470607,219208618,base_link,False,-3.830141222878615,0.0,0.0,3.8283330959008652,-2.0054230512050166e-08,3.830134391784668,0.0,-0.0,-0.0,1707470607,117967104,0,0
1707470607,269200766,base_link,False,-3.8301501106165556,0.0,0.0,3.8297589211913023,-5.812842603739578e-10,3.830134391784668,0.0,-0.0,-0.0,1707470607,168400128,0,0
1707470607,319209676,base_link,False,-3.8301128892520513,0.0,0.0,3.8301268690632613,-3.4977275940105125e-13,3.830134391784668,0.0,-0.0,-0.0,1707470607,218828800,0,0
1707470607,369211462,base_link,False,-3.830173789794352,0.0,0.0,3.829163874350672,-5.798686226309228e-09,3.830134391784668,0.0,-0.0,-0.0,1707470607,269269760,0,0
1707470607,419198721,base_link,False,-3.8300865204636723,0.0,0.0,3.829228263584093,-2.426693385454708e-09,3.830134391784668,0.0,-0.0,-0.0,1707470607,319687168,0,0
1707470607,469212939,base_link,False,-3.8301290073105774,0.0,0.0,3.8296670181505648,-1.1012978475962798e-09,3.830134391784668,0.0,-0.0,-0.0,1707470607,370118144,0,0
1707470607,519218986,base_link,False,-3.8301183745488845,0.0,0.0,3.8289995093634523,-5.106993873576854e-09,3.830134391784668,0.0,-0.0,-0.0,1707470607,420543232,0,0
1707470607,569201704,base_link,False,-3.83010760200615,0.0,0.0,3.8291151246624846,-6.420105778360342e-09,3.830134391784668,0.0,-0.0,-0.0,1707470607,470975488,0,0
1707470607,619200557,base_link,False,-3.8300921368895655,0.0,0.0,3.8301813151589923,1.778734737346257e-09,3.830134391784668,0.0,-0.0,-0.0,1707470607,521418496,0,0
1707470607,669210375,base_link,False,-3.83008467939202,0.0,0.0,3.829783649264673,1.3890484590576465e-09,2.932900905609131,0.0,-0.0,-0.0,1707470607,571838464,0,0
1707470607,719204478,base_link,False,-2.9329201606706334,0.0,0.0,2.932496512112877,-7.336796791221241e-10,2.9512174129486084,0.0,-0.0,-0.0,1707470607,622285056,0,0
1707470607,769199909,base_link,False,-2.9512317765686458,0.0,0.0,2.9491776238837266,-2.6173295140868458e-08,2.9638876914978027,0.0,-0.0,-0.0,1707470607,672704768,0,0
1707470607,819200787,base_link,False,-2.963914692727708,0.0,0.0,2.962828849483878,-4.144255308590728e-09,2.9774954319000244,0.0,-0.0,-0.0,1707470607,723128576,0,0
1707470607,869246924,base_link,False,-2.9774626755898406,0.0,0.0,2.9760073203903294,-1.1563593411597108e-08,2.9905333518981934,0.0,-0.0,-0.0,1707470607,773598464,0,0
1707470607,919212042,base_link,False,-2.990548036737376,0.0,0.0,2.989608938380423,-5.238021569935537e-09,3.002887487411499,0.0,-0.0,-0.0,1707470607,823998976,0,0
1707470607,969211313,base_link,False,-3.002905291484134,0.0,0.0,3.0023993497850663,-1.2332455946140886e-09,3.0312740802764893,0.0,-0.0,-0.0,1707470607,874423552,0,0
1707470608,19198362,base_link,False,-3.031278099463261,0.0,0.0,3.030010032077158,-9.984452900917248e-09,3.058891534805298,0.0,-0.0,-0.0,1707470607,924842496,0,0
1707470608,69211044,base_link,False,-3.058869761108724,0.0,0.0,3.0573098675728954,-0.21470019344087407,3.095893621444702,0.0,-0.0,-0.0,1707470607,975300864,0,0
1707470608,119207452,base_link,False,-3.0959223229856097,0.0,0.0,3.095139446147241,-4.0360914540983303e-10,3.151355266571045,0.0,-0.0,-0.0,1707470608,25717248,0,0
1707470608,169208749,base_link,False,-3.151379208152407,0.0,0.0,3.150924986185057,1.076517050156128e-09,3.2055606842041016,0.0,-0.0,-0.0,1707470608,76142592,0,0
1707470608,219200059,base_link,False,-3.205571443716195,0.0,0.0,3.2047363112685687,-4.200329949272953e-09,3.245263989587237,0.0,-0.0018028516179479153,-4.501502167160837e-05,1707470608,126586624,0,0
1707470608,269213998,base_link,False,-3.2452987515554628,0.0,0.0,3.244712224515857,-0.001802853569379273,3.281849904357189,0.0,-0.34618439757807173,-0.1651666502210928,1707470608,177002752,0,0
1707470608,319198672,base_link,False,-3.2819338587183284,0.0,0.0,3.2810218269724167,-0.3461844019892448,3.3373662592021343,0.0,-0.8147724457941345,-0.6136598195859424,1707470608,227446016,0,0
1707470608,369209538,base_link,False,-3.3374660346273504,0.0,0.0,3.3370692674946967,-0.8147724456909377,3.395977356770481,0.0,-1.0622327197522343,-0.9512042780393267,1707470608,277922304,0,0
1707470608,419198193,base_link,False,-3.3960409510956233,0.0,0.0,3.395174626161046,-1.062232723319145,3.4532989107951937,0.0,-1.1493045096701764,-1.0336759621479328,1707470608,328283904,0,0
1707470608,469208780,base_link,False,-3.453394812440687,0.0,0.0,3.4525972333607786,-1.1493045125995205,3.502158371071163,0.0,-1.0682363587838812,-0.7034684124349104,1707470608,378714112,0,0
1707470608,519214826,base_link,False,-3.502286828160919,0.0,0.0,3.5015828818423884,-1.0682363602965073,3.543699700426437,0.0,-0.9293274582136308,-0.22241020088199037,1707470608,429148928,0,0
1707470608,569209838,base_link,False,-3.5437722318091116,0.0,0.0,3.5427458465453743,-0.9293274635162578,3.5831403721425423,0.0,-0.8395228250261784,0.07493500925547364,1707470608,479570944,0,0
1707470608,619201496,base_link,False,-3.583218610275844,0.0,0.0,3.582757039914472,-0.8395228259720744,3.6137744809445005,0.0,-0.6791172850896023,0.5550855825817333,1707470608,530014976,0,0
1707470608,669197136,base_link,False,-3.613846241918595,0.0,0.0,3.611700268730713,-0.6791173106325391,3.646241579686758,0.0,-0.6402357668049398,0.5900395206126633,1707470608,580446976,0,0
1707470608,719208351,base_link,False,-3.646344512439094,0.0,0.0,3.6451983374369012,-0.6402357732720986,3.67557669115054,0.0,-0.5835010646882951,0.676914268878839,1707470608,630869248,0,0
1707470608,769198194,base_link,False,-3.675696109548074,0.0,0.0,3.6751389241530816,-0.5835010652789406,3.7128676764132473,0.0,-0.6757788859674742,0.2706517767696717,1707470608,681298944,0,0
1707470608,819199351,base_link,False,-3.712998936761697,0.0,0.0,3.7125710204222373,-0.675778886533973,3.738218902881395,0.0,-0.5481123475413605,0.6405452453835254,1707470608,731725312,0,0
1707470608,869199252,base_link,False,-3.7383544554222956,0.0,0.0,3.738351467061549,-0.5481123469133246,3.7710496732825,0.0,-0.6038910206145113,0.3548795124343665,1707470608,782169600,0,0
1707470608,919211026,base_link,False,-3.7712032161835447,0.0,0.0,3.769852013809102,-0.6038910298478631,3.8057951995203414,0.0,-0.6566254023494448,0.1250287835364045,1707470608,832583680,0,0
1707470608,969209319,base_link,False,-3.8059667954602308,0.0,0.0,3.8053597636630676,-0.6566254029265856,3.841973839571191,0.0,-0.6998306427274275,-0.036511908503728235,1707470608,883034624,0,0
1707470609,19217322,base_link,False,-3.842130621673404,0.0,0.0,3.8421431887952595,-0.6998306421645486,3.877284333731584,0.0,-0.7055152032358241,-0.04912870663383193,1707470608,933454592,0,0
1707470609,69203113,base_link,False,-3.877447022742686,0.0,0.0,3.8759581939048506,-0.7055152125977474,3.9070176839208943,0.0,-0.6288420677399864,0.20974226248426633,1707470608,983889920,0,0
1707470609,119213700,base_link,False,-3.90716985770922,0.0,0.0,3.906726192874347,-0.6288420682869308,3.9385210805181656,0.0,-0.6229229639266006,0.19479231136322445,1707470609,34313472,0,0
1707470609,169211505,base_link,False,-3.938590225022176,0.0,0.0,3.9382713272795686,-0.6229229636527918,3.9726108977883494,0.0,-0.6581943597285866,0.04744646323297369,1707470609,84741888,0,0
1707470609,219225374,base_link,False,-3.972717858939875,0.0,0.0,3.9719704741442046,-0.6581943621340166,4.011611321793233,0.0,-0.7426792482732951,-0.23692906890544496,1707470609,135168768,0,0
1707470609,269200340,base_link,False,-4.011796150137135,0.0,0.0,4.010412947602613,-0.7426792575176706,4.0506158555755984,0.0,-0.7767617174658539,-0.30973819164269933,1707470609,185615872,0,0
1707470609,319209041,base_link,False,-4.050810221904215,0.0,0.0,4.050371284100833,-0.776761717174664,4.08038087727326,0.0,-0.6586361396963322,0.12778666031699482,1707470609,236035840,0,0
1707470609,369214878,base_link,False,-4.080525803231228,0.0,0.0,4.079364580182436,-0.6586361444662819,4.106475811663041,0.0,-0.5579408319908624,0.43661123961179205,1707470609,286457344,0,0
1707470609,419197387,base_link,False,-4.106626480949999,0.0,0.0,4.106033849386354,-0.5579408332482325,4.133589100790507,0.0,-0.5327489724056854,0.4476187814496341,1707470609,336888576,0,0
1707470609,469215027,base_link,False,-4.133795436979318,0.0,0.0,4.132455325899361,-0.5327489787712258,4.160035025357277,0.0,-0.5155655963895721,0.4305975911577777,1707470609,387351040,0,0
1707470609,519207175,base_link,False,-4.160265985044518,0.0,0.0,4.159277434310267,-0.5155655998393301,4.195341676449892,0.0,-0.6362152790301006,-0.03502240105075005,1707470609,437750272,0,0
1707470609,569211755,base_link,False,-4.19558587456846,0.0,0.0,4.1948648459176034,-0.6362152804936954,4.22931433519843,0.0,-0.6678824368792567,-0.13299423310209707,1707470609,488187136,0,0
1707470609,619208303,base_link,False,-4.22954220043385,0.0,0.0,4.229290384519778,-0.6678824368829493,4.272384639019547,0.0,-0.8088495514967647,-0.5728711321750424,1707470609,538615552,0,0
1707470609,669222032,base_link,False,-4.272640357102395,0.0,0.0,4.272016722054086,-0.8088495521568594,4.310123036361605,0.0,-0.789186964309026,-0.414672646817704,1707470609,589043712,0,0
1707470609,719202376,base_link,False,-4.310376256650072,0.0,0.0,4.308462253800072,-0.7891869800187793,4.346605965292291,0.0,-0.7605609203101515,-0.253023677879083,1707470609,639468800,0,0
1707470609,769197248,base_link,False,-4.3468790696646815,0.0,0.0,4.345890511649124,-0.7605609230099941,4.383834847061147,0.0,-0.7574576725063672,-0.20142913015579336,1707470609,689899520,0,0
1707470609,819199034,base_link,False,-4.384111907425955,0.0,0.0,4.383514994312598,-0.7574576729578061,4.414265967520536,0.0,-0.6588660898088589,0.15443415955491566,1707470609,740326400,0,0
1707470609,869199353,base_link,False,-4.414635059900111,0.0,0.0,4.412718477625094,-0.6588661032081403,4.442206044075469,0.0,-0.5832057291519782,0.3769282314896142,1707470609,790774784,0,0
1707470609,919199603,base_link,False,-4.442564273777974,0.0,0.0,4.441658457119692,-0.5832057308554418,4.460656617652381,0.0,-0.4197508518264218,0.8505104001854049,1707470609,841192448,0,0
1707470609,969201459,base_link,False,-4.46099188317751,0.0,0.0,4.460941865568552,-0.4197508515827441,4.4743363933776745,0.0,-0.2890267096947312,1.1393544949260215,1707470609,891617792,0,0
1707470610,19207296,base_link,False,-4.474696784644243,0.0,0.0,4.472961857773701,-0.2890267215588147,4.492334310097364,0.0,-0.30226579274983456,0.9094322649180342,1707470609,942065152,0,0
1707470610,69208174,base_link,False,-4.49276863326605,0.0,0.0,4.491051380699995,-0.30226580305474565,4.506702400077857,0.0,-0.2623249740292093,0.8913193107534398,1707470609,992488448,0,0
1707470610,119202207,base_link,False,-4.507153354665163,0.0,0.0,4.506039532440901,-0.26232497625343276,4.515437521841493,0.0,-0.17161648192069573,1.042432771677817,1707470610,42918400,0,0
1707470610,169205530,base_link,False,-4.515894811445754,0.0,0.0,4.5154081582934955,-0.17161648121296655,4.52806710897963,0.0,-0.19508328474215975,0.7948860479624856,1707470610,93360896,0,0
1707470610,219200471,base_link,False,-4.528478969342046,0.0,0.0,4.526624054712376,-0.4097834799955918,4.536773262499225,0.0,-0.15457059660029013,0.7974024561980431,1707470610,143789568,0,0
1707470610,269219788,base_link,False,-4.537239831654615,0.0,0.0,4.535585670548647,-0.15457060567906344,4.537052626922942,0.0,-0.02356712997054289,1.0958576281146577,1707470610,194199808,0,0
1707470610,319201599,base_link,False,-4.537525633965468,0.0,0.0,4.536508826362494,-0.023567131647731405,4.550539884452485,0.0,-0.161971414065159,0.46315074832750247,1707470610,244639488,0,0
1707470610,369201988,base_link,False,-4.5510524669020205,0.0,0.0,4.549781289767917,-0.16197141752462607,4.562341970629571,0.0,-0.19929890535995126,0.26506661057304903,1707470610,295054848,0,0
1707470610,419197907,base_link,False,-4.562834286775897,0.0,0.0,4.560599823319527,-0.19929892456760287,4.565408875724793,0.0,-0.09329794354219816,0.5688084622542895,1707470610,345511168,0,0
1707470610,469208703,base_link,False,-4.565902141615077,0.0,0.0,4.564804791342837,-0.09329794576364199,4.5804237953683975,0.0,-0.22108264650337703,0.057182359354376544,1707470610,395939328,0,0
1707470610,519209651,base_link,False,-4.5809054632115815,0.0,0.0,4.578659904262885,-0.22108266619988914,4.588192896306994,0.0,-0.17283556260141314,0.20582469837397324,1707470610,446347008,0,0
1707470610,569209202,base_link,False,-4.58868613648115,0.0,0.0,4.587586244155694,-0.17283556435656072,4.598584078344205,0.0,-0.19088657940750053,0.11300585299362013,1707470610,496780288,0,0
1707470610,619209522,base_link,False,-4.599090854713876,0.0,0.0,4.598287963377951,-0.19088657997193492,4.612620739845312,0.0,-0.25068073082100756,-0.10132001624123523,1707470610,547217920,0,0
1707470610,669201041,base_link,False,-4.613210585110368,0.0,0.0,4.6112437593699935,-0.2506807410544468,4.6216121080101455,0.0,-0.20392157867493943,0.06840364965356051,1707470610,597640960,0,0
1707470610,719223920,base_link,False,-4.622155621874849,0.0,0.0,4.621860494038932,-0.20392157831098454,4.625883413746102,0.0,-0.11802804350965793,0.3384979756562528,1707470610,648081664,0,0
1707470610,769199235,base_link,False,-4.626445656576022,0.0,0.0,4.624875428893763,-0.11802804950520708,4.6378479443253395,0.0,-0.19271442162598107,0.03847760197145117,1707470610,698497536,0,0
1707470610,819198576,base_link,False,-4.6383996831710075,0.0,0.0,4.637875732536858,-0.19271442090783264,4.645999680365519,0.0,-0.1705101762938924,0.1048943463087229,1707470610,748927744,0,0
1707470610,869213912,base_link,False,-4.646476170684279,0.0,0.0,4.645804205685329,-0.17051017653985764,4.650410775312125,0.0,-0.10900571293618833,0.2891409871605392,1707470610,799359488,0,0
1707470610,919200612,base_link,False,-4.650840274683533,0.0,0.0,4.64968852936528,-0.10900571570006141,4.655000684072742,0.0,-0.08750152536913336,0.31221986031596116,1707470610,849789696,0,0
1707470610,969208195,base_link,False,-4.655489273302961,0.0,0.0,4.653928921516259,-0.08750153249146692,4.656771897212154,0.0,-0.04062599217543415,0.41460899128488415,1707470610,900220672,0,0
1707470611,19210680,base_link,False,-4.657256694076178,0.0,0.0,4.656363984046677,-0.04062599324652963,4.660851631449597,0.0,-0.0561473451484682,0.2958869331075752,1707470610,950650368,0,0
1707470611,69209253,base_link,False,-4.661318539520708,0.0,0.0,4.659697927617972,-0.056147353196797006,4.6586487660391285,0.0,0.024187264423888487,0.5105266023774118,1707470611,1078784,0,0
1707470611,119201470,base_link,False,-4.659121353959351,0.0,0.0,4.658063049803121,0.024187262215541815,4.6624504123555015,0.0,-0.030074789353491616,0.24922535686927172,1707470611,51519744,0,0
1707470611,169240693,base_link,False,-4.663009632365235,0.0,0.0,4.661140150615387,-0.030074798450050386,4.657726029808597,0.0,0.06595191630182205,0.5228961835665522,1707470611,101939456,0,0
1707470611,219217684,base_link,False,-4.658284211956264,0.0,0.0,4.657355069290942,0.06595191541599668,4.6741273719197975,0.0,-0.19536114152156622,-0.4185077528341934,1707470611,152369152,0,0
1707470611,269203616,base_link,False,-4.67465948551415,0.0,0.0,4.672192638089187,-0.41006133511483434,4.686192674374586,0.0,-0.24134392343278757,-0.5005689253021146,1707470611,202805504,0,0
1707470611,319201630,base_link,False,-4.686727682390816,0.0,0.0,4.68559047131947,-0.24134392515254868,4.682656967383655,0.0,-0.03716074819597248,0.2500827267182081,1707470611,253227776,0,0
1707470611,369196711,base_link,False,-4.68319639824403,0.0,0.0,4.682497050130142,-0.03716074766979039,4.682243984288305,0.0,0.0030039110591541275,0.34066895916580836,1707470611,303676416,0,0
1707470611,419197799,base_link,False,-4.682793595212941,0.0,0.0,4.682058989858618,0.0030039108388563774,4.676644725396101,0.0,0.09098500835780944,0.5730174318801105,1707470611,354093568,0,0
1707470611,469198747,base_link,False,-4.677203026240928,0.0,0.0,4.6741994679263765,-0.12371518500819638,4.690949217116773,0.0,-0.15676939637799236,-0.33219006128594686,1707470611,404518912,0,0
1707470611,519204095,base_link,False,-4.691521808192913,0.0,0.0,4.689932987747335,-0.15676940302576522,4.697632339563638,0.0,-0.15119608606684368,-0.25954293546552454,1707470611,454949632,0,0
1707470611,569234587,base_link,False,-4.698221864974092,0.0,0.0,4.697266462803728,-0.1511960862732122,4.700654895483258,0.0,-0.09550730372064073,-0.03466693313477712,1707470611,505376768,0,0
1707470611,619204385,base_link,False,-4.701251094197845,0.0,0.0,4.698870181389082,-0.09550732214708216,4.705432596538868,0.0,-0.09666160084751207,-0.03277058737643843,1707470611,555813376,0,0
1707470611,669219651,base_link,False,-4.706003805776056,0.0,0.0,4.705321277387747,-0.09666160022811092,4.708034282337347,0.0,-0.0662055390240753,0.07233690124717135,1707470611,606243584,0,0
1707470611,719199296,base_link,False,-4.708545553160869,0.0,0.0,4.7071445294630365,-0.06620554355495009,4.714834720484183,0.0,-0.11316054586776265,-0.0932822934965149,1707470611,656670208,0,0
1707470611,769199616,base_link,False,-4.715425685145058,0.0,0.0,4.7135696817831825,-0.11316055616925873,4.720609350644442,0.0,-0.1178246605425884,-0.0932822934965149,1707470611,656670208,0,0
