header_stamp_sec, header_stamp_nanosec, header_frame_id, runner_detected, x, y, phi, vx_b, ax_b, relative_distance_to_airshield_x, relative_distance_to_airshield_y, relative_speed_to_airshield_x, relative_acceleration_to_airshield_x, stamp_lidar_sec, stamp_lidar_nanosec, stamp_zed_sec, stamp_zed_nanosec
1707133528,178353567,base_link,False,-5.501598572041237,0.0,0.0,5.501598572041237,0.015335371183860233,5.500771292534923,0.0,0.005900500969979322,0.059292875566128764,1707133528,66862402,0,0
1707133528,228431413,base_link,False,-5.500771292534923,0.0,0.0,5.500771292534923,0.019220894882359556,5.503376915030564,0.0,-0.033150173613267886,-0.07830428434939397,1707133528,116885070,0,0
1707133528,278376844,base_link,False,-5.503376915030564,0.0,0.0,5.503376915030564,-0.09651624669404296,5.507726089043744,0.0,-0.07369979473266694,-0.19827934443385373,1707133528,166865340,0,0
1707133528,328488253,base_link,False,-5.507726089043744,0.0,0.0,5.507726089043744,0.004323972892419606,5.499152447023263,0.0,0.0930267520550849,0.38020569391726144,1707133528,216876836,0,0
1707133528,378456052,base_link,False,-5.499152447023263,0.0,0.0,5.499152447023263,0.2356190888682596,5.498110757341644,0.0,0.054342172041765585,0.19125914215298573,1707133528,266851415,0,0
1707133528,428390057,base_link,False,-5.498110757341644,0.0,0.0,5.498110757341644,0.016304592139676777,5.5018346200202535,0.0,-0.030443283093640222,-0.11772515389515836,1707133528,316993131,0,0
1707133528,478458189,base_link,False,-5.5018346200202535,0.0,0.0,5.5018346200202535,-0.009127141913374402,5.496236164938135,0.0,0.0663199285606022,0.2184445099335096,1707133528,366888268,0,0
1707133528,528444245,base_link,False,-5.496236164938135,0.0,0.0,5.496236164938135,0.09396650079293317,5.496172585122917,0.0,0.02744867230082189,0.05537442170913562,1707133528,416972021,0,0
1707133528,578401181,base_link,False,-5.496172585122917,0.0,0.0,5.496172585122917,-0.003907581703510292,5.502788056058495,0.0,-0.0835807470072014,-0.3173063416987886,1707133528,466893566,0,0
1707133528,628491887,base_link,False,-5.502788056058495,0.0,0.0,5.502788056058495,-0.16402891102983658,5.499943638406526,0.0,0.005354651024074841,0.02590849801791889,1707133528,516877873,0,0
1707133528,678472669,base_link,False,-5.499943638406526,0.0,0.0,5.499943638406526,0.0028230788041890844,5.49854496250878,0.0,0.022166015381256583,0.07672208900952548,1707133528,566947040,0,0
1707133528,728509715,base_link,False,-5.49854496250878,0.0,0.0,5.49854496250878,-0.12134245881714655,5.494337953641234,0.0,0.06841349897004778,0.2156163196164405,1707133528,616890875,0,0
1707133528,778404992,base_link,False,-5.494337953641234,0.0,0.0,5.494337953641234,0.17470560473832258,5.504198973077012,0.0,-0.11220193446532908,-0.41119269588421364,1707133528,666890135,0,0
1707133528,828361329,base_link,False,-5.504198973077012,0.0,0.0,5.504198973077012,-0.10725068495088429,5.493273384332386,0.0,0.1080466650477021,0.3774370329165127,1707133528,716894596,0,0
1707133528,878382960,base_link,False,-5.493273384332386,0.0,0.0,5.493273384332386,0.01657596803785291,5.495023040439059,0.0,0.019240791627397585,0.02480019156815333,1707133528,766892708,0,0
1707133528,928401740,base_link,False,-5.495023040439059,0.0,0.0,5.495023040439059,0.06485606521505356,5.504743119828051,0.0,-0.13083041841707888,-0.4707332208958641,1707133528,816901564,0,0
1707133528,978479948,base_link,False,-5.504743119828051,0.0,0.0,5.504743119828051,-0.09280780333831877,5.505162158049823,0.0,-0.05958288760851388,-0.16032177781980012,1707133528,866861276,0,0
1707133529,28410579,base_link,False,-5.505162158049823,0.0,0.0,5.505162158049823,-0.10547708538869263,5.507003130418367,0.0,-0.04869306348209687,-0.0984062660909745,1707133528,916904899,0,0
1707133529,78474475,base_link,False,-5.507003130418367,0.0,0.0,5.507003130418367,-0.028895014854200117,5.503884043984778,0.0,0.026564539827658704,0.16417067118547854,1707133528,966872372,0,0
1707133529,128407962,base_link,False,-5.503884043984778,0.0,0.0,5.503884043984778,-0.019881768363368427,5.499377167044185,0.0,0.07676964890832685,0.30170644964120863,1707133529,16881222,0,0
1707133529,178392902,base_link,False,-5.499377167044185,0.0,0.0,5.499377167044185,0.026161953736116163,5.502229752943649,0.0,-0.007975727258282245,-0.025231941929065194,1707133529,66862331,0,0
1707133529,228392202,base_link,False,-5.502229752943649,0.0,0.0,5.502229752943649,-0.10921368114544427,5.499806987711151,0.0,0.031059506993718164,0.10673729603857485,1707133529,116961218,0,0
1707133529,278361029,base_link,False,-5.499806987711151,0.0,0.0,5.499806987711151,-0.0069184321071606575,5.501647924738292,0.0,-0.013423405118180111,-0.056418906943818486,1707133529,166855910,0,0
1707133529,328354989,base_link,False,-5.501647924738292,0.0,0.0,5.501647924738292,-0.07862560077754172,5.507007164692737,0.0,-0.0814621934720885,-0.27000267409080925,1707133529,216874607,0,0
1707133529,378480346,base_link,False,-5.507007164692737,0.0,0.0,5.507007164692737,-0.030101809326951855,5.50395816808943,0.0,0.010396589058176642,0.07504023432976231,1707133529,266845723,0,0
1707133529,428355094,base_link,False,-5.50395816808943,0.0,0.0,5.50395816808943,-0.023184956965054522,5.500290968561834,0.0,0.057276970657863996,0.2162825582995036,1707133529,316845990,0,0
1707133529,478454577,base_link,False,-5.500290968561834,0.0,0.0,5.500290968561834,0.13013230176716362,5.5035314114085505,0.0,-0.0219438601343602,-0.07857548620262295,1707133529,367018798,0,0
1707133529,528455987,base_link,False,-5.5035314114085505,0.0,0.0,5.5035314114085505,-0.1990473487035336,5.497962803370934,0.0,0.06966183656707109,0.23429306740689781,1707133529,416855331,0,0
1707133529,578448689,base_link,False,-5.497962803370934,0.0,0.0,5.497962803370934,0.02612338489685804,5.498590390712514,0.0,0.019181173348995786,0.030607857908536124,1707133529,466874782,0,0
1707133529,628440391,base_link,False,-5.498590390712514,0.0,0.0,5.498590390712514,0.010544244151172935,5.500278062385764,0.0,-0.017211015246074032,-0.0935858817379092,1707133529,516881722,0,0
1707133529,678440359,base_link,False,-5.500278062385764,0.0,0.0,5.500278062385764,0.013842713948613673,5.496131626433919,0.0,0.050480210732201686,0.1434223907422777,1707133529,566988063,0,0
1707133529,728448165,base_link,False,-5.496131626433919,0.0,0.0,5.496131626433919,-0.024236966337090077,5.49680984425091,0.0,0.009891211227068625,-0.012988580153848767,1707133529,617015311,0,0
1707133529,778431546,base_link,False,-5.49680984425091,0.0,0.0,5.49680984425091,-0.14834227218703863,5.5042884182449905,0.0,-0.10314080616029983,-0.38103351205060754,1707133529,666869042,0,0
1707133529,828532682,base_link,False,-5.5042884182449905,0.0,0.0,5.5042884182449905,-0.04762395293989054,5.508358722405547,0.0,-0.10011640158206424,-0.30873592980212133,1707133529,717011523,0,0
1707133529,878383145,base_link,False,-5.508358722405547,0.0,0.0,5.508358722405547,-0.2357364975889349,5.498825951552713,0.0,0.09523937259568006,0.3815946492880286,1707133529,766864788,0,0
1707133529,928546367,base_link,False,-5.498825951552713,0.0,0.0,5.498825951552713,-0.12531458263489448,5.504034230085246,0.0,-0.0332368650400319,-0.10164058981309954,1707133529,816956263,0,0
1707133529,978420834,base_link,False,-5.504034230085246,0.0,0.0,5.504034230085246,-0.20235542568217596,5.496174069659415,0.0,0.09796356094853964,0.34467469593312094,1707133529,866854611,0,0
1707133530,28503803,base_link,False,-5.496174069659415,0.0,0.0,5.496174069659415,0.2406030608327304,5.498861021521358,0.0,0.0019803446781841427,-0.02610271403577602,1707133529,916895762,0,0
1707133530,78482660,base_link,False,-5.498861021521358,0.0,0.0,5.498861021521358,0.1948416386682699,5.501918516722902,0.0,-0.04344627378088662,-0.17059741157492403,1707133529,966959152,0,0
1707133530,128443932,base_link,False,-5.501918516722902,0.0,0.0,5.501918516722902,-0.017122625866097738,5.49372681829447,0.0,0.09741619510270352,0.3186518057287107,1707133530,16914052,0,0
1707133530,178463509,base_link,False,-5.49372681829447,0.0,0.0,5.49372681829447,0.039061957169229194,5.507157523221824,0.0,-0.150766076383283,-0.5463054595867081,1707133530,66894061,0,0
1707133530,228438964,base_link,False,-5.507157523221824,0.0,0.0,5.507157523221824,-0.1224236099293449,5.493862315574245,0.0,0.1258144299167233,0.4489314627976577,1707133530,116963976,0,0
1707133530,278428867,base_link,False,-5.493862315574245,0.0,0.0,5.493862315574245,0.15157517079236776,5.500662458676664,0.0,-0.04455913707027695,-0.18254069284950847,1707133530,166873320,0,0
1707133530,328443410,base_link,False,-5.500662458676664,0.0,0.0,5.500662458676664,-0.0624187046524715,5.50270141525484,0.0,-0.04779401000741344,-0.1632442850622116,1707133530,216890786,0,0
1707133530,378475018,base_link,False,-5.50270141525484,0.0,0.0,5.50270141525484,-0.14165760071515174,5.499607845750129,0.0,0.024371094046377474,0.0998219320623922,1707133530,266998949,0,0
1707133530,428469285,base_link,False,-5.499607845750129,0.0,0.0,5.499607845750129,-0.011422221785461109,5.492984022433755,0.0,0.10394341651625683,0.3440701077866708,1707133530,316907097,0,0
1707133530,478422170,base_link,False,-5.492984022433755,0.0,0.0,5.492984022433755,0.01735457635370867,5.502464183859101,0.0,-0.09222904110933508,-0.3547208963048115,1707133530,366859279,0,0
1707133530,528474866,base_link,False,-5.502464183859101,0.0,0.0,5.502464183859101,0.062063107744672275,5.502185911221169,0.0,-0.034640453062694324,-0.1080381158892196,1707133530,416871352,0,0
1707133530,578387275,base_link,False,-5.502185911221169,0.0,0.0,5.502185911221169,-0.08229659693024438,5.495353391074637,0.0,0.08282994514692724,0.2943598837581949,1707133530,466877276,0,0
1707133530,628390983,base_link,False,-5.495353391074637,0.0,0.0,5.495353391074637,0.05569711794126955,5.495309000530846,0.0,0.03448384550787914,0.08782949099611628,1707133530,516984348,0,0
1707133530,678378904,base_link,False,-5.495309000530846,0.0,0.0,5.495309000530846,0.032812812307145604,5.4974696298793795,0.0,-0.017544203551419633,-0.09694040996227568,1707133530,566990282,0,0
1707133530,728352991,base_link,False,-5.4974696298793795,0.0,0.0,5.4974696298793795,-0.0032944516361019735,5.497573323863306,0.0,-0.009754671558647376,-0.05555660515787367,1707133530,616974527,0,0
1707133530,778353349,base_link,False,-5.497573323863306,0.0,0.0,5.497573323863306,-0.17648550860670567,5.49677256894306,0.0,0.006646850546759278,0.007254400854258561,1707133530,666978899,0,0
1707133530,828450591,base_link,False,-5.49677256894306,0.0,0.0,5.49677256894306,-0.08295519096482215,5.503697242724586,0.0,-0.09561600999874241,-0.3288370289929427,1707133530,716849521,0,0
1707133530,878358521,base_link,False,-5.503697242724586,0.0,0.0,5.503697242724586,-0.1908460201440597,5.495985389428377,0.0,0.07019294327746377,0.2680213098348067,1707133530,766847966,0,0
1707133530,928533729,base_link,False,-5.495985389428377,0.0,0.0,5.495985389428377,0.17930844109316016,5.49991024348285,0.0,-0.026142167288010054,-0.09135681115259092,1707133530,816847715,0,0
1707133530,978463678,base_link,False,-5.49991024348285,0.0,0.0,5.49991024348285,-0.23075266654569238,5.505858692697517,0.0,-0.09465103129340617,-0.30075908564672593,1707133530,866854642,0,0
1707133531,28589249,base_link,False,-5.505858692697517,0.0,0.0,5.505858692697517,-0.1663477401702832,5.498592219403907,0.0,0.0650941311800633,0.2716431096628035,1707133530,916880629,0,0
1707133531,78446005,base_link,False,-5.498592219403907,0.0,0.0,5.498592219403907,0.16278001846229465,5.500660197832319,0.0,-0.0012967121540219118,0.009737263502489768,1707133530,966877880,0,0
1707133531,128439100,base_link,False,-5.500660197832319,0.0,0.0,5.500660197832319,0.03518117538329325,5.497784435164672,0.0,0.04055101019434158,0.14519111642655305,1707133531,16961447,0,0
1707133531,178515336,base_link,False,-5.497784435164672,0.0,0.0,5.497784435164672,0.009124076313398365,5.501051686475782,0.0,-0.029536116222538857,-0.10811373094560181,1707133531,66892476,0,0
1707133531,228517093,base_link,False,-5.501051686475782,0.0,0.0,5.501051686475782,-0.24148288003584023,5.4992898306684195,0.0,0.012709525946911673,0.0479409594223488,1707133531,116973310,0,0
1707133531,278519126,base_link,False,-5.4992898306684195,0.0,0.0,5.4992898306684195,0.06721076542425297,5.504899557444208,0.0,-0.0739465563051384,-0.24370166707998056,1707133531,167028036,0,0
1707133531,328413221,base_link,False,-5.504899557444208,0.0,0.0,5.504899557444208,-0.13685006465890637,5.5015605134625085,0.0,0.017552028201728465,0.09585492284066663,1707133531,217012421,0,0
1707133531,378464126,base_link,False,-5.5015605134625085,0.0,0.0,5.5015605134625085,-0.02094706486105384,5.502514416678994,0.0,-0.005215556089529158,0.0055968136120030515,1707133531,266978580,0,0
1707133531,428406695,base_link,False,-5.502514416678994,0.0,0.0,5.502514416678994,-0.04515277602272488,5.494204335077202,0.0,0.11601959076593368,0.40171678259938465,1707133531,316994440,0,0
1707133531,478452972,base_link,False,-5.494204335077202,0.0,0.0,5.494204335077202,0.18373299236016008,5.495646792296994,0.0,0.026707452745532212,0.04344623882151205,1707133531,367000355,0,0
1707133531,528446131,base_link,False,-5.495646792296994,0.0,0.0,5.495646792296994,-0.08059013954137821,5.496804376895082,0.0,-0.007097598342038651,-0.07437704961324511,1707133531,416880735,0,0
1707133531,578566855,base_link,False,-5.496804376895082,0.0,0.0,5.496804376895082,0.0645577648944112,5.487964001971713,0.0,0.12036969578318182,0.35524818939835273,1707133531,466881208,0,0
1707133531,628448696,base_link,False,-5.487964001971713,0.0,0.0,5.487964001971713,0.23932451046071512,5.5077801496490855,0.0,-0.23302600147112937,-0.8602680403110605,1707133531,516875975,0,0
1707133531,678533568,base_link,False,-5.5077801496490855,0.0,0.0,5.5077801496490855,-0.20565419867098506,5.51047457089866,0.0,-0.1343452351386838,-0.3962297823237751,1707133531,566852700,0,0
1707133531,728447831,base_link,False,-5.51047457089866,0.0,0.0,5.51047457089866,0.07433144570173869,5.495646697921558,0.0,0.15714039311567457,0.6232459924753408,1707133531,616997079,0,0
1707133531,778436154,base_link,False,-5.495646697921558,0.0,0.0,5.495646697921558,0.2420922987042502,5.495675011042862,0.0,0.06592755315453151,0.22247617071058584,1707133531,666882210,0,0
1707133531,828451683,base_link,False,-5.495675011042862,0.0,0.0,5.495675011042862,0.07040705361648607,5.498418126069634,0.0,-0.012177733140466704,-0.06974272728420333,1707133531,716880827,0,0
1707133531,878454233,base_link,False,-5.498418126069634,0.0,0.0,5.498418126069634,0.015805214162696948,5.499293058514025,0.0,-0.01819117772786521,-0.07801620586624428,1707133531,766881811,0,0
1707133531,928447831,base_link,False,-5.499293058514025,0.0,0.0,5.499293058514025,-0.12290655221097802,5.498747530547534,0.0,-0.00016309216545295352,-0.00620064174589692,1707133531,816895480,0,0
1707133531,978450547,base_link,False,-5.498747530547534,0.0,0.0,5.498747530547534,0.008500742976343772,5.505646677065199,0.0,-0.09769145875382057,-0.3245837277421121,1707133531,866854568,0,0
1707133532,28446072,base_link,False,-5.505646677065199,0.0,0.0,5.505646677065199,-0.18642543478647264,5.5072518829849795,0.0,-0.06187264102622234,-0.15413024018724913,1707133531,916895998,0,0
1707133532,78444048,base_link,False,-5.5072518829849795,0.0,0.0,5.5072518829849795,-0.11970798364291593,5.510580687629578,0.0,-0.07017955787629478,-0.1560965230598507,1707133531,966942743,0,0
1707133532,128432078,base_link,False,-5.510580687629578,0.0,0.0,5.510580687629578,-0.2796914985673702,5.497270589716918,0.0,0.1623227353903411,0.630892090356871,1707133532,16999196,0,0
1707133532,178438304,base_link,False,-5.497270589716918,0.0,0.0,5.497270589716918,0.31308048671955724,5.501327687178124,0.0,0.010795239771309029,0.031344067851472035,1707133532,66978445,0,0
1707133532,228432524,base_link,False,-5.501327687178124,0.0,0.0,5.501327687178124,0.09911859472272556,5.505139125035577,0.0,-0.049646923943055664,-0.17173217040646022,1707133532,117011709,0,0
1707133532,278392151,base_link,False,-5.505139125035577,0.0,0.0,5.505139125035577,0.02842033560820755,5.5030044049957345,0.0,0.01000944740750534,0.051758703412509516,1707133532,167036578,0,0
1707133532,328428406,base_link,False,-5.5030044049957345,0.0,0.0,5.5030044049957345,0.08170755955730886,5.49792429705909,0.0,0.07636598618519237,0.2605963152712233,1707133532,217092028,0,0
1707133532,378432643,base_link,False,-5.49792429705909,0.0,0.0,5.49792429705909,0.06861638960706976,5.491642475396244,0.0,0.11958958890173353,0.35947880608262417,1707133532,266886944,0,0
1707133532,428424090,base_link,False,-5.491642475396244,0.0,0.0,5.491642475396244,0.29487151647974713,5.501112457963573,0.0,-0.08698997040718237,-0.3759178302099151,1707133532,316855487,0,0
1707133532,478409080,base_link,False,-5.501112457963573,0.0,0.0,5.501112457963573,-0.2864970479808719,5.500144935396761,0.0,-0.02405190003227843,-0.10824495606205126,1707133532,366876125,0,0
1707133532,528410630,base_link,False,-5.500144935396761,0.0,0.0,5.500144935396761,-0.0932846210084276,5.497373583856855,0.0,0.02857460177017362,0.08182779412041755,1707133532,416876813,0,0
1707133532,578412844,base_link,False,-5.497373583856855,0.0,0.0,5.497373583856855,-0.0007255940370801024,5.500149526334116,0.0,-0.028165121333921628,-0.11738974566221422,1707133532,467073934,0,0
1707133532,628449138,base_link,False,-5.500149526334116,0.0,0.0,5.500149526334116,0.05674514222000997,5.495059214340779,0.0,0.05982313918328813,0.18998765946079538,1707133532,516884258,0,0
1707133532,678438781,base_link,False,-5.495059214340779,0.0,0.0,5.495059214340779,0.2170843008814114,5.495380119331132,0.0,0.019189017328114885,0.025804020017388907,1707133532,566879374,0,0
1707133532,728425367,base_link,False,-5.495380119331132,0.0,0.0,5.495380119331132,-0.030757740161304052,5.49625337933977,0.0,-0.0058614075304983144,-0.06045964404611395,1707133532,616877344,0,0
1707133532,778410974,base_link,False,-5.49625337933977,0.0,0.0,5.49625337933977,-0.083470191277779,5.502675338843444,0.0,-0.09438090972153293,-0.3404546266350025,1707133532,666980137,0,0
1707133532,828425103,base_link,False,-5.502675338843444,0.0,0.0,5.502675338843444,-0.011120182066221743,5.5031224512440025,0.0,-0.045056515872073225,-0.12317254120761134,1707133532,716888295,0,0
1707133532,878512809,base_link,False,-5.5031224512440025,0.0,0.0,5.5031224512440025,-0.04205211608304962,5.49722766571027,0.0,0.06603565178415005,0.26081541794601026,1707133532,766939012,0,0
1707133532,928434359,base_link,False,-5.49722766571027,0.0,0.0,5.49722766571027,0.10535325376117126,5.501237718289255,0.0,-0.02880000883007998,-0.09247217278638858,1707133532,816859075,0,0
1707133532,978448799,base_link,False,-5.501237718289255,0.0,0.0,5.501237718289255,0.09228393517482521,5.508151392938765,0.0,-0.1091007575997502,-0.34030938927154886,1707133532,866979843,0,0
1707133533,28444857,base_link,False,-5.508151392938765,0.0,0.0,5.508151392938765,-0.06110928824165849,5.497206845671985,0.0,0.11151829990595705,0.4379266751911355,1707133532,917006212,0,0
1707133533,78536478,base_link,False,-5.497206845671985,0.0,0.0,5.497206845671985,0.14533471151995625,5.4921667866843915,0.0,0.11811469654930869,0.3878204764004982,1707133532,966920020,0,0
1707133533,128436017,base_link,False,-5.4921667866843915,0.0,0.0,5.4921667866843915,0.12012488326919012,5.502035311223831,0.0,-0.09213555980959187,-0.36423827703022404,1707133533,16957766,0,0
1707133533,178443959,base_link,False,-5.502035311223831,0.0,0.0,5.502035311223831,-0.09792623763955169,5.491168131832952,0.0,0.11463602451278522,0.372566573767091,1707133533,67005567,0,0
1707133533,228413347,base_link,False,-5.491168131832952,0.0,0.0,5.491168131832952,0.07787268002623485,5.496603936495948,0.0,-0.031043623881547494,-0.1655302889888134,1707133533,116854576,0,0
1707133533,278429994,base_link,False,-5.496603936495948,0.0,0.0,5.496603936495948,-0.10000040796864929,5.5031258544942645,0.0,-0.10658987420811264,-0.38583385839909645,1707133533,167033108,0,0
1707133533,328433631,base_link,False,-5.5031258544942645,0.0,0.0,5.5031258544942645,0.03862327339264934,5.501377762253326,0.0,-0.019106464612393695,-0.036153041288129295,1707133533,216889428,0,0
1707133533,378540398,base_link,False,-5.501377762253326,0.0,0.0,5.501377762253326,0.08818889401177965,5.496019744777213,0.0,0.06889326942149981,0.2579597192109186,1707133533,266865386,0,0
1707133533,428440852,base_link,False,-5.496019744777213,0.0,0.0,5.496019744777213,0.10425352642206702,5.502346353241926,0.0,-0.06077164283811566,-0.20892356691859704,1707133533,317024246,0,0
1707133533,478448901,base_link,False,-5.502346353241926,0.0,0.0,5.502346353241926,-0.03995784048746595,5.490401841246147,0.0,0.14409069934758312,0.49619642469556646,1707133533,367015942,0,0
1707133533,528434628,base_link,False,-5.490401841246147,0.0,0.0,5.490401841246147,-0.11270998414495675,5.496148904708302,0.0,-0.022787093637183425,-0.13156678967833557,1707133533,416910273,0,0
1707133533,578468582,base_link,False,-5.496148904708302,0.0,0.0,5.496148904708302,-0.04826399229685781,5.505179633023621,0.0,-0.13849975075725185,-0.4889738674215335,1707133533,466980386,0,0
1707133533,628451322,base_link,False,-5.505179633023621,0.0,0.0,5.505179633023621,-0.08432677810809411,5.502905124899786,0.0,-0.02438273607290553,-0.035181092937731084,1707133533,517002715,0,0
1707133533,678459592,base_link,False,-5.502905124899786,0.0,0.0,5.502905124899786,-0.07213677802354859,5.498208642015942,0.0,0.05803105657875071,0.24047895634754562,1707133533,567006192,0,0
1707133533,728463180,base_link,False,-5.498208642015942,0.0,0.0,5.498208642015942,-0.059316257228817434,5.497931080144435,0.0,0.028748339305916096,0.1052025851658456,1707133533,616979384,0,0
1707133533,778420643,base_link,False,-5.497931080144435,0.0,0.0,5.497931080144435,-0.08391788937879792,5.495897739419029,0.0,0.040567906131560284,0.12668427363346652,1707133533,667158298,0,0
1707133533,828448990,base_link,False,-5.495897739419029,0.0,0.0,5.495897739419029,0.06379608970357448,5.507676677146946,0.0,-0.15034812073198137,-0.5192961437495152,1707133533,716865264,0,0
1707133533,878620113,base_link,False,-5.507676677146946,0.0,0.0,5.507676677146946,-0.14379418706632546,5.4957979293994415,0.0,0.10680488228425805,0.40789441732880594,1707133533,766872628,0,0
1707133533,928519447,base_link,False,-5.4957979293994415,0.0,0.0,5.4957979293994415,-0.1279118954619256,5.507988959244692,0.0,-0.12761201082359624,-0.4265953774322532,1707133533,816874081,0,0
1707133533,978398138,base_link,False,-5.507988959244692,0.0,0.0,5.507988959244692,-0.17841749986811004,5.501697712562813,0.0,0.037565851986881116,0.18420376494694524,1707133533,866973028,0,0
1707133534,28409656,base_link,False,-5.501697712562813,0.0,0.0,5.501697712562813,0.06025165252993171,5.511442196139298,0.0,-0.12063519862707861,-0.3640560579831036,1707133533,916887760,0,0
1707133534,78378739,base_link,False,-5.511442196139298,0.0,0.0,5.511442196139298,-0.0035020789389858392,5.497584266459405,0.0,0.14850972049453978,0.5769871614926112,1707133533,966884061,0,0
1707133534,128347681,base_link,False,-5.497584266459405,0.0,0.0,5.497584266459405,0.0055695852263731305,5.493789823214867,0.0,0.11588787792577673,0.3756733798774754,1707133534,16948739,0,0
1707133534,178382874,base_link,False,-5.493789823214867,0.0,0.0,5.493789823214867,0.16704381481048508,5.503266489047144,0.0,-0.08764812697057264,-0.3524076370839945,1707133534,66892935,0,0
1707133534,228444819,base_link,False,-5.503266489047144,0.0,0.0,5.503266489047144,0.018736946523548195,5.497624066306261,0.0,0.04254307823314993,0.13166472925530154,1707133534,116876711,0,0
1707133534,278434338,base_link,False,-5.497624066306261,0.0,0.0,5.497624066306261,0.018903825352996954,5.49421909600087,0.0,0.06484956160792058,0.18315723732402964,1707133534,166890343,0,0
1707133534,328416729,base_link,False,-5.49421909600087,0.0,0.0,5.49421909600087,0.1238961046390375,5.494560954759375,0.0,0.020148920778916217,0.006774496524804247,1707133534,216912836,0,0
1707133534,378382004,base_link,False,-5.494560954759375,0.0,0.0,5.494560954759375,-0.017027978159813772,5.5002652487765245,0.0,-0.07442802511862301,-0.3040675304398117,1707133534,266877906,0,0
1707133534,428421871,base_link,False,-5.5002652487765245,0.0,0.0,5.5002652487765245,-0.0998321482053537,5.508149931693218,0.0,-0.14306497018530276,-0.4790586423155321,1707133534,316887521,0,0
1707133534,478408887,base_link,False,-5.508149931693218,0.0,0.0,5.508149931693218,-0.15585707982783517,5.509597212834563,0.0,-0.07796955445916709,-0.1874316777694609,1707133534,366860473,0,0
1707133534,528489933,base_link,False,-5.509597212834563,0.0,0.0,5.509597212834563,-0.12107648507180326,5.505622534562098,0.0,0.027167760192680537,0.1875767676888646,1707133534,416903262,0,0
1707133534,578427067,base_link,False,-5.505622534562098,0.0,0.0,5.505622534562098,0.10040472129653519,5.49403613204478,0.0,0.17769459039888896,0.6498263366514583,1707133534,466924317,0,0
1707133534,628451798,base_link,False,-5.49403613204478,0.0,0.0,5.49403613204478,0.17807353887191749,5.501092571790018,0.0,-0.02643848138104543,-0.12510159700478463,1707133534,516953842,0,0
1707133534,678405141,base_link,False,-5.501092571790018,0.0,0.0,5.501092571790018,-0.0775456534415522,5.490189538193122,0.0,0.14217939701786209,0.44759482276402207,1707133534,566859513,0,0
1707133534,728363955,base_link,False,-5.490189538193122,0.0,0.0,5.490189538193122,0.30115083361753975,5.493903722485011,0.0,0.0037915532967745524,-0.07890750890361098,1707133534,616921011,0,0
1707133534,778378067,base_link,False,-5.493903722485011,0.0,0.0,5.493903722485011,0.06529832268211266,5.499006860340454,0.0,-0.07351459932599451,-0.31915880253818363,1707133534,666894238,0,0
1707133534,828476133,base_link,False,-5.499006860340454,0.0,0.0,5.499006860340454,-0.21919319161452194,5.498623514811221,0.0,-0.026507773063123963,-0.1129537000223858,1707133534,716872822,0,0
1707133534,878489048,base_link,False,-5.498623514811221,0.0,0.0,5.498623514811221,0.01372543563692423,5.4894061095328395,0.0,0.11874428728450342,0.38123216364972673,1707133534,766892513,0,0
1707133534,928457147,base_link,False,-5.4894061095328395,0.0,0.0,5.4894061095328395,0.060866302867812645,5.492101187105879,0.0,0.009153495197189165,-0.040095237492569435,1707133534,816881729,0,0
1707133534,978520181,base_link,False,-5.492101187105879,0.0,0.0,5.492101187105879,0.03523181457464006,5.489105275665377,0.0,0.043706457947527345,0.07962869362423317,1707133534,866867568,0,0
1707133535,28533365,base_link,False,-5.489105275665377,0.0,0.0,5.489105275665377,-0.10078067393220447,5.482524909922279,0.0,0.10835728191814838,0.27831660045372875,1707133534,916872834,0,0
1707133535,78501122,base_link,False,-5.482524909922279,0.0,0.0,5.482524909922279,0.10618659369132569,5.488537454581631,0.0,-0.04408269769419368,-0.2664867673144655,1707133534,966878194,0,0
1707133535,128457424,base_link,False,-5.488537454581631,0.0,0.0,5.488537454581631,-0.050462923130116674,5.48452122205559,0.0,0.03515372119682997,0.03664308662501403,1707133535,16852929,0,0
1707133535,178448824,base_link,False,-5.48452122205559,0.0,0.0,5.48452122205559,0.15248932405156512,5.488504017731982,0.0,-0.04473914901842894,-0.2310005183777753,1707133535,66882655,0,0
1707133535,228410369,base_link,False,-5.488504017731982,0.0,0.0,5.488504017731982,-0.14121473674390655,5.489202724617545,0.0,-0.030484759208602545,-0.1464929041072701,1707133535,116869442,0,0
1707133535,278414946,base_link,False,-5.489202724617545,0.0,0.0,5.489202724617545,0.13354223805853255,5.480585799583455,0.0,0.10800986964455428,0.33105477978117626,1707133535,166889416,0,0
1707133535,328397293,base_link,False,-5.480585799583455,0.0,0.0,5.480585799583455,0.19706477979003778,5.4739064369749775,0.0,0.13678051329369842,0.3710675429091291,1707133535,216856141,0,0
1707133535,378370836,base_link,False,-5.4739064369749775,0.0,0.0,5.4739064369749775,0.16146555974215743,5.479066535985949,0.0,-0.020691924754975444,-0.20540440082580752,1707133535,266905457,0,0
1707133535,428363381,base_link,False,-5.479066535985949,0.0,0.0,5.479066535985949,-0.146607351151829,5.482790355347096,0.0,-0.06531811857241232,-0.3179177555277836,1707133535,316867670,0,0
1707133535,478356340,base_link,False,-5.482790355347096,0.0,0.0,5.482790355347096,-0.025367933003569473,5.483151016343556,0.0,-0.034567759036328166,-0.16515463480877932,1707133535,366913741,0,0
1707133535,528391652,base_link,False,-5.483151016343556,0.0,0.0,5.483151016343556,-0.08876354354122376,5.483805089167398,0.0,-0.024736163569479233,-0.10591338315178797,1707133535,416909071,0,0
1707133535,578392307,base_link,False,-5.483805089167398,0.0,0.0,5.483805089167398,0.0007223213782926313,5.489858816716635,0.0,-0.09619571804924291,-0.3225953711582898,1707133535,466892205,0,0
1707133535,628394214,base_link,False,-5.489858816716635,0.0,0.0,5.489858816716635,-0.09446338486449589,5.492944640943035,0.0,-0.08228100457514041,-0.22420184327486514,1707133535,516893111,0,0
1707133535,678372284,base_link,False,-5.492944640943035,0.0,0.0,5.492944640943035,-0.06193086946728339,5.489053573854164,0.0,0.023530786237991014,0.15903644631807368,1707133535,566888442,0,0
1707133535,728377402,base_link,False,-5.489053573854164,0.0,0.0,5.489053573854164,-0.0019911904301130046,5.490758138825741,0.0,-0.01201764493785825,0.016576230152067356,1707133535,616891677,0,0
1707133535,778360885,base_link,False,-5.490758138825741,0.0,0.0,5.490758138825741,-0.1731186320136561,5.489638982583537,0.0,0.01281219787969182,0.09517788954861145,1707133535,666894089,0,0
1707133535,828354214,base_link,False,-5.489638982583537,0.0,0.0,5.489638982583537,0.1675121729003577,5.492568441734218,0.0,-0.03453262678757127,-0.07545806074103881,1707133535,716892883,0,0
1707133535,878405459,base_link,False,-5.492568441734218,0.0,0.0,5.492568441734218,-0.10949786049555225,5.482599310071489,0.0,0.12821667471084486,0.46989023841451016,1707133535,766851463,0,0
1707133535,928357755,base_link,False,-5.482599310071489,0.0,0.0,5.482599310071489,0.0962155307708149,5.483016995699007,0.0,0.04696987344392918,0.12686993576152356,1707133535,816885847,0,0
1707133535,978368436,base_link,False,-5.483016995699007,0.0,0.0,5.483016995699007,0.06910162537064168,5.487103965670934,0.0,-0.03982046774566808,-0.17813671651429763,1707133535,866854802,0,0
1707133536,28374764,base_link,False,-5.487103965670934,0.0,0.0,5.487103965670934,-0.029722204511528016,5.467317240955781,0.0,0.2620048152089364,0.8394887283479459,1707133535,916891812,0,0
1707133536,78360781,base_link,False,-5.467317240955781,0.0,0.0,5.467317240955781,0.21893962792917124,5.461393579457665,0.0,0.1877967453264866,0.458999337284454,1707133535,966891651,0,0
1707133536,128397717,base_link,False,-5.461393579457665,0.0,0.0,5.461393579457665,0.07053678002014223,5.4594417786751634,0.0,0.09758890678061771,0.08841562510795481,1707133536,16888806,0,0
1707133536,178375653,base_link,False,-5.4594417786751634,0.0,0.0,5.4594417786751634,0.008492989963332198,5.442354624688126,0.0,0.27286939783618314,0.6479689434997122,1707133536,66865582,0,0
1707133536,228411899,base_link,False,-5.442354624688126,0.0,0.0,5.442354624688126,0.352075697602038,5.426271069989815,0.0,0.3282915778126026,0.7233700202419999,1707133536,116949892,0,0
1707133536,278372648,base_link,False,-5.426271069989815,0.0,0.0,5.426271069989815,0.3512514817323131,5.409162096671064,0.0,0.3614966251785909,0.7136649216934811,1707133536,166971702,0,0
1707133536,328356418,base_link,False,-5.409162096671064,0.0,0.0,5.409162096671064,0.34085537975058894,5.396703953275363,0.0,0.30525054996414425,0.412602975313103,1707133536,216855025,0,0
1707133536,378349209,base_link,False,-5.396703953275363,0.0,0.0,5.396703953275363,0.23429377767714918,5.360413573585214,0.0,0.6155919001228392,1.3613864205403934,1707133536,266855218,0,0
1707133536,428354975,base_link,False,-5.360413573585214,0.0,0.0,5.360413573585214,0.4656234005473913,5.331491656993352,0.0,0.6333883850532012,1.1967464811670319,1707133536,316895832,0,0
1707133536,478358244,base_link,False,-5.331491656993352,0.0,0.0,5.331491656993352,0.7845787751617155,5.3049276211826,0.0,0.5999892540949989,0.891403765434845,1707133536,366847126,0,0
1707133536,528398334,base_link,False,-5.3049276211826,0.0,0.0,5.3049276211826,0.5944272012704962,5.273508296792407,0.0,0.648875810341272,0.9055395615588898,1707133536,416880043,0,0
1707133536,578352706,base_link,False,-5.273508296792407,0.0,0.0,5.273508296792407,0.8669195213342052,5.24487655705468,0.0,0.6243244865605512,0.6768568717171729,1707133536,466873055,0,0
1707133536,628441523,base_link,False,-5.24487655705468,0.0,0.0,5.24487655705468,0.5765044767233197,5.204864969342334,0.0,0.7704424844397457,1.0445499646719698,1707133536,516862190,0,0
1707133536,678387474,base_link,False,-5.204864969342334,0.0,0.0,5.204864969342334,0.7085572109849164,5.176620117198179,0.0,0.6590732094501331,0.5087822436434414,1707133536,566885234,0,0
1707133536,728385328,base_link,False,-5.176620117198179,0.0,0.0,5.176620117198179,0.6760025908012942,5.158553075081448,0.0,0.465272442869457,-0.20921266474682154,1707133536,616888002,0,0
1707133536,778365117,base_link,False,-5.158553075081448,0.0,0.0,5.158553075081448,0.4142355940969454,5.113288347886791,0.0,0.7692472463802611,0.8205408813534514,1707133536,666885785,0,0
1707133536,828396643,base_link,False,-5.113288347886791,0.0,0.0,5.113288347886791,0.7772760093219091,5.082139630695768,0.0,0.6924903993722619,0.43480706978624484,1707133536,716845161,0,0
1707133536,878387847,base_link,False,-5.082139630695768,0.0,0.0,5.082139630695768,0.5276168621156705,5.044108083415641,0.0,0.754674853619723,0.5672586045281737,1707133536,766858016,0,0
1707133536,928396889,base_link,False,-5.044108083415641,0.0,0.0,5.044108083415641,0.8092176951895755,5.01643968259504,0.0,0.6308608258563941,0.06888996088766403,1707133536,817069033,0,0
1707133536,978402020,base_link,False,-5.01643968259504,0.0,0.0,5.01643968259504,0.6814538620998082,4.978374327136156,0.0,0.7252097105835947,0.36659531977086185,1707133536,866861262,0,0
1707133537,28352496,base_link,False,-4.978374327136156,0.0,0.0,4.978374327136156,0.8069621279117914,4.943002104486905,0.0,0.7245215214000054,0.3043128780059867,1707133536,916872299,0,0
1707133537,78393834,base_link,False,-4.943002104486905,0.0,0.0,4.943002104486905,0.6219519114431922,4.8971135292159484,0.0,0.8708369010819089,0.7336551277538985,1707133536,966893052,0,0
1707133537,128371276,base_link,False,-4.8971135292159484,0.0,0.0,4.8971135292159484,1.0029396802132968,4.857009324148211,0.0,0.8460141051408332,0.532228846828261,1707133537,16878141,0,0
1707133537,178371286,base_link,False,-4.857009324148211,0.0,0.0,4.857009324148211,0.8503828037396663,4.818230212023615,0.0,0.813490408183094,0.33856549888567344,1707133537,66889597,0,0
1707133537,228357256,base_link,False,-4.818230212023615,0.0,0.0,4.818230212023615,0.7466920255692449,4.777782499825048,0.0,0.8212379232350902,0.3084991674544912,1707133537,116890863,0,0
1707133537,278403294,base_link,False,-4.777782499825048,0.0,0.0,4.777782499825048,0.7689990437227899,4.728398061163606,0.0,0.9487632700072837,0.6756199146177067,1707133537,166867059,0,0
1707133537,328455415,base_link,False,-4.728398061163606,0.0,0.0,4.728398061163606,0.9356247582673839,4.677798122491242,0.0,1.015272919175017,0.7828039117022203,1707133537,216859235,0,0
1707133537,378952376,base_link,False,-4.677798122491242,0.0,0.0,4.677798122491242,0.9710798624244964,4.634598168957082,0.0,0.9337638184572566,0.38768610313951524,1707133537,266860042,0,0
1707133537,428393399,base_link,False,-4.634598168957082,0.0,0.0,4.634598168957082,0.7897531078333784,4.5833767038416395,0.0,1.0103311590677528,0.5749564507314284,1707133537,316978907,0,0
1707133537,478366731,base_link,False,-4.5833767038416395,0.0,0.0,4.5833767038416395,1.1080633439322622,4.528651004211313,0.0,1.0883777570703257,0.7364064112687267,1707133537,366883002,0,0
1707133537,528394658,base_link,False,-4.528651004211313,0.0,0.0,4.528651004211313,0.9340025091315713,4.467478031796347,0.0,1.207591035730963,1.0062374508351806,1707133537,416889542,0,0
1707133537,578391139,base_link,False,-4.467478031796347,0.0,0.0,4.467478031796347,1.2070539542481584,4.4153387203873775,0.0,1.1237534077150557,0.5669074397668517,1707133537,466879616,0,0
1707133537,628391559,base_link,False,-4.4153387203873775,0.0,0.0,4.4153387203873775,1.0120013399660612,4.350420835995789,0.0,1.2653949154846302,0.9379441740062844,1707133537,516904369,0,0
1707133537,678391432,base_link,False,-4.350420835995789,0.0,0.0,4.350420835995789,1.3870954434161977,4.287506869390688,0.0,1.2907078197818445,0.8672571222252765,1707133537,566892883,0,0
1707133537,728372275,base_link,False,-4.287540441268574,0.0,0.0,4.290864057179225,1.6740017405906331,4.217742141615719,0.0,1.392618065172751,1.0589956309287836,1707133537,616851384,0,0
1707133537,778360748,base_link,False,-4.217801967154309,0.0,0.0,4.241468204282103,3.0600932841105974,4.160108101414395,0.0,1.2574286743652452,0.4428533096451177,1707133537,666903161,0,0
1707133537,828363793,base_link,False,-4.157832920364469,0.0,0.0,4.274893283105337,3.637118793108133,4.086662481855096,0.0,1.4211017460191044,0.9063552582278271,1707133537,716857451,0,0
1707133537,878395733,base_link,False,-4.076692690174346,0.0,0.0,4.31795081736497,3.8058713168629645,4.017658744907137,0.0,1.4214447948657525,0.759066289236362,1707133537,766860237,0,0
1707133537,928391706,base_link,False,-3.9937985332082997,0.0,0.0,4.373589118335451,4.02617229511193,3.954110394134126,0.0,1.3397300790565054,0.3671620566826785,1707133537,816891815,0,0
1707133537,978410181,base_link,False,-3.909991717039237,0.0,0.0,4.436447771132826,3.782123002535725,3.8948327756332892,0.0,1.2427263056048403,-0.01063982983062084,1707133537,866852383,0,0
1707133538,28393800,base_link,False,-3.824067904546261,0.0,0.0,4.504413335760875,3.652548899743746,3.844639251083503,0.0,1.0737031596009983,-0.5624362992106097,1707133537,916889720,0,0
1707133538,78375336,base_link,False,-3.740868218508103,0.0,0.0,4.581473376012992,3.655924753485785,3.7893839724339626,0.0,1.0776873559441154,-0.4572914105397191,1707133537,966851930,0,0
1707133538,128408933,base_link,False,-3.646190888496534,0.0,0.0,4.654232227620955,3.5158162020161488,3.7414752561220146,0.0,0.978496605623367,-0.707254185460245,1707133538,16877883,0,0
1707133538,178360294,base_link,False,-3.552501067480703,0.0,0.0,4.733636923531735,3.707948135056772,3.7064581956810363,0.0,0.7591881928231068,-1.3096631965311336,1707133538,66883797,0,0
1707133538,228406253,base_link,False,-3.4651839562440885,0.0,0.0,4.811626848264143,2.424601244075644,3.6656820493148246,0.0,0.756610362012204,-1.1036527471606998,1707133538,116868670,0,0
1707133538,278418570,base_link,False,-3.3668052526662473,0.0,0.0,4.842233335974857,1.5061296388553558,3.62933700143531,0.0,0.6999319411631671,-1.1085513310162183,1707133538,166851969,0,0
1707133538,328392915,base_link,False,-3.270129904496856,0.0,0.0,4.845075503670117,1.2679494435845005,3.6015364013727447,0.0,0.5624400619505943,-1.3773060803080994,1707133538,216845313,0,0
1707133538,378391085,base_link,False,-3.1805422396866807,0.0,0.0,4.8421932439685405,0.24391343757469713,3.5592522324604996,0.0,0.7179162278060396,-0.642603826242843,1707133538,266891694,0,0
1707133538,428360522,base_link,False,-3.076059950244049,0.0,0.0,4.793032751811207,0.5793427939450718,3.5206394649718296,0.0,0.7355052071040304,-0.4797771017030209,1707133538,316978175,0,0
1707133538,478387939,base_link,False,-2.9760100786371373,0.0,0.0,4.768728051560812,1.8648513258532395,3.4624780700455458,0.0,1.022042783473797,0.5371747318929135,1707133538,366979902,0,0
1707133538,528391186,base_link,False,-2.8552746222880425,0.0,0.0,4.781656506392842,3.299605603036227,3.4077546568026933,0.0,1.0905643339007516,0.6736174647096325,1707133538,416850637,0,0
1707133538,578390301,base_link,False,-2.733298863078452,0.0,0.0,4.8370056218817155,3.621750055146665,3.360667594810373,0.0,1.0072542991565807,0.2904806160152131,1707133538,466883822,0,0
1707133538,628385623,base_link,False,-2.6127212412643575,0.0,0.0,4.910001328181618,3.6439701937170526,3.311792897104178,0.0,0.9956332904000937,0.20485748309024276,1707133538,516879884,0,0
1707133538,678448119,base_link,False,-2.484038675301848,0.0,0.0,4.98542885632515,3.7505037243250765,3.2804885197117017,0.0,0.7412877342766171,-0.6616506851799195,1707133538,566967546,0,0
1707133538,728391493,base_link,False,-2.366611259818968,0.0,0.0,5.079556897779038,3.2721841427742704,3.2455488387361897,0.0,0.689877405134956,-0.7216729014027677,1707133538,616873789,0,0
1707133538,778373025,base_link,False,-2.2392048325763327,0.0,0.0,5.170845606646549,3.1290223228562333,3.2148089510991804,0.0,0.6135138778396568,-0.8535866322049477,1707133538,666873437,0,0
1707133538,828386238,base_link,False,-2.10967559702923,0.0,0.0,5.26654912583599,3.1401040424042987,3.181162538464128,0.0,0.6278627195532194,-0.6668234470018387,1707133538,716945369,0,0
1707133538,878353569,base_link,False,-1.970921804034066,0.0,0.0,5.359004223798507,3.108360282588772,3.158839161222332,0.0,0.4781937163163185,-1.0477887656843898,1707133538,766854231,0,0
1707133538,928389277,base_link,False,-1.8371878521879532,0.0,0.0,5.462841373017591,3.054189043319055,3.135999664212421,0.0,0.42918762240598407,-1.0367085550608108,1707133538,816870716,0,0
1707133538,978435421,base_link,False,-1.6965495430168935,0.0,0.0,5.554706344058921,1.8394434664696597,3.1051145523779384,0.0,0.5287834280081608,-0.5407821062147338,1707133538,866851998,0,0
1707133539,28385949,base_link,False,-1.5431202477734731,0.0,0.0,5.598594384552232,2.4673799212250516,3.0872981678901903,0.0,0.38950423830179015,-0.9083603477650788,1707133538,916895252,0,0
1707133539,78357520,base_link,False,-1.3986493158686504,0.0,0.0,5.679431777044197,2.25758375523405,3.0449103632856764,0.0,0.6837388153997648,0.20397758472597016,1707133538,966970218,0,0
1707133539,128385007,base_link,False,-1.2249262068572282,0.0,0.0,5.730166073785034,2.9758991824863354,3.032615968593097,0.0,0.3811279607584138,-0.8204519008513811,1707133539,16849739,0,0
1707133539,178355698,base_link,False,-1.0760853971380018,0.0,0.0,5.8401307293222,2.9010172435135146,2.993134021101915,0.0,0.643079150275687,0.171765554828757,1707133539,66889399,0,0
1707133539,228389476,base_link,False,-0.893829996404294,0.0,0.0,5.924384653378883,2.8763034781983627,2.968760555147366,0.0,0.5387438981947047,-0.19805092156902604,1707133539,116941289,0,0
1707133539,278385488,base_link,False,-0.7204923945371866,0.0,0.0,6.023420324837923,3.0950793080232346,2.940416435078971,0.0,0.5522092167768091,-0.12152283762321897,1707133539,166968001,0,0
1707133539,328380710,base_link,False,-0.537039887728739,0.0,0.0,6.118163940591545,3.0833333590934684,2.8972175632000856,0.0,0.7684479909132549,0.6065425976460304,1707133539,216852324,0,0
1707133539,378388195,base_link,False,-0.33247219085556123,0.0,0.0,6.1990676779224385,3.445858949402398,2.8775352043087707,0.0,0.5233838715559367,-0.295344029390308,1707133539,266891115,0,0
1707133539,428383191,base_link,False,-0.1452199903015292,0.0,0.0,6.303416585612905,3.016706472832958,2.8592295704987474,0.0,0.40276666364007757,-0.6419952230983663,1707133539,316957661,0,0
1707133539,478391472,base_link,False,0.04686216589123271,0.0,0.0,6.408841925675839,2.8046294937336187,2.8416967098008756,0.0,0.34520178222691306,-0.7253916689919718,1707133539,366885445,0,0
1707133539,528350955,base_link,False,0.24437655866226038,0.0,0.0,6.515032734350074,2.837349259188631,2.8115404015808,0.0,0.5038840586077847,-0.08693828391735103,1707133539,417031373,0,0
1707133539,578383865,base_link,False,0.460699790730132,0.0,0.0,6.608453865441195,3.0383356206779424,2.799675886028364,0.0,0.31280461647536373,-0.6984739454304406,1707133539,466850547,0,0
1707133539,628444094,base_link,False,0.6648299125994312,0.0,0.0,6.718718764906504,2.8131243188605035,2.782455009804492,0.0,0.31253731167990545,-0.5849767409920801,1707133539,516890082,0,0
1707133539,678444244,base_link,False,0.8804744074604707,0.0,0.0,6.823791848322994,2.8391461809932013,2.7678210744173857,0.0,0.27959211429369585,-0.5970820564859338,1707133539,566854299,0,0
1707133539,728351891,base_link,False,1.0996356810215082,0.0,0.0,6.930630444994306,2.755084634934245,2.755609142030746,0.0,0.2353129606128396,-0.6443230654060476,1707133539,616951178,0,0
1707133539,778375539,base_link,False,1.3224878529240751,0.0,0.0,7.035852553133901,2.2077227310960894,2.7472039250742992,0.0,0.16700981151516475,-0.7625053934084327,1707133539,666850579,0,0
1707133539,828393858,base_link,False,1.547052918805647,0.0,0.0,7.118082366435004,1.4077722948468792,2.7513728785593017,0.0,-0.03447710747982316,-1.2975031005005349,1707133539,716947587,0,0
1707133539,878356078,base_link,False,1.7632778502182918,0.0,0.0,7.173201376136468,-0.26928486013681463,2.739646446868303,0.0,0.11352577666999503,-0.600342761340822,1707133539,766951647,0,0
1707133539,928383839,base_link,False,1.9971527224227037,0.0,0.0,7.162440800772793,-0.1891711528779097,2.7422638073941115,0.0,-0.023031196627511394,-0.9492530949346312,1707133539,816868218,0,0
1707133539,978388308,base_link,False,2.2159459268277204,0.0,0.0,7.1553890321086335,-0.34728707462544567,2.7394502618639054,0.0,0.0022679388507917814,-0.7109634406904498,1707133539,866851655,0,0
1707133540,28405619,base_link,False,2.439286618570332,0.0,0.0,7.137385048261259,-0.3223968688646062,2.739752182429262,0.0,-0.026594156832456358,-0.6890670192710769,1707133539,916873076,0,0
1707133540,78379872,base_link,False,2.658597151672649,0.0,0.0,7.120550561239705,-0.361670912020353,2.71441909481168,0.0,0.32770104262892535,0.5840566543244677,1707133539,966849299,0,0
1707133540,128433299,base_link,False,2.9025839759548284,0.0,0.0,7.08265493290944,0.5276074101592361,2.6961141671044855,0.0,0.3737085804451582,0.6390908605413856,1707133540,16887476,0,0
1707133540,178394009,base_link,False,3.1392316668573432,0.0,0.0,7.093009840870857,2.7123316871228296,2.6662027780982127,0.0,0.5529345804373178,1.121394339492538,1707133540,66877830,0,0
1707133540,228486466,base_link,False,3.389690131740446,0.0,0.0,7.160666359613969,2.7514040460621185,2.6328240331210444,0.0,0.6701647195801651,1.3216903438489433,1707133540,116917014,0,0
1707133540,278449722,base_link,False,3.6493812736434372,0.0,0.0,7.236710535675266,3.2216382625930042,2.585348356867936,0.0,0.9101899130614707,1.8913336069363638,1707133540,166860816,0,0
1707133540,328445689,base_link,False,3.929141242652735,0.0,0.0,7.3052245469431,3.4451018795694592,2.546047915183399,0.0,0.8836691214264133,1.4947808043922675,1707133540,216855487,0,0
1707133540,378429924,base_link,False,4.2067780371637475,0.0,0.0,7.384994375330152,3.225821856687589,2.521392864068309,0.0,0.6562003647351495,0.5050719034283158,1707133540,266884924,0,0
1707133540,428377391,base_link,False,4.475736350219268,0.0,0.0,7.479683329215557,2.926751849264585,2.51032450284258,0.0,0.3654595814449717,-0.5297870651847285,1707133540,316854466,0,0
1707133540,478372126,base_link,False,4.7371019027373285,0.0,0.0,7.587862131599136,2.5717026299528474,2.4891037690350286,0.0,0.3899574114856193,-0.36280768985822953,1707133540,366867922,0,0
1707133540,528359202,base_link,False,5.014611140792229,0.0,0.0,7.685789291556564,2.7829527693543743,2.4785935696922157,0.0,0.25128122618990567,-0.7575538087829241,1707133540,416862540,0,0
1707133540,578364976,base_link,False,5.287250065293909,0.0,0.0,7.792787302778844,2.6823789951142545,2.4650820494295904,0.0,0.24015990357863015,-0.6699286195343537,1707133540,466905837,0,0
1707133540,628358663,base_link,False,5.568800215006199,0.0,0.0,7.896852171431842,2.5251100065470338,2.4551387416358015,0.0,0.18932951811617152,-0.72669607960257,1707133540,516891158,0,0
1707133540,678345477,base_link,False,5.852662429504981,0.0,0.0,8.00431974348342,2.564232544885514,2.43840318661577,0.0,0.2684923380959076,-0.348449629174371,1707133540,566888449,0,0
1707133540,728362573,base_link,False,6.149232589734097,0.0,0.0,8.105075130026343,2.513219980198182,2.4380059277820396,0.0,0.07322435917546047,-0.9308809020714848,1707133540,616855457,0,0
1707133540,778363923,base_link,False,6.4352828629810634,0.0,0.0,8.221202230880381,2.2847987570642627,2.4453441501834763,0.0,-0.11224027489514321,-1.385835886136209,1707133540,666852856,0,0
1707133540,828358833,base_link,False,6.719472711782995,0.0,0.0,8.332208017457441,0.9221235788977646,2.4613599271170696,0.0,-0.30400717877667643,-1.786933102461125,1707133540,716853958,0,0
1707133540,878345633,base_link,False,6.999223679619741,0.0,0.0,8.401441138773777,0.6079099489229938,2.4791744774587308,0.0,-0.3987283382307687,-1.8045342194047238,1707133540,766871732,0,0
1707133540,928344610,base_link,False,7.278668525964761,0.0,0.0,8.405408804449976,-0.5884622527370376,2.4809044932003754,0.0,-0.19995046077931677,-0.8580648810748458,1707133540,816870495,0,0
1707133540,978369817,base_link,False,7.573134685584156,0.0,0.0,8.388184423731062,-0.603283245515075,2.4947205440778797,0.0,-0.28163723199137985,-0.985078156151554,1707133540,866873896,0,0
1707133541,28390497,base_link,False,7.854432871252359,0.0,0.0,8.38135819306816,-0.6214053037833336,2.4929604937342567,0.0,-0.08974981688215888,-0.19535758599908948,1707133540,916950828,0,0
1707133541,78394876,base_link,False,8.150154330531336,0.0,0.0,8.357554002288166,-0.668216933846033,2.4836247619990393,0.0,0.09916938730475007,0.4553283891596105,1707133540,966855058,0,0
1707133541,128390363,base_link,False,8.452241047092967,0.0,0.0,8.330976570692894,0.15298286041136194,2.482445747294162,0.0,0.06051632204990393,0.2541839735149326,1707133541,16856126,0,0
1707133541,178348383,base_link,False,8.745447145962451,0.0,0.0,8.332184353330195,0.4594173728715915,2.4728874703533577,0.0,0.16100187132574478,0.5416452381515466,1707133541,66867032,0,0
1707133541,228372735,base_link,False,9.047876100439302,0.0,0.0,8.366429782998207,1.512184881857745,2.44034582028663,0.0,0.5244381830656573,1.6431806730314962,1707133541,116872756,0,0
1707133541,278388749,base_link,False,9.375833325269694,0.0,0.0,8.405155076157984,2.781664270346253,2.421821847643513,0.0,0.46886200415640644,1.1921077118404524,1707133541,166890493,0,0
1707133541,328385368,base_link,False,9.693998152558336,0.0,0.0,8.489642451394033,2.70625721807952,2.3913763985743297,0.0,0.6063214526363568,1.4470741945189673,1707133541,216883035,0,0
1707133541,378385498,base_link,False,10.029846761602936,0.0,0.0,8.570076854210345,2.7856743447811656,2.3673815994728935,0.0,0.5638460649789793,1.0710171207716301,1707133541,266891948,0,0
1707133541,428389853,base_link,False,10.364848296991386,0.0,0.0,8.657582653352495,2.8358698619626788,2.364594047838042,0.0,0.2396735889825724,-0.165999751850741,1707133541,316883727,0,0
1707133541,478368048,base_link,False,10.684335652029342,0.0,0.0,8.767569355446117,2.4775211754611632,2.342270852193937,0.0,0.3803387912337617,0.3218505810299801,1707133541,366902761,0,0
1707133541,528407651,base_link,False,11.029122334856567,0.0,0.0,8.859307402378812,2.5021445570716243,2.3277324509662805,0.0,0.32749457199321264,0.0960876652959693,1707133541,416858154,0,0
1707133541,578376854,base_link,False,11.37172278292896,0.0,0.0,8.95701062236851,2.6103663668038353,2.321811227986693,0.0,0.18295807883757717,-0.3929930142294806,1707133541,466865074,0,0
1707133541,628378400,base_link,False,11.711308655552802,0.0,0.0,9.063105519542454,2.5369212945060755,2.3147979116731126,0.0,0.14009793851969343,-0.46900570613884723,1707133541,516895007,0,0
1707133541,678378047,base_link,False,12.057496084421661,0.0,0.0,9.166586744720576,2.4562141272642886,2.3176361231492866,0.0,-0.014095357111397047,-0.8971797055502233,1707133541,566891126,0,0
1707133541,728383334,base_link,False,12.399523676454672,0.0,0.0,9.281230061005832,2.3667266299299348,2.3188575007460988,0.0,-0.05041128013732085,-0.8692017882419594,1707133541,616876529,0,0
1707133541,778378763,base_link,False,12.748836599434561,0.0,0.0,9.394077565507702,2.14290444395145,2.3223528121583374,0.0,-0.09229295347056667,-0.864032588576587,1707133541,666888205,0,0
1707133541,828372706,base_link,False,13.101277695065905,0.0,0.0,9.504214571016682,2.0851298356120123,2.3374678206148567,0.0,-0.26854641287284386,-1.2997678070597076,1707133541,716888203,0,0
1707133541,878370752,base_link,False,13.447033122970394,0.0,0.0,9.578958154922212,-0.5744938541160465,2.3450609386423116,0.0,-0.22818573481551635,-0.9547571495593811,1707133541,766857061,0,0
1707133541,928370118,base_link,False,13.802540747683786,0.0,0.0,9.581188899233986,-0.614157162986044,2.363946954070383,0.0,-0.36466815696360766,-1.2453892459645344,1707133541,816957838,0,0
1707133541,978369132,base_link,False,14.145737234557249,0.0,0.0,9.582032252924016,-0.9386407649315126,2.3783824829910483,0.0,-0.3513094680414345,-0.9977124646525315,1707133541,866889150,0,0
1707133542,28384315,base_link,False,14.492061659911753,0.0,0.0,9.572530078159598,-0.9672398503642299,2.388242951249977,0.0,-0.27475571715674785,-0.5836325657374153,1707133541,916847534,0,0
1707133542,78370015,base_link,False,14.84133282852932,0.0,0.0,9.553393738882283,-0.7496712824061756,2.394919220918501,0.0,-0.1938970949741073,-0.22325862281728764,1707133541,966870404,0,0
1707133542,128373475,base_link,False,15.19248801119909,0.0,0.0,9.532771978051994,-0.7864317076855432,2.4012901838814993,0.0,-0.15417204219080463,-0.05660411834495163,1707133542,16850278,0,0
1707133542,178341312,base_link,False,15.542540050732399,0.0,0.0,9.511282244794932,-0.8010262551455424,2.3963104230050374,0.0,0.0232064930014505,0.5335666083229009,1707133542,66865976,0,0
1707133542,228367813,base_link,False,15.90250413190181,0.0,0.0,9.478017698598146,-0.5899369132240533,2.3912744149601446,0.0,0.09520459481322074,0.6819856153716477,1707133542,116855522,0,0
1707133542,278371943,base_link,False,16.261201803829913,0.0,0.0,9.45258103830361,-0.4562325302118808,2.3886243709255477,0.0,0.08745939891077668,0.5449479497626877,1707133542,166877635,0,0
1707133542,328374459,base_link,False,16.61765208635913,0.0,0.0,9.512782085220987,1.39672753375029,2.3776811731654437,0.0,0.19788315640507492,0.8173445745001995,1707133542,216850749,0,0
1707133542,378384243,base_link,False,16.985963829106844,0.0,0.0,9.58777377855374,2.260479402345495,2.379750749839765,0.0,0.05534544258618404,0.21670651693872856,1707133542,266856675,0,0
1707133542,428383287,base_link,False,17.346079882220064,0.0,0.0,9.692640969572519,2.1979567617965596,2.3739868158505084,0.0,0.10467944407794397,0.3427869237001814,1707133542,316883824,0,0
1707133542,478398356,base_link,False,17.71944632610547,0.0,0.0,9.79186316986947,2.2351839726155744,2.366210729844059,0.0,0.15167152962399644,0.44055250806230395,1707133542,366970911,0,0
1707133542,528385000,base_link,False,18.100230666827017,0.0,0.0,9.889211100783292,2.3815283256773916,2.3420707507872325,0.0,0.39976252156155556,1.1808938504367257,1707133542,416848618,0,0
1707133542,578395809,base_link,False,18.50265859125168,0.0,0.0,9.97287005617803,2.4337388186317743,2.342708558137413,0.0,0.1466396568729993,0.15856744747362916,1707133542,466953062,0,0
1707133542,628443073,base_link,False,18.885633016111463,0.0,0.0,10.080198323590077,2.277005022155179,2.350459029204541,0.0,-0.06125480845339529,-0.5482368960491686,1707133542,516876481,0,0
1707133542,678451524,base_link,False,19.26681976680531,0.0,0.0,10.190550030289584,1.79426981290966,2.3514321965346134,0.0,-0.04947462741929801,-0.4198858170441244,1707133542,566899671,0,0
1707133542,728389911,base_link,False,19.659842743435174,0.0,0.0,10.275443402176517,0.8702986858802978,2.3558807822157757,0.0,-0.09094855787107216,-0.48695517067236194,1707133542,616883743,0,0
1707133542,778369322,base_link,False,20.053296576586582,0.0,0.0,10.333587014680825,0.6896356615214242,2.3695305552221733,0.0,-0.23525995064713645,-0.8798274850711421,1707133542,666886837,0,0
1707133542,828353771,base_link,False,20.43975716568302,0.0,0.0,10.375909479962504,-0.5642125184334946,2.3822962504755236,0.0,-0.2778800812026178,-0.8753367601221212,1707133542,716883822,0,0
1707133542,878349987,base_link,False,20.827838615596104,0.0,0.0,10.371588380052499,-0.7637799501272717,2.4030079843003334,0.0,-0.40248599584433903,-1.140078949138409,1707133542,766859754,0,0
1707133542,928400330,base_link,False,21.206628375105186,0.0,0.0,10.368246853003589,-1.1713045350917353,2.425491152068756,0.0,-0.4726784243884388,-1.1832702805851798,1707133542,816885082,0,0
1707133542,978375572,base_link,False,21.582005505147983,0.0,0.0,10.361293717793881,-1.3671702518742084,2.440955132166584,0.0,-0.39555984229011854,-0.7369561716898796,1707133542,866874354,0,0
1707133543,28374599,base_link,False,21.962621091427245,0.0,0.0,10.343065801375243,-0.8678897410681115,2.448091283634739,0.0,-0.24084444153125273,-0.10960037437980652,1707133542,916896366,0,0
1707133543,78376308,base_link,False,22.349983018693028,0.0,0.0,10.317994177292789,-0.9494595640034454,2.45096285508839,0.0,-0.1148639574029296,0.32092336168234575,1707133542,966958234,0,0
1707133543,128408458,base_link,False,22.74002832990334,0.0,0.0,10.289589598673327,-0.8878948081010587,2.459554536284795,0.0,-0.1447154040207878,0.1706119591709299,1707133543,16894417,0,0
1707133543,178370004,base_link,False,23.122615298982648,0.0,0.0,10.264069789304585,-0.6416938717301753,2.4778606530269687,0.0,-0.2955536119980807,-0.35130947165572746,1707133543,66859090,0,0
1707133543,228388494,base_link,False,23.494137795834735,0.0,0.0,10.252478246729664,-0.970475958935103,2.4641370528566116,0.0,0.0956330060531625,0.987324367421345,1707133543,116895381,0,0
1707133543,278392332,base_link,False,23.89586367926564,0.0,0.0,10.205323207711242,-0.5223134607371542,2.4634428793886087,0.0,0.0698369250967611,0.7411732177101076,1707133543,166861390,0,0
1707133543,328382478,base_link,False,24.28293111421352,0.0,0.0,10.186735544603918,0.7319299800472018,2.468376752301325,0.0,-0.025193919896630113,0.3085895417474811,1707133543,216851859,0,0
1707133543,378384199,base_link,False,24.663826275826633,0.0,0.0,10.219428418685784,0.7953198301950424,2.4526783002790014,0.0,0.22430293616814856,1.0751434518954621,1707133543,266860473,0,0
1707133543,428376520,base_link,False,25.066635068149807,0.0,0.0,10.210887031150332,1.44303866110205,2.441402299856345,0.0,0.25993805249461754,1.015795014906593,1707133543,316890858,0,0
1707133543,478378183,base_link,False,25.466384136527008,0.0,0.0,10.26141003403573,2.4761718882968893,2.441633195084605,0.0,0.10596571095496748,0.34521382082108587,1707133543,366858921,0,0
1707133543,528364399,base_link,False,25.858701764474638,0.0,0.0,10.360016365268855,2.352557086712354,2.4349485350651308,0.0,0.1367127269418429,0.38938056958338735,1707133543,416868421,0,0
1707133543,578364243,base_link,False,26.263202610217533,0.0,0.0,10.454298766889462,2.0858842388422074,2.416049040258571,0.0,0.3196962315926804,0.924878773659449,1707133543,466817311,0,0
1707133543,628355713,base_link,False,26.684915821069122,0.0,0.0,10.533571516968196,2.5555025741271673,2.4205123013399237,0.0,0.060804624007141095,-0.07441829686419432,1707133543,516887783,0,0
1707133543,678381139,base_link,False,27.088355878259623,0.0,0.0,10.642160083843029,2.136635721185051,2.4188401051898194,0.0,0.039075541413143136,-0.13339375711104945,1707133543,566891566,0,0
1707133543,728363492,base_link,False,27.503246287763627,0.0,0.0,10.737344349847172,1.2277733773379749,2.4289796321190757,0.0,-0.13604393002594334,-0.6850547396608824,1707133543,616871505,0,0
1707133543,778397147,base_link,False,27.910404899318785,0.0,0.0,10.798107659274693,-0.11423317825008557,2.437618319897448,0.0,-0.18414054822118894,-0.7303924595994717,1707133543,666853855,0,0
1707133543,828366148,base_link,False,28.321320167813177,0.0,0.0,10.813324013165769,-0.6702055100574195,2.447590894730945,0.0,-0.21857769617902692,-0.7235725029785294,1707133543,716855298,0,0
1707133543,878353023,base_link,False,28.730336203639553,0.0,0.0,10.800251809178231,-0.7831265322381954,2.4587718754992536,0.0,-0.2455423054672653,-0.693397260631505,1707133543,766890515,0,0
