header_stamp_sec, header_stamp_nanosec, header_frame_id, identification_active, controller_active, catch_up_maneuver_active, offset, offset_ref, position_error, delta_v, v, v_ref, velocity_error, torque, runner_absolute_speed, runner_relative_speed, steer, stamp_pos_loop_sec, stamp_pos_loop_nanosec, stamp_vel_loop_sec, stamp_vel_loop_nanosec
1707469103,253412870,base_link,False,False,False,0.0,2.5,0.0,0.0,-0.0012609627359690138,0.0,0.0,0.0,-0.0012609627359690138,-0.0,0.0,0,0,0,0
1707469103,263411851,base_link,False,False,False,0.0,2.5,0.0,0.0,-0.0012609627359690138,0.0,0.0,0.0,-0.0012609627359690138,-0.0,0.0,0,0,0,0
1707469103,273414673,base_link,False,False,False,0.0,2.5,0.0,0.0,-0.0012609627359690138,0.0,0.0,0.0,-0.0012609627359690138,-0.0,0.0,0,0,0,0
1707469103,283409882,base_link,False,False,False,0.0,2.5,0.0,0.0,-0.0012609627359690138,0.0,0.0,0.0,-0.0012609627359690138,-0.0,0.0,0,0,0,0
1707469103,293412146,base_link,False,False,False,0.0,2.5,0.0,0.0,-0.0004977128070748936,0.0,0.0,0.0,-0.0004977128070748936,-0.0,0.0,0,0,0,0
1707469103,303411896,base_link,False,False,False,0.0,2.5,0.0,0.0,-0.0004977128070748936,0.0,0.0,0.0,-0.0004977128070748936,-0.0,0.0,0,0,0,0
1707469103,313414578,base_link,False,False,False,0.0,2.5,0.0,0.0,-0.0004977128070748936,0.0,0.0,0.0,-0.0004977128070748936,-0.0,0.0,0,0,0,0
1707469103,323411464,base_link,False,False,False,0.0,2.5,0.0,0.0,-0.0004977128070748936,0.0,0.0,0.0,-0.0004977128070748936,-0.0,0.0,0,0,0,0
1707469103,333411143,base_link,False,False,False,0.0,2.5,0.0,0.0,-0.0004977128070748936,0.0,0.0,0.0,-0.0004977128070748936,-0.0,0.0,0,0,0,0
1707469103,343420392,base_link,False,False,False,0.0,2.5,0.0,0.0,-0.00023146529823476206,0.0,0.0,0.0,-0.00023146529823476206,-0.0,0.0,0,0,0,0
1707469103,353416649,base_link,False,False,False,0.0,2.5,0.0,0.0,-0.00023146529823476206,0.0,0.0,0.0,-0.00023146529823476206,-0.0,0.0,0,0,0,0
1707469103,363416887,base_link,False,False,False,0.0,2.5,0.0,0.0,-0.00023146529823476206,0.0,0.0,0.0,-0.00023146529823476206,-0.0,0.0,0,0,0,0
1707469103,373416566,base_link,False,False,False,0.0,2.5,0.0,0.0,-0.00023146529823476206,0.0,0.0,0.0,-0.00023146529823476206,-0.0,0.0,0,0,0,0
1707469103,383409960,base_link,False,False,False,0.0,2.5,0.0,0.0,-0.00023146529823476206,0.0,0.0,0.0,-0.00023146529823476206,-0.0,0.0,0,0,0,0
1707469103,393417741,base_link,False,False,False,0.0,2.5,0.0,0.0,-0.0015485334650805834,0.0,0.0,0.0,-0.0015485334650805834,-0.0,0.0,0,0,0,0
1707469103,403427688,base_link,False,False,False,0.0,2.5,0.0,0.0,-0.0015485334650805834,0.0,0.0,0.0,-0.0015485334650805834,-0.0,0.0,0,0,0,0
1707469103,413413399,base_link,False,False,False,0.0,2.5,0.0,0.0,-0.0015485334650805834,0.0,0.0,0.0,-0.0015485334650805834,-0.0,0.0,0,0,0,0
1707469103,423414056,base_link,False,False,False,0.0,2.5,0.0,0.0,-0.0015485334650805834,0.0,0.0,0.0,-0.0015485334650805834,-0.0,0.0,0,0,0,0
1707469103,433409824,base_link,False,False,False,0.0,2.5,0.0,0.0,-0.0015485334650805834,0.0,0.0,0.0,-0.0015485334650805834,-0.0,0.0,0,0,0,0
1707469103,443412018,base_link,False,False,False,0.0,2.5,0.0,0.0,-0.00032935992436869193,0.0,0.0,0.0,-0.00032935992436869193,-0.0,0.0,0,0,0,0
1707469103,453413513,base_link,False,False,False,0.0,2.5,0.0,0.0,-0.00032935992436869193,0.0,0.0,0.0,-0.00032935992436869193,-0.0,0.0,0,0,0,0
1707469103,463416685,base_link,False,False,False,0.0,2.5,0.0,0.0,-0.00032935992436869193,0.0,0.0,0.0,-0.00032935992436869193,-0.0,0.0,0,0,0,0
1707469103,473415806,base_link,False,False,False,0.0,2.5,0.0,0.0,-0.00032935992436869193,0.0,0.0,0.0,-0.00032935992436869193,-0.0,0.0,0,0,0,0
1707469103,483416184,base_link,False,False,False,0.0,2.5,0.0,0.0,-0.00032935992436869193,0.0,0.0,0.0,-0.00032935992436869193,-0.0,0.0,0,0,0,0
1707469103,493425990,base_link,False,False,False,0.0,2.5,0.0,0.0,-6.323637134602228e-05,0.0,0.0,0.0,-6.323637134602228e-05,-0.0,0.0,0,0,0,0
1707469103,503412749,base_link,False,False,False,0.0,2.5,0.0,0.0,-6.323637134602228e-05,0.0,0.0,0.0,-6.323637134602228e-05,-0.0,0.0,0,0,0,0
1707469103,513414035,base_link,False,False,False,0.0,2.5,0.0,0.0,-6.323637134602228e-05,0.0,0.0,0.0,-6.323637134602228e-05,-0.0,0.0,0,0,0,0
1707469103,523413575,base_link,False,False,False,0.0,2.5,0.0,0.0,-6.323637134602228e-05,0.0,0.0,0.0,-6.323637134602228e-05,-0.0,0.0,0,0,0,0
1707469103,533416746,base_link,False,False,False,0.0,2.5,0.0,0.0,-6.323637134602228e-05,0.0,0.0,0.0,-6.323637134602228e-05,-0.0,0.0,0,0,0,0
1707469103,543409302,base_link,False,False,False,0.0,2.5,0.0,0.0,0.00027441662030063224,0.0,0.0,0.0,0.00027441662030063224,-0.0,0.0,0,0,0,0
1707469103,553412264,base_link,False,False,False,0.0,2.5,0.0,0.0,0.00027441662030063224,0.0,0.0,0.0,0.00027441662030063224,-0.0,0.0,0,0,0,0
1707469103,563419417,base_link,False,False,False,0.0,2.5,0.0,0.0,0.00027441662030063224,0.0,0.0,0.0,0.00027441662030063224,-0.0,0.0,0,0,0,0
1707469103,573413508,base_link,False,False,False,0.0,2.5,0.0,0.0,0.00027441662030063224,0.0,0.0,0.0,0.00027441662030063224,-0.0,0.0,0,0,0,0
1707469103,583411651,base_link,False,False,False,0.0,2.5,0.0,0.0,0.00027441662030063224,0.0,0.0,0.0,0.00027441662030063224,-0.0,0.0,0,0,0,0
1707469103,593413845,base_link,False,False,False,0.0,2.5,0.0,0.0,-0.00063902744584886,0.0,0.0,0.0,-0.00063902744584886,-0.0,0.0,0,0,0,0
1707469103,603414433,base_link,False,False,False,0.0,2.5,0.0,0.0,-0.00063902744584886,0.0,0.0,0.0,-0.00063902744584886,-0.0,0.0,0,0,0,0
1707469103,613418023,base_link,False,False,False,0.0,2.5,0.0,0.0,-0.00063902744584886,0.0,0.0,0.0,-0.00063902744584886,-0.0,0.0,0,0,0,0
1707469103,623412534,base_link,False,False,False,0.0,2.5,0.0,0.0,-0.00063902744584886,0.0,0.0,0.0,-0.00063902744584886,-0.0,0.0,0,0,0,0
1707469103,633410887,base_link,False,False,False,0.0,2.5,0.0,0.0,-0.00063902744584886,0.0,0.0,0.0,-0.00063902744584886,-0.0,0.0,0,0,0,0
1707469103,643414967,base_link,False,False,False,0.0,2.5,0.0,0.0,-0.0007942892137703926,0.0,0.0,0.0,-0.0007942892137703926,-0.0,0.0,0,0,0,0
1707469103,653415065,base_link,False,False,False,0.0,2.5,0.0,0.0,-0.0007942892137703926,0.0,0.0,0.0,-0.0007942892137703926,-0.0,0.0,0,0,0,0
1707469103,663413418,base_link,False,False,False,0.0,2.5,0.0,0.0,-0.0007942892137703926,0.0,0.0,0.0,-0.0007942892137703926,-0.0,0.0,0,0,0,0
1707469103,673412468,base_link,False,False,False,0.0,2.5,0.0,0.0,-0.0007942892137703926,0.0,0.0,0.0,-0.0007942892137703926,-0.0,0.0,0,0,0,0
1707469103,683419551,base_link,False,False,False,0.0,2.5,0.0,0.0,-0.0007942892137703926,0.0,0.0,0.0,-0.0007942892137703926,-0.0,0.0,0,0,0,0
1707469103,693418602,base_link,False,False,False,0.0,2.5,0.0,0.0,-0.0010209239129351586,0.0,0.0,0.0,-0.0010209239129351586,-0.0,0.0,0,0,0,0
1707469103,703410110,base_link,False,False,False,0.0,2.5,0.0,0.0,-0.0010209239129351586,0.0,0.0,0.0,-0.0010209239129351586,-0.0,0.0,0,0,0,0
1707469103,713416285,base_link,False,False,False,0.0,2.5,0.0,0.0,-0.0010209239129351586,0.0,0.0,0.0,-0.0010209239129351586,-0.0,0.0,0,0,0,0
1707469103,723412542,base_link,False,False,False,0.0,2.5,0.0,0.0,-0.0010209239129351586,0.0,0.0,0.0,-0.0010209239129351586,-0.0,0.0,0,0,0,0
1707469103,733412012,base_link,False,False,False,0.0,2.5,0.0,0.0,-0.0010209239129351586,0.0,0.0,0.0,-0.0010209239129351586,-0.0,0.0,0,0,0,0
1707469103,743413857,base_link,False,False,False,0.0,2.5,0.0,0.0,-0.0005897665641347414,0.0,0.0,0.0,-0.0005897665641347414,-0.0,0.0,0,0,0,0
1707469103,753416679,base_link,False,False,False,0.0,2.5,0.0,0.0,-0.0005897665641347414,0.0,0.0,0.0,-0.0005897665641347414,-0.0,0.0,0,0,0,0
1707469103,763413705,base_link,False,False,False,0.0,2.5,0.0,0.0,-0.0005897665641347414,0.0,0.0,0.0,-0.0005897665641347414,-0.0,0.0,0,0,0,0
1707469103,773416527,base_link,False,False,False,0.0,2.5,0.0,0.0,-0.0005897665641347414,0.0,0.0,0.0,-0.0005897665641347414,-0.0,0.0,0,0,0,0
1707469103,783419349,base_link,False,False,False,0.0,2.5,0.0,0.0,-0.0005897665641347414,0.0,0.0,0.0,-0.0005897665641347414,-0.0,0.0,0,0,0,0
1707469103,793420915,base_link,False,False,False,0.0,2.5,0.0,0.0,-0.0016468849714866812,0.0,0.0,0.0,-0.0016468849714866812,-0.0,0.0,0,0,0,0
1707469103,803414588,base_link,False,False,False,0.0,2.5,0.0,0.0,-0.0016468849714866812,0.0,0.0,0.0,-0.0016468849714866812,-0.0,0.0,0,0,0,0
1707469103,813415245,base_link,False,False,False,0.0,2.5,0.0,0.0,-0.0016468849714866812,0.0,0.0,0.0,-0.0016468849714866812,-0.0,0.0,0,0,0,0
1707469103,823414435,base_link,False,False,False,0.0,2.5,0.0,0.0,-0.0016468849714866812,0.0,0.0,0.0,-0.0016468849714866812,-0.0,0.0,0,0,0,0
1707469103,833414604,base_link,False,False,False,0.0,2.5,0.0,0.0,-0.0016468849714866812,0.0,0.0,0.0,-0.0016468849714866812,-0.0,0.0,0,0,0,0
1707469103,843412886,base_link,False,False,False,0.0,2.5,0.0,0.0,-0.0003236430493714952,0.0,0.0,0.0,-0.0003236430493714952,-0.0,0.0,0,0,0,0
1707469103,853415430,base_link,False,False,False,0.0,2.5,0.0,0.0,-0.0003236430493714952,0.0,0.0,0.0,-0.0003236430493714952,-0.0,0.0,0,0,0,0
1707469103,863412734,base_link,False,False,False,0.0,2.5,0.0,0.0,-0.0003236430493714952,0.0,0.0,0.0,-0.0003236430493714952,-0.0,0.0,0,0,0,0
1707469103,873415138,base_link,False,False,False,0.0,2.5,0.0,0.0,-0.0003236430493714952,0.0,0.0,0.0,-0.0003236430493714952,-0.0,0.0,0,0,0,0
1707469103,883413490,base_link,False,False,False,0.0,2.5,0.0,0.0,-0.0003236430493714952,0.0,0.0,0.0,-0.0003236430493714952,-0.0,0.0,0,0,0,0
1707469103,893415125,base_link,False,False,False,0.0,2.5,0.0,0.0,-0.00020596695316339015,0.0,0.0,0.0,-0.00020596695316339015,-0.0,0.0,0,0,0,0
1707469103,903409497,base_link,False,False,False,0.0,2.5,0.0,0.0,-0.00020596695316339015,0.0,0.0,0.0,-0.00020596695316339015,-0.0,0.0,0,0,0,0
1707469103,913413576,base_link,False,False,False,0.0,2.5,0.0,0.0,-0.00020596695316339015,0.0,0.0,0.0,-0.00020596695316339015,-0.0,0.0,0,0,0,0
1707469103,923411300,base_link,False,False,False,0.0,2.5,0.0,0.0,-0.00020596695316339015,0.0,0.0,0.0,-0.00020596695316339015,-0.0,0.0,0,0,0,0
1707469103,933412027,base_link,False,False,False,0.0,2.5,0.0,0.0,-0.00020596695316339015,0.0,0.0,0.0,-0.00020596695316339015,-0.0,0.0,0,0,0,0
1707469103,943413034,base_link,False,False,False,0.0,2.5,0.0,0.0,-0.0010209239129351586,0.0,0.0,0.0,-0.0010209239129351586,-0.0,0.0,0,0,0,0
1707469103,953413831,base_link,False,False,False,0.0,2.5,0.0,0.0,-0.0010209239129351586,0.0,0.0,0.0,-0.0010209239129351586,-0.0,0.0,0,0,0,0
1707469103,963412393,base_link,False,False,False,0.0,2.5,0.0,0.0,-0.0010209239129351586,0.0,0.0,0.0,-0.0010209239129351586,-0.0,0.0,0,0,0,0
1707469103,973416612,base_link,False,False,False,0.0,2.5,0.0,0.0,-0.0010209239129351586,0.0,0.0,0.0,-0.0010209239129351586,-0.0,0.0,0,0,0,0
1707469103,983412729,base_link,False,False,False,0.0,2.5,0.0,0.0,-0.0010209239129351586,0.0,0.0,0.0,-0.0010209239129351586,-0.0,0.0,0,0,0,0
1707469103,993414644,base_link,False,False,False,0.0,2.5,0.0,0.0,-0.0005454947552585973,0.0,0.0,0.0,-0.0005454947552585973,-0.0,0.0,0,0,0,0
1707469104,3411111,base_link,False,False,False,0.0,2.5,0.0,0.0,-0.0005454947552585973,0.0,0.0,0.0,-0.0005454947552585973,-0.0,0.0,0,0,0,0
1707469104,13420219,base_link,False,False,False,0.0,2.5,0.0,0.0,-0.0005454947552585973,0.0,0.0,0.0,-0.0005454947552585973,-0.0,0.0,0,0,0,0
1707469104,23413822,base_link,False,False,False,0.0,2.5,0.0,0.0,-0.0005454947552585973,0.0,0.0,0.0,-0.0005454947552585973,-0.0,0.0,0,0,0,0
1707469104,33417273,base_link,False,False,False,0.0,2.5,0.0,0.0,-0.0005454947552585973,0.0,0.0,0.0,-0.0005454947552585973,-0.0,0.0,0,0,0,0
1707469104,43422750,base_link,False,False,False,0.0,2.5,0.0,0.0,-4.922640292787243e-05,0.0,0.0,0.0,-4.922640292787243e-05,-0.0,0.0,0,0,0,0
1707469104,53420334,base_link,False,False,False,0.0,2.5,0.0,0.0,-4.922640292787243e-05,0.0,0.0,0.0,-4.922640292787243e-05,-0.0,0.0,0,0,0,0
1707469104,63415404,base_link,False,False,False,0.0,2.5,0.0,0.0,-4.922640292787243e-05,0.0,0.0,0.0,-4.922640292787243e-05,-0.0,0.0,0,0,0,0
1707469104,73412150,base_link,False,False,False,0.0,2.5,0.0,0.0,-4.922640292787243e-05,0.0,0.0,0.0,-4.922640292787243e-05,-0.0,0.0,0,0,0,0
1707469104,83412388,base_link,False,False,False,0.0,2.5,0.0,0.0,-4.922640292787243e-05,0.0,0.0,0.0,-4.922640292787243e-05,-0.0,0.0,0,0,0,0
1707469104,93407807,base_link,False,False,False,0.0,2.5,0.0,0.0,-0.00015674514017644225,0.0,0.0,0.0,-0.00015674514017644225,-0.0,0.0,0,0,0,0
1707469104,103410350,base_link,False,False,False,0.0,2.5,0.0,0.0,-0.00015674514017644225,0.0,0.0,0.0,-0.00015674514017644225,-0.0,0.0,0,0,0,0
1707469104,113412055,base_link,False,False,False,0.0,2.5,0.0,0.0,-0.00015674514017644225,0.0,0.0,0.0,-0.00015674514017644225,-0.0,0.0,0,0,0,0
1707469104,123410337,base_link,False,False,False,0.0,2.5,0.0,0.0,-0.00015674514017644225,0.0,0.0,0.0,-0.00015674514017644225,-0.0,0.0,0,0,0,0
1707469104,133410785,base_link,False,False,False,0.0,2.5,0.0,0.0,-0.00015674514017644225,0.0,0.0,0.0,-0.00015674514017644225,-0.0,0.0,0,0,0,0
1707469104,143412630,base_link,False,False,False,0.0,2.5,0.0,0.0,-0.0011944098482809648,0.0,0.0,0.0,-0.0011944098482809648,-0.0,0.0,0,0,0,0
1707469104,153413916,base_link,False,False,False,0.0,2.5,0.0,0.0,-0.0011944098482809648,0.0,0.0,0.0,-0.0011944098482809648,-0.0,0.0,0,0,0,0
1707469104,163427354,base_link,False,False,False,0.0,2.5,0.0,0.0,-0.0011944098482809648,0.0,0.0,0.0,-0.0011944098482809648,-0.0,0.0,0,0,0,0
1707469104,173415719,base_link,False,False,False,0.0,2.5,0.0,0.0,-0.0011944098482809648,0.0,0.0,0.0,-0.0011944098482809648,-0.0,0.0,0,0,0,0
1707469104,183418542,base_link,False,False,False,0.0,2.5,0.0,0.0,-0.0011944098482809648,0.0,0.0,0.0,-0.0011944098482809648,-0.0,0.0,0,0,0,0
1707469104,193420386,base_link,False,False,False,0.0,2.5,0.0,0.0,-0.0007450628011358279,0.0,0.0,0.0,-0.0007450628011358279,-0.0,0.0,0,0,0,0
1707469104,203417202,base_link,False,False,False,0.0,2.5,0.0,0.0,-0.0007450628011358279,0.0,0.0,0.0,-0.0007450628011358279,-0.0,0.0,0,0,0,0
1707469104,213414018,base_link,False,False,False,0.0,2.5,0.0,0.0,-0.0007450628011358279,0.0,0.0,0.0,-0.0007450628011358279,-0.0,0.0,0,0,0,0
1707469104,223410136,base_link,False,False,False,0.0,2.5,0.0,0.0,-0.0007450628011358279,0.0,0.0,0.0,-0.0007450628011358279,-0.0,0.0,0,0,0,0
1707469104,233411980,base_link,False,False,False,0.0,2.5,0.0,0.0,-0.0007450628011358279,0.0,0.0,0.0,-0.0007450628011358279,-0.0,0.0,0,0,0,0
1707469104,243409075,base_link,False,False,False,0.0,2.5,0.0,0.0,-0.0009456154721496957,0.0,0.0,0.0,-0.0009456154721496957,-0.0,0.0,0,0,0,0
1707469104,253409872,base_link,False,False,False,0.0,2.5,0.0,0.0,-0.0009456154721496957,0.0,0.0,0.0,-0.0009456154721496957,-0.0,0.0,0,0,0,0
1707469104,263414581,base_link,False,False,False,0.0,2.5,0.0,0.0,-0.0009456154721496957,0.0,0.0,0.0,-0.0009456154721496957,-0.0,0.0,0,0,0,0
1707469104,273409720,base_link,False,False,False,0.0,2.5,0.0,0.0,-0.0009456154721496957,0.0,0.0,0.0,-0.0009456154721496957,-0.0,0.0,0,0,0,0
1707469104,283411914,base_link,False,False,False,0.0,2.5,0.0,0.0,-0.0009456154721496957,0.0,0.0,0.0,-0.0009456154721496957,-0.0,0.0,0,0,0,0
1707469104,293412711,base_link,False,False,False,0.0,2.5,0.0,0.0,-0.00022329613105969023,0.0,0.0,0.0,-0.00022329613105969023,-0.0,0.0,0,0,0,0
1707469104,303416162,base_link,False,False,False,0.0,2.5,0.0,0.0,-0.00022329613105969023,0.0,0.0,0.0,-0.00022329613105969023,-0.0,0.0,0,0,0,0
1707469104,313414445,base_link,False,False,False,0.0,2.5,0.0,0.0,-0.00022329613105969023,0.0,0.0,0.0,-0.00022329613105969023,-0.0,0.0,0,0,0,0
1707469104,323416080,base_link,False,False,False,0.0,2.5,0.0,0.0,-0.00022329613105969023,0.0,0.0,0.0,-0.00022329613105969023,-0.0,0.0,0,0,0,0
1707469104,333410451,base_link,False,False,False,0.0,2.5,0.0,0.0,-0.00022329613105969023,0.0,0.0,0.0,-0.00022329613105969023,-0.0,0.0,0,0,0,0
1707469104,343410270,base_link,False,False,False,0.0,2.5,0.0,0.0,-0.0015581468591737374,0.0,0.0,0.0,-0.0015581468591737374,-0.0,0.0,0,0,0,0
1707469104,353409321,base_link,False,False,False,0.0,2.5,0.0,0.0,-0.0015581468591737374,0.0,0.0,0.0,-0.0015581468591737374,-0.0,0.0,0,0,0,0
1707469104,363412772,base_link,False,False,False,0.0,2.5,0.0,0.0,-0.0015581468591737374,0.0,0.0,0.0,-0.0015581468591737374,-0.0,0.0,0,0,0,0
1707469104,373411055,base_link,False,False,False,0.0,2.5,0.0,0.0,-0.0015581468591737374,0.0,0.0,0.0,-0.0015581468591737374,-0.0,0.0,0,0,0,0
1707469104,383415554,base_link,False,False,False,0.0,2.5,0.0,0.0,-0.0015581468591737374,0.0,0.0,0.0,-0.0015581468591737374,-0.0,0.0,0,0,0,0
1707469104,393412858,base_link,False,False,False,0.0,2.5,0.0,0.0,-0.0004297128478314046,0.0,0.0,0.0,-0.0004297128478314046,-0.0,0.0,0,0,0,0
1707469104,403408836,base_link,False,False,False,0.0,2.5,0.0,0.0,-0.0004297128478314046,0.0,0.0,0.0,-0.0004297128478314046,-0.0,0.0,0,0,0,0
1707469104,413413195,base_link,False,False,False,0.0,2.5,0.0,0.0,-0.0004297128478314046,0.0,0.0,0.0,-0.0004297128478314046,-0.0,0.0,0,0,0,0
1707469104,423412525,base_link,False,False,False,0.0,2.5,0.0,0.0,-0.0004297128478314046,0.0,0.0,0.0,-0.0004297128478314046,-0.0,0.0,0,0,0,0
1707469104,433413951,base_link,False,False,False,0.0,2.5,0.0,0.0,-0.0004297128478314046,0.0,0.0,0.0,-0.0004297128478314046,-0.0,0.0,0,0,0,0
1707469104,443408741,base_link,False,False,False,0.0,2.5,0.0,0.0,-0.0015977779646813976,0.0,0.0,0.0,-0.0015977779646813976,-0.0,0.0,0,0,0,0
1707469104,453414288,base_link,False,False,False,0.0,2.5,0.0,0.0,-0.0015977779646813976,0.0,0.0,0.0,-0.0015977779646813976,-0.0,0.0,0,0,0,0
1707469104,463411383,base_link,False,False,False,0.0,2.5,0.0,0.0,-0.0015977779646813976,0.0,0.0,0.0,-0.0015977779646813976,-0.0,0.0,0,0,0,0
1707469104,473410713,base_link,False,False,False,0.0,2.5,0.0,0.0,-0.0015977779646813976,0.0,0.0,0.0,-0.0015977779646813976,-0.0,0.0,0,0,0,0
1707469104,483417028,base_link,False,False,False,0.0,2.5,0.0,0.0,-0.0015977779646813976,0.0,0.0,0.0,-0.0015977779646813976,-0.0,0.0,0,0,0,0
1707469104,493408675,base_link,False,False,False,0.0,2.5,0.0,0.0,-0.0011674583845591774,0.0,0.0,0.0,-0.0011674583845591774,-0.0,0.0,0,0,0,0
1707469104,503411707,base_link,False,False,False,0.0,2.5,0.0,0.0,-0.0011674583845591774,0.0,0.0,0.0,-0.0011674583845591774,-0.0,0.0,0,0,0,0
1707469104,513411876,base_link,False,False,False,0.0,2.5,0.0,0.0,-0.0011674583845591774,0.0,0.0,0.0,-0.0011674583845591774,-0.0,0.0,0,0,0,0
1707469104,523413581,base_link,False,False,False,0.0,2.5,0.0,0.0,-0.0011674583845591774,0.0,0.0,0.0,-0.0011674583845591774,-0.0,0.0,0,0,0,0
1707469104,533409768,base_link,False,False,False,0.0,2.5,0.0,0.0,-0.0011674583845591774,0.0,0.0,0.0,-0.0011674583845591774,-0.0,0.0,0,0,0,0
1707469104,543409447,base_link,False,False,False,0.0,2.5,0.0,0.0,-0.00024879438921273235,0.0,0.0,0.0,-0.00024879438921273235,-0.0,0.0,0,0,0,0
1707469104,553411991,base_link,False,False,False,0.0,2.5,0.0,0.0,-0.00024879438921273235,0.0,0.0,0.0,-0.00024879438921273235,-0.0,0.0,0,0,0,0
1707469104,563413067,base_link,False,False,False,0.0,2.5,0.0,0.0,-0.00024879438921273235,0.0,0.0,0.0,-0.00024879438921273235,-0.0,0.0,0,0,0,0
1707469104,573412816,base_link,False,False,False,0.0,2.5,0.0,0.0,-0.00024879438921273235,0.0,0.0,0.0,-0.00024879438921273235,-0.0,0.0,0,0,0,0
1707469104,583424369,base_link,False,False,False,0.0,2.5,0.0,0.0,-0.00024879438921273235,0.0,0.0,0.0,-0.00024879438921273235,-0.0,0.0,0,0,0,0
1707469104,593409381,base_link,False,False,False,0.0,2.5,0.0,0.0,-0.00045331700571222546,0.0,0.0,0.0,-0.00045331700571222546,-0.0,0.0,0,0,0,0
1707469104,603412134,base_link,False,False,False,0.0,2.5,0.0,0.0,-0.00045331700571222546,0.0,0.0,0.0,-0.00045331700571222546,-0.0,0.0,0,0,0,0
1707469104,613418030,base_link,False,False,False,0.0,2.5,0.0,0.0,-0.00045331700571222546,0.0,0.0,0.0,-0.00045331700571222546,-0.0,0.0,0,0,0,0
1707469104,623412680,base_link,False,False,False,0.0,2.5,0.0,0.0,-0.00045331700571222546,0.0,0.0,0.0,-0.00045331700571222546,-0.0,0.0,0,0,0,0
1707469104,633413058,base_link,False,False,False,0.0,2.5,0.0,0.0,-0.00045331700571222546,0.0,0.0,0.0,-0.00045331700571222546,-0.0,0.0,0,0,0,0
1707469104,643413017,base_link,False,False,False,0.0,2.5,0.0,0.0,-0.0014390219045232583,0.0,0.0,0.0,-0.0014390219045232583,-0.0,0.0,0,0,0,0
1707469104,653414373,base_link,False,False,False,0.0,2.5,0.0,0.0,-0.0014390219045232583,0.0,0.0,0.0,-0.0014390219045232583,-0.0,0.0,0,0,0,0
1707469104,663410979,base_link,False,False,False,0.0,2.5,0.0,0.0,-0.0014390219045232583,0.0,0.0,0.0,-0.0014390219045232583,-0.0,0.0,0,0,0,0
1707469104,673413313,base_link,False,False,False,0.0,2.5,0.0,0.0,-0.0014390219045232583,0.0,0.0,0.0,-0.0014390219045232583,-0.0,0.0,0,0,0,0
1707469104,683414389,base_link,False,False,False,0.0,2.5,0.0,0.0,-0.0014390219045232583,0.0,0.0,0.0,-0.0014390219045232583,-0.0,0.0,0,0,0,0
1707469104,693411554,base_link,False,False,False,0.0,2.5,0.0,0.0,-0.0014390219045232583,0.0,0.0,0.0,-0.0014390219045232583,-0.0,0.0,0,0,0,0
1707469104,703414446,base_link,False,False,False,0.0,2.5,0.0,0.0,-0.0014390219045232583,0.0,0.0,0.0,-0.0014390219045232583,-0.0,0.0,0,0,0,0
1707469104,713410145,base_link,False,False,False,0.0,2.5,0.0,0.0,-0.0014390219045232583,0.0,0.0,0.0,-0.0014390219045232583,-0.0,0.0,0,0,0,0
1707469104,723412409,base_link,False,False,False,0.0,2.5,0.0,0.0,-0.0014390219045232583,0.0,0.0,0.0,-0.0014390219045232583,-0.0,0.0,0,0,0,0
1707469104,733417117,base_link,False,False,False,0.0,2.5,0.0,0.0,-0.0014390219045232583,0.0,0.0,0.0,-0.0014390219045232583,-0.0,0.0,0,0,0,0
1707469104,743413234,base_link,False,False,False,0.0,2.5,0.0,0.0,-0.00045476136433421116,0.0,0.0,0.0,-0.00045476136433421116,-0.0,0.0,0,0,0,0
1707469104,753410888,base_link,False,False,False,0.0,2.5,0.0,0.0,-0.00045476136433421116,0.0,0.0,0.0,-0.00045476136433421116,-0.0,0.0,0,0,0,0
1707469104,763410149,base_link,False,False,False,0.0,2.5,0.0,0.0,-0.00045476136433421116,0.0,0.0,0.0,-0.00045476136433421116,-0.0,0.0,0,0,0,0
1707469104,773416184,base_link,False,False,False,0.0,2.5,0.0,0.0,-0.00045476136433421116,0.0,0.0,0.0,-0.00045476136433421116,-0.0,0.0,0,0,0,0
1707469104,783411184,base_link,False,False,False,0.0,2.5,0.0,0.0,-0.00045476136433421116,0.0,0.0,0.0,-0.00045476136433421116,-0.0,0.0,0,0,0,0
1707469104,793417149,base_link,False,False,False,0.0,2.5,0.0,0.0,-0.0008130582277303996,0.0,0.0,0.0,-0.0008130582277303996,-0.0,0.0,0,0,0,0
1707469104,803408098,base_link,False,False,False,0.0,2.5,0.0,0.0,-0.0008130582277303996,0.0,0.0,0.0,-0.0008130582277303996,-0.0,0.0,0,0,0,0
1707469104,813411340,base_link,False,False,False,0.0,2.5,0.0,0.0,-0.0008130582277303996,0.0,0.0,0.0,-0.0008130582277303996,-0.0,0.0,0,0,0,0
1707469104,823412346,base_link,False,False,False,0.0,2.5,0.0,0.0,-0.0008130582277303996,0.0,0.0,0.0,-0.0008130582277303996,-0.0,0.0,0,0,0,0
1707469104,833414051,base_link,False,False,False,0.0,2.5,0.0,0.0,-0.0008130582277303996,0.0,0.0,0.0,-0.0008130582277303996,-0.0,0.0,0,0,0,0
1707469104,843415058,base_link,False,False,False,0.0,2.5,0.0,0.0,0.00027441662030063224,0.0,0.0,0.0,0.00027441662030063224,-0.0,0.0,0,0,0,0
1707469104,853412293,base_link,False,False,False,0.0,2.5,0.0,0.0,0.00027441662030063224,0.0,0.0,0.0,0.00027441662030063224,-0.0,0.0,0,0,0,0
1707469104,863411972,base_link,False,False,False,0.0,2.5,0.0,0.0,0.00027441662030063224,0.0,0.0,0.0,0.00027441662030063224,-0.0,0.0,0,0,0,0
1707469104,873415004,base_link,False,False,False,0.0,2.5,0.0,0.0,0.00027441662030063224,0.0,0.0,0.0,0.00027441662030063224,-0.0,0.0,0,0,0,0
1707469104,883412309,base_link,False,False,False,0.0,2.5,0.0,0.0,0.00027441662030063224,0.0,0.0,0.0,0.00027441662030063224,-0.0,0.0,0,0,0,0
1707469104,893418763,base_link,False,False,False,0.0,2.5,0.0,0.0,-0.00023146529823476206,0.0,0.0,0.0,-0.00023146529823476206,-0.0,0.0,0,0,0,0
1707469104,903413624,base_link,False,False,False,0.0,2.5,0.0,0.0,-0.00023146529823476206,0.0,0.0,0.0,-0.00023146529823476206,-0.0,0.0,0,0,0,0
1707469104,913417703,base_link,False,False,False,0.0,2.5,0.0,0.0,-0.00023146529823476206,0.0,0.0,0.0,-0.00023146529823476206,-0.0,0.0,0,0,0,0
1707469104,923411027,base_link,False,False,False,0.0,2.5,0.0,0.0,-0.00023146529823476206,0.0,0.0,0.0,-0.00023146529823476206,-0.0,0.0,0,0,0,0
1707469104,933414827,base_link,False,False,False,0.0,2.5,0.0,0.0,-0.00023146529823476206,0.0,0.0,0.0,-0.00023146529823476206,-0.0,0.0,0,0,0,0
1707469104,943416672,base_link,False,False,False,0.0,2.5,0.0,0.0,-0.0005058819488096117,0.0,0.0,0.0,-0.0005058819488096117,-0.0,0.0,0,0,0,0
1707469104,953412859,base_link,False,False,False,0.0,2.5,0.0,0.0,-0.0005058819488096117,0.0,0.0,0.0,-0.0005058819488096117,-0.0,0.0,0,0,0,0
1707469104,963417009,base_link,False,False,False,0.0,2.5,0.0,0.0,-0.0005058819488096117,0.0,0.0,0.0,-0.0005058819488096117,-0.0,0.0,0,0,0,0
1707469104,973416967,base_link,False,False,False,0.0,2.5,0.0,0.0,-0.0005058819488096117,0.0,0.0,0.0,-0.0005058819488096117,-0.0,0.0,0,0,0,0
1707469104,983414412,base_link,False,False,False,0.0,2.5,0.0,0.0,-0.0005058819488096117,0.0,0.0,0.0,-0.0005058819488096117,-0.0,0.0,0,0,0,0
1707469104,993412136,base_link,False,False,False,0.0,2.5,0.0,0.0,-0.0005724374791134374,0.0,0.0,0.0,-0.0005724374791134374,-0.0,0.0,0,0,0,0
1707469105,3411885,base_link,False,False,False,0.0,2.5,0.0,0.0,-0.0005724374791134374,0.0,0.0,0.0,-0.0005724374791134374,-0.0,0.0,0,0,0,0
1707469105,13413590,base_link,False,False,False,0.0,2.5,0.0,0.0,-0.0005724374791134374,0.0,0.0,0.0,-0.0005724374791134374,-0.0,0.0,0,0,0,0
1707469105,23420882,base_link,False,False,False,0.0,2.5,0.0,0.0,-0.0005724374791134374,0.0,0.0,0.0,-0.0005724374791134374,-0.0,0.0,0,0,0,0
1707469105,33409946,base_link,False,False,False,0.0,2.5,0.0,0.0,-0.0005724374791134374,0.0,0.0,0.0,-0.0005724374791134374,-0.0,0.0,0,0,0,0
1707469105,43408228,base_link,False,False,False,0.0,2.5,0.0,0.0,-0.0017134385503871814,0.0,0.0,0.0,-0.0017134385503871814,-0.0,0.0,0,0,0,0
1707469105,53408886,base_link,False,False,False,0.0,2.5,0.0,0.0,-0.0017134385503871814,0.0,0.0,0.0,-0.0017134385503871814,-0.0,0.0,0,0,0,0
1707469105,63417156,base_link,False,False,False,0.0,2.5,0.0,0.0,-0.0017134385503871814,0.0,0.0,0.0,-0.0017134385503871814,-0.0,0.0,0,0,0,0
1707469105,73415369,base_link,False,False,False,0.0,2.5,0.0,0.0,-0.0017134385503871814,0.0,0.0,0.0,-0.0017134385503871814,-0.0,0.0,0,0,0,0
1707469105,83415537,base_link,False,False,False,0.0,2.5,0.0,0.0,-0.0017134385503871814,0.0,0.0,0.0,-0.0017134385503871814,-0.0,0.0,0,0,0,0
1707469105,93416823,base_link,False,False,False,0.0,2.5,0.0,0.0,-0.001220032141930662,0.0,0.0,0.0,-0.001220032141930662,-0.0,0.0,0,0,0,0
1707469105,103411264,base_link,False,False,False,0.0,2.5,0.0,0.0,-0.001220032141930662,0.0,0.0,0.0,-0.001220032141930662,-0.0,0.0,0,0,0,0
1707469105,113414995,base_link,False,False,False,0.0,2.5,0.0,0.0,-0.001220032141930662,0.0,0.0,0.0,-0.001220032141930662,-0.0,0.0,0,0,0,0
1707469105,123417398,base_link,False,False,False,0.0,2.5,0.0,0.0,-0.001220032141930662,0.0,0.0,0.0,-0.001220032141930662,-0.0,0.0,0,0,0,0
1707469105,133413934,base_link,False,False,False,0.0,2.5,0.0,0.0,-0.001220032141930662,0.0,0.0,0.0,-0.001220032141930662,-0.0,0.0,0,0,0,0
1707469105,143411519,base_link,False,False,False,0.0,2.5,0.0,0.0,-0.00024879438921273235,0.0,0.0,0.0,-0.00024879438921273235,-0.0,0.0,0,0,0,0
1707469105,153409452,base_link,False,False,False,0.0,2.5,0.0,0.0,-0.00024879438921273235,0.0,0.0,0.0,-0.00024879438921273235,-0.0,0.0,0,0,0,0
1707469105,163411436,base_link,False,False,False,0.0,2.5,0.0,0.0,-0.00024879438921273235,0.0,0.0,0.0,-0.00024879438921273235,-0.0,0.0,0,0,0,0
1707469105,173413910,base_link,False,False,False,0.0,2.5,0.0,0.0,-0.00024879438921273235,0.0,0.0,0.0,-0.00024879438921273235,-0.0,0.0,0,0,0,0
1707469105,183412541,base_link,False,False,False,0.0,2.5,0.0,0.0,-0.00024879438921273235,0.0,0.0,0.0,-0.00024879438921273235,-0.0,0.0,0,0,0,0
1707469105,193419624,base_link,False,False,False,0.0,2.5,0.0,0.0,-0.00039113821075328285,0.0,0.0,0.0,-0.00039113821075328285,-0.0,0.0,0,0,0,0
1707469105,203411062,base_link,False,False,False,0.0,2.5,0.0,0.0,-0.00039113821075328285,0.0,0.0,0.0,-0.00039113821075328285,-0.0,0.0,0,0,0,0
1707469105,213411929,base_link,False,False,False,0.0,2.5,0.0,0.0,-0.00039113821075328285,0.0,0.0,0.0,-0.00039113821075328285,-0.0,0.0,0,0,0,0
1707469105,223411469,base_link,False,False,False,0.0,2.5,0.0,0.0,-0.00039113821075328285,0.0,0.0,0.0,-0.00039113821075328285,-0.0,0.0,0,0,0,0
1707469105,233410310,base_link,False,False,False,0.0,2.5,0.0,0.0,-0.00039113821075328285,0.0,0.0,0.0,-0.00039113821075328285,-0.0,0.0,0,0,0,0
1707469105,243413202,base_link,False,False,False,0.0,2.5,0.0,0.0,-0.001448635279123054,0.0,0.0,0.0,-0.001448635279123054,-0.0,0.0,0,0,0,0
1707469105,253411066,base_link,False,False,False,0.0,2.5,0.0,0.0,-0.001448635279123054,0.0,0.0,0.0,-0.001448635279123054,-0.0,0.0,0,0,0,0
1707469105,263412911,base_link,False,False,False,0.0,2.5,0.0,0.0,-0.001448635279123054,0.0,0.0,0.0,-0.001448635279123054,-0.0,0.0,0,0,0,0
1707469105,273411123,base_link,False,False,False,0.0,2.5,0.0,0.0,-0.001448635279123054,0.0,0.0,0.0,-0.001448635279123054,-0.0,0.0,0,0,0,0
1707469105,283415133,base_link,False,False,False,0.0,2.5,0.0,0.0,-0.001448635279123054,0.0,0.0,0.0,-0.001448635279123054,-0.0,0.0,0,0,0,0
1707469105,293411460,base_link,False,False,False,0.0,2.5,0.0,0.0,-0.0006563565400604079,0.0,0.0,0.0,-0.0006563565400604079,-0.0,0.0,0,0,0,0
1707469105,303410371,base_link,False,False,False,0.0,2.5,0.0,0.0,-0.0006563565400604079,0.0,0.0,0.0,-0.0006563565400604079,-0.0,0.0,0,0,0,0
1707469105,313413753,base_link,False,False,False,0.0,2.5,0.0,0.0,-0.0006563565400604079,0.0,0.0,0.0,-0.0006563565400604079,-0.0,0.0,0,0,0,0
1707469105,323411756,base_link,False,False,False,0.0,2.5,0.0,0.0,-0.0006563565400604079,0.0,0.0,0.0,-0.0006563565400604079,-0.0,0.0,0,0,0,0
1707469105,333414578,base_link,False,False,False,0.0,2.5,0.0,0.0,-0.0006563565400604079,0.0,0.0,0.0,-0.0006563565400604079,-0.0,0.0,0,0,0,0
1707469105,343410975,base_link,False,False,False,0.0,2.5,0.0,0.0,-0.0006120697235967164,0.0,0.0,0.0,-0.0006120697235967164,-0.0,0.0,0,0,0,0
1707469105,353410515,base_link,False,False,False,0.0,2.5,0.0,0.0,-0.0006120697235967164,0.0,0.0,0.0,-0.0006120697235967164,-0.0,0.0,0,0,0,0
1707469105,363413128,base_link,False,False,False,0.0,2.5,0.0,0.0,-0.0006120697235967164,0.0,0.0,0.0,-0.0006120697235967164,-0.0,0.0,0,0,0,0
1707469105,373411271,base_link,False,False,False,0.0,2.5,0.0,0.0,-0.0006120697235967164,0.0,0.0,0.0,-0.0006120697235967164,-0.0,0.0,0,0,0,0
1707469105,383432183,base_link,False,False,False,0.0,2.5,0.0,0.0,-0.0006120697235967164,0.0,0.0,0.0,-0.0006120697235967164,-0.0,0.0,0,0,0,0
1707469105,393427951,base_link,False,False,False,0.0,2.5,0.0,0.0,-0.0006968210965434572,0.0,0.0,0.0,-0.0006968210965434572,-0.0,0.0,0,0,0,0
1707469105,403411566,base_link,False,False,False,0.0,2.5,0.0,0.0,-0.0006968210965434572,0.0,0.0,0.0,-0.0006968210965434572,-0.0,0.0,0,0,0,0
1707469105,413413411,base_link,False,False,False,0.0,2.5,0.0,0.0,-0.0006968210965434572,0.0,0.0,0.0,-0.0006968210965434572,-0.0,0.0,0,0,0,0
1707469105,423413021,base_link,False,False,False,0.0,2.5,0.0,0.0,-0.0006968210965434572,0.0,0.0,0.0,-0.0006968210965434572,-0.0,0.0,0,0,0,0
1707469105,433410325,base_link,False,False,False,0.0,2.5,0.0,0.0,-0.0006968210965434572,0.0,0.0,0.0,-0.0006968210965434572,-0.0,0.0,0,0,0,0
1707469105,443409586,base_link,False,False,False,0.0,2.5,0.0,0.0,-0.0016019323311751124,0.0,0.0,0.0,-0.0016019323311751124,-0.0,0.0,0,0,0,0
1707469105,453415481,base_link,False,False,False,0.0,2.5,0.0,0.0,-0.0016019323311751124,0.0,0.0,0.0,-0.0016019323311751124,-0.0,0.0,0,0,0,0
1707469105,463411319,base_link,False,False,False,0.0,2.5,0.0,0.0,-0.0016019323311751124,0.0,0.0,0.0,-0.0016019323311751124,-0.0,0.0,0,0,0,0
1707469105,473424479,base_link,False,False,False,0.0,2.5,0.0,0.0,-0.0016019323311751124,0.0,0.0,0.0,-0.0016019323311751124,-0.0,0.0,0,0,0,0
1707469105,483412634,base_link,False,False,False,0.0,2.5,0.0,0.0,-0.0016019323311751124,0.0,0.0,0.0,-0.0016019323311751124,-0.0,0.0,0,0,0,0
1707469105,493412313,base_link,False,False,False,0.0,2.5,0.0,0.0,-0.0006711988023687296,0.0,0.0,0.0,-0.0006711988023687296,-0.0,0.0,0,0,0,0
1707469105,503410317,base_link,False,False,False,0.0,2.5,0.0,0.0,-0.0006711988023687296,0.0,0.0,0.0,-0.0006711988023687296,-0.0,0.0,0,0,0,0
1707469105,513419355,base_link,False,False,False,0.0,2.5,0.0,0.0,-0.0006711988023687296,0.0,0.0,0.0,-0.0006711988023687296,-0.0,0.0,0,0,0,0
1707469105,523411841,base_link,False,False,False,0.0,2.5,0.0,0.0,-0.0006711988023687296,0.0,0.0,0.0,-0.0006711988023687296,-0.0,0.0,0,0,0,0
1707469105,533412009,base_link,False,False,False,0.0,2.5,0.0,0.0,-0.0006711988023687296,0.0,0.0,0.0,-0.0006711988023687296,-0.0,0.0,0,0,0,0
1707469105,543412666,base_link,False,False,False,0.0,2.5,0.0,0.0,9.204924679788435e-05,0.0,0.0,0.0,9.204924679788435e-05,-0.0,0.0,0,0,0,0
1707469105,553409482,base_link,False,False,False,0.0,2.5,0.0,0.0,9.204924679788435e-05,0.0,0.0,0.0,9.204924679788435e-05,-0.0,0.0,0,0,0,0
1707469105,563416775,base_link,False,False,False,0.0,2.5,0.0,0.0,9.204924679788435e-05,0.0,0.0,0.0,9.204924679788435e-05,-0.0,0.0,0,0,0,0
1707469105,573423229,base_link,False,False,False,0.0,2.5,0.0,0.0,9.204924679788435e-05,0.0,0.0,0.0,9.204924679788435e-05,-0.0,0.0,0,0,0,0
1707469105,583410616,base_link,False,False,False,0.0,2.5,0.0,0.0,9.204924679788435e-05,0.0,0.0,0.0,9.204924679788435e-05,-0.0,0.0,0,0,0,0
1707469105,593412670,base_link,False,False,False,0.0,2.5,0.0,0.0,-0.00027110205858906633,0.0,0.0,0.0,-0.00027110205858906633,-0.0,0.0,0,0,0,0
1707469105,603412699,base_link,False,False,False,0.0,2.5,0.0,0.0,-0.00027110205858906633,0.0,0.0,0.0,-0.00027110205858906633,-0.0,0.0,0,0,0,0
1707469105,613413985,base_link,False,False,False,0.0,2.5,0.0,0.0,-0.00027110205858906633,0.0,0.0,0.0,-0.00027110205858906633,-0.0,0.0,0,0,0,0
1707469105,623411569,base_link,False,False,False,0.0,2.5,0.0,0.0,-0.00027110205858906633,0.0,0.0,0.0,-0.00027110205858906633,-0.0,0.0,0,0,0,0
1707469105,633415788,base_link,False,False,False,0.0,2.5,0.0,0.0,-0.00027110205858906633,0.0,0.0,0.0,-0.00027110205858906633,-0.0,0.0,0,0,0,0
1707469105,643415258,base_link,False,False,False,0.0,2.5,0.0,0.0,-0.0016247350216701416,0.0,0.0,0.0,-0.0016247350216701416,-0.0,0.0,0,0,0,0
1707469105,653417103,base_link,False,False,False,0.0,2.5,0.0,0.0,-0.0016247350216701416,0.0,0.0,0.0,-0.0016247350216701416,-0.0,0.0,0,0,0,0
1707469105,663411963,base_link,False,False,False,0.0,2.5,0.0,0.0,-0.0016247350216701416,0.0,0.0,0.0,-0.0016247350216701416,-0.0,0.0,0,0,0,0
1707469105,673412551,base_link,False,False,False,0.0,2.5,0.0,0.0,-0.0016247350216701416,0.0,0.0,0.0,-0.0016247350216701416,-0.0,0.0,0,0,0,0
1707469105,683414465,base_link,False,False,False,0.0,2.5,0.0,0.0,-0.0016247350216701416,0.0,0.0,0.0,-0.0016247350216701416,-0.0,0.0,0,0,0,0
1707469105,693411002,base_link,False,False,False,0.0,2.5,0.0,0.0,-0.0012837302430043457,0.0,0.0,0.0,-0.0012837302430043457,-0.0,0.0,0,0,0,0
1707469105,703413335,base_link,False,False,False,0.0,2.5,0.0,0.0,-0.0012837302430043457,0.0,0.0,0.0,-0.0012837302430043457,-0.0,0.0,0,0,0,0
1707469105,713410919,base_link,False,False,False,0.0,2.5,0.0,0.0,-0.0012837302430043457,0.0,0.0,0.0,-0.0012837302430043457,-0.0,0.0,0,0,0,0
1707469105,723413602,base_link,False,False,False,0.0,2.5,0.0,0.0,-0.0012837302430043457,0.0,0.0,0.0,-0.0012837302430043457,-0.0,0.0,0,0,0,0
1707469105,733426482,base_link,False,False,False,0.0,2.5,0.0,0.0,-0.0012837302430043457,0.0,0.0,0.0,-0.0012837302430043457,-0.0,0.0,0,0,0,0
1707469105,743410586,base_link,False,False,False,0.0,2.5,0.0,0.0,-0.0014162527894604469,0.0,0.0,0.0,-0.0014162527894604469,-0.0,0.0,0,0,0,0
1707469105,753409637,base_link,False,False,False,0.0,2.5,0.0,0.0,-0.0014162527894604469,0.0,0.0,0.0,-0.0014162527894604469,-0.0,0.0,0,0,0,0
1707469105,763410644,base_link,False,False,False,0.0,2.5,0.0,0.0,-0.0014162527894604469,0.0,0.0,0.0,-0.0014162527894604469,-0.0,0.0,0,0,0,0
1707469105,773412349,base_link,False,False,False,0.0,2.5,0.0,0.0,-0.0014162527894604469,0.0,0.0,0.0,-0.0014162527894604469,-0.0,0.0,0,0,0,0
1707469105,783414822,base_link,False,False,False,0.0,2.5,0.0,0.0,-0.0014162527894604469,0.0,0.0,0.0,-0.0014162527894604469,-0.0,0.0,0,0,0,0
1707469105,793411778,base_link,False,False,False,0.0,2.5,0.0,0.0,-0.0004297128478314046,0.0,0.0,0.0,-0.0004297128478314046,-0.0,0.0,0,0,0,0
1707469105,803414181,base_link,False,False,False,0.0,2.5,0.0,0.0,-0.0004297128478314046,0.0,0.0,0.0,-0.0004297128478314046,-0.0,0.0,0,0,0,0
1707469105,813415048,base_link,False,False,False,0.0,2.5,0.0,0.0,-0.0004297128478314046,0.0,0.0,0.0,-0.0004297128478314046,-0.0,0.0,0,0,0,0
1707469105,823414029,base_link,False,False,False,0.0,2.5,0.0,0.0,-0.0004297128478314046,0.0,0.0,0.0,-0.0004297128478314046,-0.0,0.0,0,0,0,0
1707469105,833415175,base_link,False,False,False,0.0,2.5,0.0,0.0,-0.0004297128478314046,0.0,0.0,0.0,-0.0004297128478314046,-0.0,0.0,0,0,0,0
1707469105,843410943,base_link,False,False,False,0.0,2.5,0.0,0.0,-0.0013160940694874712,0.0,0.0,0.0,-0.0013160940694874712,-0.0,0.0,0,0,0,0
1707469105,853407550,base_link,False,False,False,0.0,2.5,0.0,0.0,-0.0013160940694874712,0.0,0.0,0.0,-0.0013160940694874712,-0.0,0.0,0,0,0,0
1707469105,863412747,base_link,False,False,False,0.0,2.5,0.0,0.0,-0.0013160940694874712,0.0,0.0,0.0,-0.0013160940694874712,-0.0,0.0,0,0,0,0
1707469105,873414033,base_link,False,False,False,0.0,2.5,0.0,0.0,-0.0013160940694874712,0.0,0.0,0.0,-0.0013160940694874712,-0.0,0.0,0,0,0,0
1707469105,883410220,base_link,False,False,False,0.0,2.5,0.0,0.0,-0.0013160940694874712,0.0,0.0,0.0,-0.0013160940694874712,-0.0,0.0,0,0,0,0
1707469105,893415836,base_link,False,False,False,0.0,2.5,0.0,0.0,-3.9612778651182715e-05,0.0,0.0,0.0,-3.9612778651182715e-05,-0.0,0.0,0,0,0,0
1707469105,903412442,base_link,False,False,False,0.0,2.5,0.0,0.0,-3.9612778651182715e-05,0.0,0.0,0.0,-3.9612778651182715e-05,-0.0,0.0,0,0,0,0
1707469105,913414427,base_link,False,False,False,0.0,2.5,0.0,0.0,-3.9612778651182715e-05,0.0,0.0,0.0,-3.9612778651182715e-05,-0.0,0.0,0,0,0,0
1707469105,923413198,base_link,False,False,False,0.0,2.5,0.0,0.0,-3.9612778651182715e-05,0.0,0.0,0.0,-3.9612778651182715e-05,-0.0,0.0,0,0,0,0
1707469105,933410503,base_link,False,False,False,0.0,2.5,0.0,0.0,-3.9612778651182715e-05,0.0,0.0,0.0,-3.9612778651182715e-05,-0.0,0.0,0,0,0,0
1707469105,943412138,base_link,False,False,False,0.0,2.5,0.0,0.0,-0.0007859960584926546,0.0,0.0,0.0,-0.0007859960584926546,-0.0,0.0,0,0,0,0
1707469105,953407976,base_link,False,False,False,0.0,2.5,0.0,0.0,-0.0007859960584926546,0.0,0.0,0.0,-0.0007859960584926546,-0.0,0.0,0,0,0,0
1707469105,963422044,base_link,False,False,False,0.0,2.5,0.0,0.0,-0.0007859960584926546,0.0,0.0,0.0,-0.0007859960584926546,-0.0,0.0,0,0,0,0
1707469105,973423539,base_link,False,False,False,0.0,2.5,0.0,0.0,-0.0007859960584926546,0.0,0.0,0.0,-0.0007859960584926546,-0.0,0.0,0,0,0,0
1707469105,983423358,base_link,False,False,False,0.0,2.5,0.0,0.0,-0.0007859960584926546,0.0,0.0,0.0,-0.0007859960584926546,-0.0,0.0,0,0,0,0
1707469105,993423457,base_link,False,False,False,0.0,2.5,0.0,0.0,-0.00019969652976252033,0.0,0.0,0.0,-0.00019969652976252033,-0.0,0.0,0,0,0,0
1707469106,3414475,base_link,False,False,False,0.0,2.5,0.0,0.0,-0.00019969652976252033,0.0,0.0,0.0,-0.00019969652976252033,-0.0,0.0,0,0,0,0
1707469106,13411361,base_link,False,False,False,0.0,2.5,0.0,0.0,-0.00019969652976252033,0.0,0.0,0.0,-0.00019969652976252033,-0.0,0.0,0,0,0,0
1707469106,23423473,base_link,False,False,False,0.0,2.5,0.0,0.0,-0.00019969652976252033,0.0,0.0,0.0,-0.00019969652976252033,-0.0,0.0,0,0,0,0
1707469106,33423013,base_link,False,False,False,0.0,2.5,0.0,0.0,-0.00019969652976252033,0.0,0.0,0.0,-0.00019969652976252033,-0.0,0.0,0,0,0,0
1707469106,43415638,base_link,False,False,False,0.0,2.5,0.0,0.0,-0.0016247350216701416,0.0,0.0,0.0,-0.0016247350216701416,-0.0,0.0,0,0,0,0
1707469106,53416295,base_link,False,False,False,0.0,2.5,0.0,0.0,-0.0016247350216701416,0.0,0.0,0.0,-0.0016247350216701416,-0.0,0.0,0,0,0,0
1707469106,63413670,base_link,False,False,False,0.0,2.5,0.0,0.0,-0.0016247350216701416,0.0,0.0,0.0,-0.0016247350216701416,-0.0,0.0,0,0,0,0
1707469106,73411114,base_link,False,False,False,0.0,2.5,0.0,0.0,-0.0016247350216701416,0.0,0.0,0.0,-0.0016247350216701416,-0.0,0.0,0,0,0,0
1707469106,83416521,base_link,False,False,False,0.0,2.5,0.0,0.0,-0.0016247350216701416,0.0,0.0,0.0,-0.0016247350216701416,-0.0,0.0,0,0,0,0
1707469106,93413616,base_link,False,False,False,0.0,2.5,0.0,0.0,-0.00017407426868082707,0.0,0.0,0.0,-0.00017407426868082707,-0.0,0.0,0,0,0,0
1707469106,103410153,base_link,False,False,False,0.0,2.5,0.0,0.0,-0.00017407426868082707,0.0,0.0,0.0,-0.00017407426868082707,-0.0,0.0,0,0,0,0
1707469106,113411997,base_link,False,False,False,0.0,2.5,0.0,0.0,-0.00017407426868082707,0.0,0.0,0.0,-0.00017407426868082707,-0.0,0.0,0,0,0,0
1707469106,123412515,base_link,False,False,False,0.0,2.5,0.0,0.0,-0.00017407426868082707,0.0,0.0,0.0,-0.00017407426868082707,-0.0,0.0,0,0,0,0
1707469106,133410379,base_link,False,False,False,0.0,2.5,0.0,0.0,-0.00017407426868082707,0.0,0.0,0.0,-0.00017407426868082707,-0.0,0.0,0,0,0,0
1707469106,143414738,base_link,False,False,False,0.0,2.5,0.0,0.0,-0.000407562143042702,0.0,0.0,0.0,-0.000407562143042702,-0.0,0.0,0,0,0,0
1707469106,153409947,base_link,False,False,False,0.0,2.5,0.0,0.0,-0.000407562143042702,0.0,0.0,0.0,-0.000407562143042702,-0.0,0.0,0,0,0,0
1707469106,163412071,base_link,False,False,False,0.0,2.5,0.0,0.0,-0.000407562143042702,0.0,0.0,0.0,-0.000407562143042702,-0.0,0.0,0,0,0,0
1707469106,173412449,base_link,False,False,False,0.0,2.5,0.0,0.0,-0.000407562143042702,0.0,0.0,0.0,-0.000407562143042702,-0.0,0.0,0,0,0,0
1707469106,183411989,base_link,False,False,False,0.0,2.5,0.0,0.0,-0.000407562143042702,0.0,0.0,0.0,-0.000407562143042702,-0.0,0.0,0,0,0,0
1707469106,193412297,base_link,False,False,False,0.0,2.5,0.0,0.0,-0.00015674514017644225,0.0,0.0,0.0,-0.00015674514017644225,-0.0,0.0,0,0,0,0
1707469106,203489573,base_link,False,False,False,0.0,2.5,0.0,0.0,-0.00015674514017644225,0.0,0.0,0.0,-0.00015674514017644225,-0.0,0.0,0,0,0,0
1707469106,213413611,base_link,False,False,False,0.0,2.5,0.0,0.0,-0.00015674514017644225,0.0,0.0,0.0,-0.00015674514017644225,-0.0,0.0,0,0,0,0
1707469106,223431800,base_link,False,False,False,0.0,2.5,0.0,0.0,-0.00015674514017644225,0.0,0.0,0.0,-0.00015674514017644225,-0.0,0.0,0,0,0,0
1707469106,233391738,base_link,False,False,False,0.0,2.5,0.0,0.0,-0.00015674514017644225,0.0,0.0,0.0,-0.00015674514017644225,-0.0,0.0,0,0,0,0
1707469106,243410624,base_link,False,False,False,0.0,2.5,0.0,0.0,0.0,0.0,0.0,0.0,0.0,-0.0,0.0,0,0,0,0
1707469106,253414914,base_link,False,False,False,0.0,2.5,0.0,0.0,0.0,0.0,0.0,0.0,0.0,-0.0,0.0,0,0,0,0
1707469106,263411869,base_link,False,False,False,0.0,2.5,0.0,0.0,0.0,0.0,0.0,0.0,0.0,-0.0,0.0,0,0,0,0
1707469106,273412876,base_link,False,False,False,0.0,2.5,0.0,0.0,0.0,0.0,0.0,0.0,0.0,-0.0,0.0,0,0,0,0
1707469106,283411787,base_link,False,False,False,0.0,2.5,0.0,0.0,0.0,0.0,0.0,0.0,0.0,-0.0,0.0,0,0,0,0
1707469106,293420406,base_link,False,False,False,0.0,2.5,0.0,0.0,-6.65555164065431e-05,0.0,0.0,0.0,-6.65555164065431e-05,-0.0,0.0,0,0,0,0
1707469106,303410727,base_link,False,False,False,0.0,2.5,0.0,0.0,-6.65555164065431e-05,0.0,0.0,0.0,-6.65555164065431e-05,-0.0,0.0,0,0,0,0
1707469106,313415924,base_link,False,False,False,0.0,2.5,0.0,0.0,-6.65555164065431e-05,0.0,0.0,0.0,-6.65555164065431e-05,-0.0,0.0,0,0,0,0
1707469106,323412391,base_link,False,False,False,0.0,2.5,0.0,0.0,-6.65555164065431e-05,0.0,0.0,0.0,-6.65555164065431e-05,-0.0,0.0,0,0,0,0
1707469106,333421569,base_link,False,False,False,0.0,2.5,0.0,0.0,-6.65555164065431e-05,0.0,0.0,0.0,-6.65555164065431e-05,-0.0,0.0,0,0,0,0
1707469106,343412308,base_link,False,False,False,0.0,2.5,0.0,0.0,-0.0009779724991765182,0.0,0.0,0.0,-0.0009779724991765182,-0.0,0.0,0,0,0,0
1707469106,353415550,base_link,False,False,False,0.0,2.5,0.0,0.0,-0.0009779724991765182,0.0,0.0,0.0,-0.0009779724991765182,-0.0,0.0,0,0,0,0
1707469106,363412645,base_link,False,False,False,0.0,2.5,0.0,0.0,-0.0009779724991765182,0.0,0.0,0.0,-0.0009779724991765182,-0.0,0.0,0,0,0,0
1707469106,373411137,base_link,False,False,False,0.0,2.5,0.0,0.0,-0.0009779724991765182,0.0,0.0,0.0,-0.0009779724991765182,-0.0,0.0,0,0,0,0
1707469106,383414379,base_link,False,False,False,0.0,2.5,0.0,0.0,-0.0009779724991765182,0.0,0.0,0.0,-0.0009779724991765182,-0.0,0.0,0,0,0,0
1707469106,393415804,base_link,False,False,False,0.0,2.5,0.0,0.0,-0.00036943234848591644,0.0,0.0,0.0,-0.00036943234848591644,-0.0,0.0,0,0,0,0
1707469106,403413947,base_link,False,False,False,0.0,2.5,0.0,0.0,-0.00036943234848591644,0.0,0.0,0.0,-0.00036943234848591644,-0.0,0.0,0,0,0,0
1707469106,413414116,base_link,False,False,False,0.0,2.5,0.0,0.0,-0.00036943234848591644,0.0,0.0,0.0,-0.00036943234848591644,-0.0,0.0,0,0,0,0
1707469106,423411979,base_link,False,False,False,0.0,2.5,0.0,0.0,-0.00036943234848591644,0.0,0.0,0.0,-0.00036943234848591644,-0.0,0.0,0,0,0,0
1707469106,433413055,base_link,False,False,False,0.0,2.5,0.0,0.0,-0.00036943234848591644,0.0,0.0,0.0,-0.00036943234848591644,-0.0,0.0,0,0,0,0
1707469106,443412735,base_link,False,False,False,0.0,2.5,0.0,0.0,-0.0008608641644243486,0.0,0.0,0.0,-0.0008608641644243486,-0.0,0.0,0,0,0,0
1707469106,453408224,base_link,False,False,False,0.0,2.5,0.0,0.0,-0.0008608641644243486,0.0,0.0,0.0,-0.0008608641644243486,-0.0,0.0,0,0,0,0
1707469106,463413561,base_link,False,False,False,0.0,2.5,0.0,0.0,-0.0008608641644243486,0.0,0.0,0.0,-0.0008608641644243486,-0.0,0.0,0,0,0,0
1707469106,473413799,base_link,False,False,False,0.0,2.5,0.0,0.0,-0.0008608641644243486,0.0,0.0,0.0,-0.0008608641644243486,-0.0,0.0,0,0,0,0
1707469106,483412221,base_link,False,False,False,0.0,2.5,0.0,0.0,-0.0008608641644243486,0.0,0.0,0.0,-0.0008608641644243486,-0.0,0.0,0,0,0,0
1707469106,493411551,base_link,False,False,False,0.0,2.5,0.0,0.0,-0.0005628238801873534,0.0,0.0,0.0,-0.0005628238801873534,-0.0,0.0,0,0,0,0
1707469106,503413256,base_link,False,False,False,0.0,2.5,0.0,0.0,-0.0005628238801873534,0.0,0.0,0.0,-0.0005628238801873534,-0.0,0.0,0,0,0,0
1707469106,513411539,base_link,False,False,False,0.0,2.5,0.0,0.0,-0.0005628238801873534,0.0,0.0,0.0,-0.0005628238801873534,-0.0,0.0,0,0,0,0
1707469106,523413104,base_link,False,False,False,0.0,2.5,0.0,0.0,-0.0005628238801873534,0.0,0.0,0.0,-0.0005628238801873534,-0.0,0.0,0,0,0,0
1707469106,533412854,base_link,False,False,False,0.0,2.5,0.0,0.0,-0.0005628238801873534,0.0,0.0,0.0,-0.0005628238801873534,-0.0,0.0,0,0,0,0
1707469106,543427200,base_link,False,False,False,0.0,2.5,0.0,0.0,-0.0004962683662955201,0.0,0.0,0.0,-0.0004962683662955201,-0.0,0.0,0,0,0,0
1707469106,553420733,base_link,False,False,False,0.0,2.5,0.0,0.0,-0.0004962683662955201,0.0,0.0,0.0,-0.0004962683662955201,-0.0,0.0,0,0,0,0
1707469106,563435150,base_link,False,False,False,0.0,2.5,0.0,0.0,-0.0004962683662955201,0.0,0.0,0.0,-0.0004962683662955201,-0.0,0.0,0,0,0,0
1707469106,573410733,base_link,False,False,False,0.0,2.5,0.0,0.0,-0.0004962683662955201,0.0,0.0,0.0,-0.0004962683662955201,-0.0,0.0,0,0,0,0
1707469106,583418864,base_link,False,False,False,0.0,2.5,0.0,0.0,-0.0004962683662955201,0.0,0.0,0.0,-0.0004962683662955201,-0.0,0.0,0,0,0,0
1707469106,593415959,base_link,False,False,False,0.0,2.5,0.0,0.0,-0.0008352418959370049,0.0,0.0,0.0,-0.0008352418959370049,-0.0,0.0,0,0,0,0
1707469106,603415848,base_link,False,False,False,0.0,2.5,0.0,0.0,-0.0008352418959370049,0.0,0.0,0.0,-0.0008352418959370049,-0.0,0.0,0,0,0,0
1707469106,613413013,base_link,False,False,False,0.0,2.5,0.0,0.0,-0.0008352418959370049,0.0,0.0,0.0,-0.0008352418959370049,-0.0,0.0,0,0,0,0
1707469106,623413251,base_link,False,False,False,0.0,2.5,0.0,0.0,-0.0008352418959370049,0.0,0.0,0.0,-0.0008352418959370049,-0.0,0.0,0,0,0,0
1707469106,633414258,base_link,False,False,False,0.0,2.5,0.0,0.0,-0.0008352418959370049,0.0,0.0,0.0,-0.0008352418959370049,-0.0,0.0,0,0,0,0
1707469106,643411842,base_link,False,False,False,0.0,2.5,0.0,0.0,-0.0004311618034659523,0.0,0.0,0.0,-0.0004311618034659523,-0.0,0.0,0,0,0,0
1707469106,653411172,base_link,False,False,False,0.0,2.5,0.0,0.0,-0.0004311618034659523,0.0,0.0,0.0,-0.0004311618034659523,-0.0,0.0,0,0,0,0
1707469106,663415322,base_link,False,False,False,0.0,2.5,0.0,0.0,-0.0004311618034659523,0.0,0.0,0.0,-0.0004311618034659523,-0.0,0.0,0,0,0,0
1707469106,673411020,base_link,False,False,False,0.0,2.5,0.0,0.0,-0.0004311618034659523,0.0,0.0,0.0,-0.0004311618034659523,-0.0,0.0,0,0,0,0
1707469106,683419081,base_link,False,False,False,0.0,2.5,0.0,0.0,-0.0004311618034659523,0.0,0.0,0.0,-0.0004311618034659523,-0.0,0.0,0,0,0,0
1707469106,693410449,base_link,False,False,False,0.0,2.5,0.0,0.0,-0.0006711988023687296,0.0,0.0,0.0,-0.0006711988023687296,-0.0,0.0,0,0,0,0
1707469106,703409221,base_link,False,False,False,0.0,2.5,0.0,0.0,-0.0006711988023687296,0.0,0.0,0.0,-0.0006711988023687296,-0.0,0.0,0,0,0,0
1707469106,713413230,base_link,False,False,False,0.0,2.5,0.0,0.0,-0.0006711988023687296,0.0,0.0,0.0,-0.0006711988023687296,-0.0,0.0,0,0,0,0
1707469106,723412002,base_link,False,False,False,0.0,2.5,0.0,0.0,-0.0006711988023687296,0.0,0.0,0.0,-0.0006711988023687296,-0.0,0.0,0,0,0,0
1707469106,733413427,base_link,False,False,False,0.0,2.5,0.0,0.0,-0.0006711988023687296,0.0,0.0,0.0,-0.0006711988023687296,-0.0,0.0,0,0,0,0
1707469106,743411081,base_link,False,False,False,0.0,2.5,0.0,0.0,0.00020786111662036993,0.0,0.0,0.0,0.00020786111662036993,-0.0,0.0,0,0,0,0
1707469106,753408596,base_link,False,False,False,0.0,2.5,0.0,0.0,0.00020786111662036993,0.0,0.0,0.0,0.00020786111662036993,-0.0,0.0,0,0,0,0
1707469106,763412815,base_link,False,False,False,0.0,2.5,0.0,0.0,0.00020786111662036993,0.0,0.0,0.0,0.00020786111662036993,-0.0,0.0,0,0,0,0
1707469106,773414101,base_link,False,False,False,0.0,2.5,0.0,0.0,0.00020786111662036993,0.0,0.0,0.0,0.00020786111662036993,-0.0,0.0,0,0,0,0
1707469106,783419438,base_link,False,False,False,0.0,2.5,0.0,0.0,0.00020786111662036993,0.0,0.0,0.0,0.00020786111662036993,-0.0,0.0,0,0,0,0
1707469106,793415485,base_link,False,False,False,0.0,2.5,0.0,0.0,-0.0004311618034659523,0.0,0.0,0.0,-0.0004311618034659523,-0.0,0.0,0,0,0,0
1707469106,803414955,base_link,False,False,False,0.0,2.5,0.0,0.0,-0.0004311618034659523,0.0,0.0,0.0,-0.0004311618034659523,-0.0,0.0,0,0,0,0
1707469106,813413378,base_link,False,False,False,0.0,2.5,0.0,0.0,-0.0004311618034659523,0.0,0.0,0.0,-0.0004311618034659523,-0.0,0.0,0,0,0,0
1707469106,823412359,base_link,False,False,False,0.0,2.5,0.0,0.0,-0.0004311618034659523,0.0,0.0,0.0,-0.0004311618034659523,-0.0,0.0,0,0,0,0
1707469106,833413714,base_link,False,False,False,0.0,2.5,0.0,0.0,-0.0004311618034659523,0.0,0.0,0.0,-0.0004311618034659523,-0.0,0.0,0,0,0,0
1707469106,843413184,base_link,False,False,False,0.0,2.5,0.0,0.0,-0.00034623826368945754,0.0,0.0,0.0,-0.00034623826368945754,-0.0,0.0,0,0,0,0
1707469106,853408324,base_link,False,False,False,0.0,2.5,0.0,0.0,-0.00034623826368945754,0.0,0.0,0.0,-0.00034623826368945754,-0.0,0.0,0,0,0,0
1707469106,863407864,base_link,False,False,False,0.0,2.5,0.0,0.0,-0.00034623826368945754,0.0,0.0,0.0,-0.00034623826368945754,-0.0,0.0,0,0,0,0
1707469106,873412502,base_link,False,False,False,0.0,2.5,0.0,0.0,-0.00034623826368945754,0.0,0.0,0.0,-0.00034623826368945754,-0.0,0.0,0,0,0,0
1707469106,883416233,base_link,False,False,False,0.0,2.5,0.0,0.0,-0.00034623826368945754,0.0,0.0,0.0,-0.00034623826368945754,-0.0,0.0,0,0,0,0
1707469106,893418706,base_link,False,False,False,0.0,2.5,0.0,0.0,-0.0010290930378779326,0.0,0.0,0.0,-0.0010290930378779326,-0.0,0.0,0,0,0,0
1707469106,903413636,base_link,False,False,False,0.0,2.5,0.0,0.0,-0.0010290930378779326,0.0,0.0,0.0,-0.0010290930378779326,-0.0,0.0,0,0,0,0
1707469106,913416668,base_link,False,False,False,0.0,2.5,0.0,0.0,-0.0010290930378779326,0.0,0.0,0.0,-0.0010290930378779326,-0.0,0.0,0,0,0,0
1707469106,923415928,base_link,False,False,False,0.0,2.5,0.0,0.0,-0.0010290930378779326,0.0,0.0,0.0,-0.0010290930378779326,-0.0,0.0,0,0,0,0
1707469106,933411766,base_link,False,False,False,0.0,2.5,0.0,0.0,-0.0010290930378779326,0.0,0.0,0.0,-0.0010290930378779326,-0.0,0.0,0,0,0,0
1707469106,943407744,base_link,False,False,False,0.0,2.5,0.0,0.0,-0.0001885139042943206,0.0,0.0,0.0,-0.0001885139042943206,-0.0,0.0,0,0,0,0
1707469106,953415945,base_link,False,False,False,0.0,2.5,0.0,0.0,-0.0001885139042943206,0.0,0.0,0.0,-0.0001885139042943206,-0.0,0.0,0,0,0,0
1707469106,963436717,base_link,False,False,False,0.0,2.5,0.0,0.0,-0.0001885139042943206,0.0,0.0,0.0,-0.0001885139042943206,-0.0,0.0,0,0,0,0
1707469106,973415024,base_link,False,False,False,0.0,2.5,0.0,0.0,-0.0001885139042943206,0.0,0.0,0.0,-0.0001885139042943206,-0.0,0.0,0,0,0,0
1707469106,983430838,base_link,False,False,False,0.0,2.5,0.0,0.0,-0.0001885139042943206,0.0,0.0,0.0,-0.0001885139042943206,-0.0,0.0,0,0,0,0
1707469106,993412288,base_link,False,False,False,0.0,2.5,0.0,0.0,-0.0004977128070748936,0.0,0.0,0.0,-0.0004977128070748936,-0.0,0.0,0,0,0,0
1707469107,3408615,base_link,False,False,False,0.0,2.5,0.0,0.0,-0.0004977128070748936,0.0,0.0,0.0,-0.0004977128070748936,-0.0,0.0,0,0,0,0
1707469107,13412555,base_link,False,False,False,0.0,2.5,0.0,0.0,-0.0004977128070748936,0.0,0.0,0.0,-0.0004977128070748936,-0.0,0.0,0,0,0,0
1707469107,23409999,base_link,False,False,False,0.0,2.5,0.0,0.0,-0.0004977128070748936,0.0,0.0,0.0,-0.0004977128070748936,-0.0,0.0,0,0,0,0
1707469107,33412892,base_link,False,False,False,0.0,2.5,0.0,0.0,-0.0004977128070748936,0.0,0.0,0.0,-0.0004977128070748936,-0.0,0.0,0,0,0,0
1707469107,43412711,base_link,False,False,False,0.0,2.5,0.0,0.0,-0.000560825186096963,0.0,0.0,0.0,-0.000560825186096963,-0.0,0.0,0,0,0,0
1707469107,53409108,base_link,False,False,False,0.0,2.5,0.0,0.0,-0.000560825186096963,0.0,0.0,0.0,-0.000560825186096963,-0.0,0.0,0,0,0,0
1707469107,63413117,base_link,False,False,False,0.0,2.5,0.0,0.0,-0.000560825186096963,0.0,0.0,0.0,-0.000560825186096963,-0.0,0.0,0,0,0,0
1707469107,73416429,base_link,False,False,False,0.0,2.5,0.0,0.0,-0.000560825186096963,0.0,0.0,0.0,-0.000560825186096963,-0.0,0.0,0,0,0,0
1707469107,83412546,base_link,False,False,False,0.0,2.5,0.0,0.0,-0.000560825186096963,0.0,0.0,0.0,-0.000560825186096963,-0.0,0.0,0,0,0,0
1707469107,93418232,base_link,False,False,False,0.0,2.5,0.0,0.0,-0.000911421485765512,0.0,0.0,0.0,-0.000911421485765512,-0.0,0.0,0,0,0,0
1707469107,103407714,base_link,False,False,False,0.0,2.5,0.0,0.0,-0.000911421485765512,0.0,0.0,0.0,-0.000911421485765512,-0.0,0.0,0,0,0,0
1707469107,113412213,base_link,False,False,False,0.0,2.5,0.0,0.0,-0.000911421485765512,0.0,0.0,0.0,-0.000911421485765512,-0.0,0.0,0,0,0,0
1707469107,123410985,base_link,False,False,False,0.0,2.5,0.0,0.0,-0.000911421485765512,0.0,0.0,0.0,-0.000911421485765512,-0.0,0.0,0,0,0,0
1707469107,133412829,base_link,False,False,False,0.0,2.5,0.0,0.0,-0.000911421485765512,0.0,0.0,0.0,-0.000911421485765512,-0.0,0.0,0,0,0,0
1707469107,143413975,base_link,False,False,False,0.0,2.5,0.0,0.0,-0.0002960370723924428,0.0,0.0,0.0,-0.0002960370723924428,-0.0,0.0,0,0,0,0
1707469107,153409045,base_link,False,False,False,0.0,2.5,0.0,0.0,-0.0002960370723924428,0.0,0.0,0.0,-0.0002960370723924428,-0.0,0.0,0,0,0,0
1707469107,163411519,base_link,False,False,False,0.0,2.5,0.0,0.0,-0.0002960370723924428,0.0,0.0,0.0,-0.0002960370723924428,-0.0,0.0,0,0,0,0
1707469107,173410779,base_link,False,False,False,0.0,2.5,0.0,0.0,-0.0002960370723924428,0.0,0.0,0.0,-0.0002960370723924428,-0.0,0.0,0,0,0,0
1707469107,183459978,base_link,False,False,False,0.0,2.5,0.0,0.0,-0.0002960370723924428,0.0,0.0,0.0,-0.0002960370723924428,-0.0,0.0,0,0,0,0
1707469107,193417891,base_link,False,False,False,0.0,2.5,0.0,0.0,-0.0005198725080488385,0.0,0.0,0.0,-0.0005198725080488385,-0.0,0.0,0,0,0,0
1707469107,203408840,base_link,False,False,False,0.0,2.5,0.0,0.0,-0.0005198725080488385,0.0,0.0,0.0,-0.0005198725080488385,-0.0,0.0,0,0,0,0
1707469107,213418157,base_link,False,False,False,0.0,2.5,0.0,0.0,-0.0005198725080488385,0.0,0.0,0.0,-0.0005198725080488385,-0.0,0.0,0,0,0,0
1707469107,223411132,base_link,False,False,False,0.0,2.5,0.0,0.0,-0.0005198725080488385,0.0,0.0,0.0,-0.0005198725080488385,-0.0,0.0,0,0,0,0
1707469107,233412977,base_link,False,False,False,0.0,2.5,0.0,0.0,-0.0005198725080488385,0.0,0.0,0.0,-0.0005198725080488385,-0.0,0.0,0,0,0,0
1707469107,243413843,base_link,False,False,False,0.0,2.5,0.0,0.0,-0.0005628238801873534,0.0,0.0,0.0,-0.0005628238801873534,-0.0,0.0,0,0,0,0
1707469107,253408075,base_link,False,False,False,0.0,2.5,0.0,0.0,-0.0005628238801873534,0.0,0.0,0.0,-0.0005628238801873534,-0.0,0.0,0,0,0,0
1707469107,263411317,base_link,False,False,False,0.0,2.5,0.0,0.0,-0.0005628238801873534,0.0,0.0,0.0,-0.0005628238801873534,-0.0,0.0,0,0,0,0
1707469107,273409809,base_link,False,False,False,0.0,2.5,0.0,0.0,-0.0005628238801873534,0.0,0.0,0.0,-0.0005628238801873534,-0.0,0.0,0,0,0,0
1707469107,283417381,base_link,False,False,False,0.0,2.5,0.0,0.0,-0.0005628238801873534,0.0,0.0,0.0,-0.0005628238801873534,-0.0,0.0,0,0,0,0
1707469107,293426000,base_link,False,False,False,0.0,2.5,0.0,0.0,-0.0005454947552585973,0.0,0.0,0.0,-0.0005454947552585973,-0.0,0.0,0,0,0,0
1707469107,303412898,base_link,False,False,False,0.0,2.5,0.0,0.0,-0.0005454947552585973,0.0,0.0,0.0,-0.0005454947552585973,-0.0,0.0,0,0,0,0
1707469107,313415232,base_link,False,False,False,0.0,2.5,0.0,0.0,-0.0005454947552585973,0.0,0.0,0.0,-0.0005454947552585973,-0.0,0.0,0,0,0,0
1707469107,323362598,base_link,False,False,False,0.0,2.5,0.0,0.0,-0.0005454947552585973,0.0,0.0,0.0,-0.0005454947552585973,-0.0,0.0,0,0,0,0
1707469107,333420807,base_link,False,False,False,0.0,2.5,0.0,0.0,-0.0005454947552585973,0.0,0.0,0.0,-0.0005454947552585973,-0.0,0.0,0,0,0,0
1707469107,343415946,base_link,False,False,False,0.0,2.5,0.0,0.0,-0.0003313585352778074,0.0,0.0,0.0,-0.0003313585352778074,-0.0,0.0,0,0,0,0
1707469107,353412553,base_link,False,False,False,0.0,2.5,0.0,0.0,-0.0003313585352778074,0.0,0.0,0.0,-0.0003313585352778074,-0.0,0.0,0,0,0,0
1707469107,363410975,base_link,False,False,False,0.0,2.5,0.0,0.0,-0.0003313585352778074,0.0,0.0,0.0,-0.0003313585352778074,-0.0,0.0,0,0,0,0
1707469107,373417220,base_link,False,False,False,0.0,2.5,0.0,0.0,-0.0003313585352778074,0.0,0.0,0.0,-0.0003313585352778074,-0.0,0.0,0,0,0,0
1707469107,383415852,base_link,False,False,False,0.0,2.5,0.0,0.0,-0.0003313585352778074,0.0,0.0,0.0,-0.0003313585352778074,-0.0,0.0,0,0,0,0
1707469107,393414553,base_link,False,False,False,0.0,2.5,0.0,0.0,-0.0003313585352778074,0.0,0.0,0.0,-0.0003313585352778074,-0.0,0.0,0,0,0,0
1707469107,403414303,base_link,False,False,False,0.0,2.5,0.0,0.0,-0.0003313585352778074,0.0,0.0,0.0,-0.0003313585352778074,-0.0,0.0,0,0,0,0
1707469107,413418731,base_link,False,False,False,0.0,2.5,0.0,0.0,-0.0003313585352778074,0.0,0.0,0.0,-0.0003313585352778074,-0.0,0.0,0,0,0,0
1707469107,423411706,base_link,False,False,False,0.0,2.5,0.0,0.0,-0.0003313585352778074,0.0,0.0,0.0,-0.0003313585352778074,-0.0,0.0,0,0,0,0
1707469107,433412503,base_link,False,False,False,0.0,2.5,0.0,0.0,-0.0003313585352778074,0.0,0.0,0.0,-0.0003313585352778074,-0.0,0.0,0,0,0,0
1707469107,443412043,base_link,False,False,False,0.0,2.5,0.0,0.0,-0.0005864280058131854,0.0,0.0,0.0,-0.0005864280058131854,-0.0,0.0,0,0,0,0
1707469107,453411443,base_link,False,False,False,0.0,2.5,0.0,0.0,-0.0005864280058131854,0.0,0.0,0.0,-0.0005864280058131854,-0.0,0.0,0,0,0,0
1707469107,463414545,base_link,False,False,False,0.0,2.5,0.0,0.0,-0.0005864280058131854,0.0,0.0,0.0,-0.0005864280058131854,-0.0,0.0,0,0,0,0
1707469107,473411081,base_link,False,False,False,0.0,2.5,0.0,0.0,-0.0005864280058131854,0.0,0.0,0.0,-0.0005864280058131854,-0.0,0.0,0,0,0,0
1707469107,483435066,base_link,False,False,False,0.0,2.5,0.0,0.0,-0.0005864280058131854,0.0,0.0,0.0,-0.0005864280058131854,-0.0,0.0,0,0,0,0
1707469107,493418123,base_link,False,False,False,0.0,2.5,0.0,0.0,-0.0015485334650805834,0.0,0.0,0.0,-0.0015485334650805834,-0.0,0.0,0,0,0,0
1707469107,503408164,base_link,False,False,False,0.0,2.5,0.0,0.0,-0.0015485334650805834,0.0,0.0,0.0,-0.0015485334650805834,-0.0,0.0,0,0,0,0
1707469107,513409939,base_link,False,False,False,0.0,2.5,0.0,0.0,-0.0015485334650805834,0.0,0.0,0.0,-0.0015485334650805834,-0.0,0.0,0,0,0,0
