header_stamp_sec, header_stamp_nanosec, header_frame_id, runner_detected, x, y, phi, vx_b, ax_b, relative_distance_to_airshield_x, relative_distance_to_airshield_y, relative_speed_to_airshield_x, relative_acceleration_to_airshield_x, stamp_lidar_sec, stamp_lidar_nanosec, stamp_zed_sec, stamp_zed_nanosec
1707469103,276960155,base_link,False,1.2205134419943586e-05,0.0,0.0,-0.001711130547471383,-0.2147001953194808,0.0,0.0,-0.0,-0.0,1707469103,195140352,0,0
1707469103,326954222,base_link,False,9.201029213577077e-06,0.0,0.0,-0.0006753979304426935,-2.455106370079332e-09,0.0,0.0,-0.0,-0.0,1707469103,245585408,0,0
1707469103,376944098,base_link,False,-6.356577757534839e-06,0.0,0.0,-0.0003140991749586234,-5.309877155181321e-10,0.0,0.0,-0.0,-0.0,1707469103,295998976,0,0
1707469103,426976999,base_link,False,4.154539876248048e-06,0.0,0.0,0.00026034450713995885,4.1209771214162043e-10,0.0,0.0,-0.0,-0.0,1707469103,346428672,0,0
1707469103,476949763,base_link,False,6.8359250505389765e-06,0.0,0.0,-0.0008193268504214958,-4.018290512411267e-09,0.0,0.0,-0.0,-0.0,1707469103,396865792,0,0
1707469103,526958358,base_link,False,1.2782402367098989e-05,0.0,0.0,-0.0004581963124782473,1.166614087912882e-09,0.0,0.0,-0.0,-0.0,1707469103,447309824,0,0
1707469103,576972889,base_link,False,0.0,0.0,0.0,0.0,0.0,0.0,0.0,-0.0,-0.0,1707469103,497722880,0,0
1707469103,626955013,base_link,False,1.305626082495696e-05,0.0,0.0,-0.0004947780485584514,-1.3175640631689745e-09,0.0,0.0,-0.0,-0.0,1707469103,548152832,0,0
1707469103,676952014,base_link,False,-1.4710143014492457e-05,0.0,0.0,-0.0007054687440023225,-2.6785907636396456e-09,0.0,0.0,-0.0,-0.0,1707469103,598581504,0,0
1707469103,726949363,base_link,False,3.049502006805291e-06,0.0,0.0,-0.0010130127732132094,-6.33801583079636e-09,0.0,0.0,-0.0,-0.0,1707469103,649008128,0,0
1707469103,776959634,base_link,False,-8.079273134987482e-06,0.0,0.0,-0.0004279308725241987,-5.631349307841042e-10,0.0,0.0,-0.0,-0.0,1707469103,699453696,0,0
1707469103,826957962,base_link,False,1.653453362888959e-06,0.0,0.0,0.0001268773823623068,9.725243064142443e-10,0.0,0.0,-0.0,-0.0,1707469103,749881344,0,0
1707469103,876951819,base_link,False,-2.1327964767704193e-06,0.0,0.0,-6.680039228765971e-05,1.4447617004675246e-09,0.0,0.0,-0.0,-0.0,1707469103,800301568,0,0
1707469103,926977665,base_link,False,8.995979629425093e-06,0.0,0.0,-0.0006518822091731362,4.1906054098257055e-10,0.0,0.0,-0.0,-0.0,1707469103,850742784,0,0
1707469103,976949103,base_link,False,3.049502006805291e-06,0.0,0.0,-0.0010130127732132094,-6.33801583079636e-09,0.0,0.0,-0.0,-0.0,1707469103,901168640,0,0
1707469104,26949246,base_link,False,-8.55861539707867e-06,0.0,0.0,-0.00036785384929368563,1.3771988408363511e-09,0.0,0.0,-0.0,-0.0,1707469103,951599104,0,0
1707469104,76958190,base_link,False,-2.1327964767704193e-06,0.0,0.0,-6.680039228765971e-05,1.4447617004675246e-09,0.0,0.0,-0.0,-0.0,1707469104,2023680,0,0
1707469104,126947648,base_link,False,1.1128644970700185e-05,0.0,0.0,-0.0005850879916627981,-1.8424395496510679e-09,0.0,0.0,-0.0,-0.0,1707469104,52470272,0,0
1707469104,176952052,base_link,False,1.4132808960183318e-05,0.0,0.0,-0.0016208180448356016,-0.21470019623729453,0.0,0.0,-0.0,-0.0,1707469104,102873856,0,0
1707469104,226970634,base_link,False,-1.257734704273662e-05,0.0,0.0,-0.0006386683529549007,-2.218573678336437e-09,0.0,0.0,-0.0,-0.0,1707469104,153318144,0,0
1707469104,276947519,base_link,False,2.028433581805886e-05,0.0,0.0,-0.0012832032694298718,-0.21470019804307242,0.0,0.0,-0.0,-0.0,1707469104,203752960,0,0
1707469104,326960514,base_link,False,9.201029213577077e-06,0.0,0.0,-0.0006753979304426935,-2.455106370079332e-09,0.0,0.0,-0.0,-0.0,1707469104,254166784,0,0
1707469104,376990132,base_link,False,4.22378109796632e-06,0.0,0.0,0.0002472987622861516,4.753316358479151e-10,0.0,0.0,-0.0,-0.0,1707469104,304607744,0,0
1707469104,426950394,base_link,False,-4.498073892074484e-06,0.0,0.0,-0.00021073745521702945,-2.3902005364183303e-10,0.0,0.0,-0.0,-0.0,1707469104,355031040,0,0
1707469104,476984482,base_link,False,2.529050662213512e-05,0.0,0.0,0.00019351765780602638,4.28989687164677e-09,0.0,0.0,-0.0,-0.0,1707469104,405459712,0,0
1707469104,526990702,base_link,False,1.3858754741252301e-05,0.0,0.0,-0.0015842448776285443,-0.21470019359432657,0.0,0.0,-0.0,-0.0,1707469104,455888128,0,0
1707469104,576948380,base_link,False,-6.1515270126103106e-06,0.0,0.0,-0.0003376148022744745,0.0,0.0,0.0,-0.0,-0.0,1707469104,506313984,0,0
1707469104,626955229,base_link,False,-1.2782397347876743e-05,0.0,0.0,-0.0006151526968156062,-2.036651369639507e-09,0.0,0.0,-0.0,-0.0,1707469104,556751104,0,0
1707469104,676959982,base_link,False,-2.742923250832846e-07,0.0,0.0,3.656135246485456e-05,1.242981705362858e-09,0.0,0.0,-0.0,-0.0,1707469104,607176448,0,0
1707469104,726979821,base_link,False,-2.742923250832846e-07,0.0,0.0,3.656135246485456e-05,1.242981705362858e-09,0.0,0.0,-0.0,-0.0,1707469104,657631744,0,0
1707469104,776994283,base_link,False,2.844452267931779e-06,0.0,0.0,-0.0009894970788117425,-5.269626849033955e-09,0.0,0.0,-0.0,-0.0,1707469104,708043520,0,0
1707469104,826957479,base_link,False,1.1218862429521735e-06,0.0,0.0,-0.00110332272279883,-7.557672221759564e-09,0.0,0.0,-0.0,-0.0,1707469104,758477056,0,0
1707469104,876982627,base_link,False,0.0,0.0,0.0,0.0,0.0,0.0,0.0,-0.0,-0.0,1707469104,808908800,0,0
1707469104,926961258,base_link,False,-6.356577757534839e-06,0.0,0.0,-0.0003140991749586234,-5.309877155181321e-10,0.0,0.0,-0.0,-0.0,1707469104,859342080,0,0
1707469104,976945966,base_link,False,-6.356577757534839e-06,0.0,0.0,-0.0003140991749586234,-5.309877155181321e-10,0.0,0.0,-0.0,-0.0,1707469104,909768704,0,0
1707469105,26967691,base_link,False,-8.28432374797668e-06,0.0,0.0,-0.0004044152365613148,-8.802496993956373e-10,0.0,0.0,-0.0,-0.0,1707469104,960190976,0,0
1707469105,76947371,base_link,False,-2.742923250832846e-07,0.0,0.0,3.656135246485456e-05,1.242981705362858e-09,0.0,0.0,-0.0,-0.0,1707469105,10651648,0,0
1707469105,126959388,base_link,False,2.028433581805886e-05,0.0,0.0,-0.0012832032694298718,-0.21470019804307242,0.0,0.0,-0.0,-0.0,1707469105,61079296,0,0
1707469105,176956667,base_link,False,-6.1515270126103106e-06,0.0,0.0,-0.0003376148022744745,0.0,0.0,0.0,-0.0,-0.0,1707469105,111489024,0,0
1707469105,226944938,base_link,False,-1.9277455813527587e-05,0.0,0.0,-0.0009031603565780783,-4.3901613971752304e-09,0.0,0.0,-0.0,-0.0,1707469105,161916672,0,0
1707469105,276956885,base_link,False,-2.0505059019395919e-07,0.0,0.0,2.351565418438927e-05,1.2747902679737041e-09,0.0,0.0,-0.0,-0.0,1707469105,212348416,0,0
1707469105,326945574,base_link,False,1.3261311293406444e-05,0.0,0.0,-0.0005182936947362444,-1.2144330393661931e-09,0.0,0.0,-0.0,-0.0,1707469105,262781696,0,0
1707469105,376962340,base_link,False,1.2782402367098989e-05,0.0,0.0,-0.0004581963124782473,1.166614087912882e-09,0.0,0.0,-0.0,-0.0,1707469105,313200896,0,0
1707469105,426960249,base_link,False,2.6435862675934404e-05,0.0,0.0,-0.0009455884940241422,-0.2147001998488503,0.0,0.0,-0.0,-0.0,1707469105,363642880,0,0
1707469105,476951731,base_link,False,1.0277459976845331e-05,0.0,0.0,-0.001801443045782447,-0.2147001944894584,0.0,0.0,-0.0,-0.0,1707469105,414060288,0,0
1707469105,526946078,base_link,False,2.028433581805886e-05,0.0,0.0,-0.0012832032694298718,-0.21470019804307242,0.0,0.0,-0.0,-0.0,1707469105,464499456,0,0
1707469105,576959561,base_link,False,1.7280172073607005e-05,0.0,0.0,-0.0002474731640225206,1.5212716729234766e-09,0.0,0.0,-0.0,-0.0,1707469105,514918400,0,0
1707469105,626956772,base_link,False,1.4710017890847732e-05,0.0,0.0,-0.0003678863945944242,1.3771377196965987e-09,0.0,0.0,-0.0,-0.0,1707469105,565347840,0,0
1707469105,676942597,base_link,False,2.5564364982030968e-05,0.0,0.0,0.00015693587654687006,8.630378263408247e-10,0.0,0.0,-0.0,-0.0,1707469105,615786752,0,0
1707469105,726955731,base_link,False,4.22378109796632e-06,0.0,0.0,0.0002472987622861516,4.753316358479151e-10,0.0,0.0,-0.0,-0.0,1707469105,666218496,0,0
1707469105,776951684,base_link,False,7.707227537156377e-06,0.0,0.0,-0.001921859703469871,-0.21470019351932593,0.0,0.0,-0.0,-0.0,1707469105,716648448,0,0
1707469105,826973200,base_link,False,-4.498073892074484e-06,0.0,0.0,-0.00021073745521702945,-2.3902005364183303e-10,0.0,0.0,-0.0,-0.0,1707469105,767066880,0,0
1707469105,876956232,base_link,False,-6.218517698181535e-06,0.0,0.0,-0.0014135596458057886,-6.4371523463219494e-09,0.0,0.0,-0.0,-0.0,1707469105,817494784,0,0
1707469105,926954489,base_link,False,-2.2020379159107373e-06,0.0,0.0,-5.375467310794941e-05,1.425635897143584e-09,0.0,0.0,-0.0,-0.0,1707469105,867958016,0,0
1707469105,976961687,base_link,False,-2.0656620303976085e-05,0.0,0.0,-0.001066599276629001,-5.324397236112339e-09,0.0,0.0,-0.0,-0.0,1707469105,918353408,0,0
1707469106,26948770,base_link,False,1.748522225540354e-05,0.0,0.0,-0.0002709888457150875,-3.9523349240181044e-10,0.0,0.0,-0.0,-0.0,1707469105,968789248,0,0
1707469106,76948215,base_link,False,2.5564364982030968e-05,0.0,0.0,0.00015693587654687006,8.630378263408247e-10,0.0,0.0,-0.0,-0.0,1707469106,19236864,0,0
1707469106,126961000,base_link,False,1.133369530722366e-05,0.0,0.0,-0.0006086036464870094,-1.9531670095673733e-09,0.0,0.0,-0.0,-0.0,1707469106,69659648,0,0
1707469106,176949899,base_link,False,1.9412838137718706e-05,0.0,0.0,-0.0001806789090946872,-1.7569760651268422e-10,0.0,0.0,-0.0,-0.0,1707469106,120088064,0,0
1707469106,226958703,base_link,False,1.1128644970700185e-05,0.0,0.0,-0.0005850879916627981,-1.8424395496510679e-09,0.0,0.0,-0.0,-0.0,1707469106,170512128,0,0
1707469106,276947671,base_link,False,0.0,0.0,0.0,0.0,0.0,0.0,0.0,-0.0,-0.0,1707469106,220950784,0,0
1707469106,326955987,base_link,False,-1.9277460185105805e-06,0.0,0.0,-9.031605511902352e-05,-4.3901647468094477e-11,0.0,0.0,-0.0,-0.0,1707469106,271375104,0,0
1707469106,376955152,base_link,False,-3.3070750935615352e-06,0.0,0.0,-0.001327111948450349,-1.0958314239050481e-08,0.0,0.0,-0.0,-0.0,1707469106,321826304,0,0
1707469106,426949988,base_link,False,-1.1059701400740928e-05,0.0,0.0,-0.0005013209400127894,1.035115601147711e-09,0.0,0.0,-0.0,-0.0,1707469106,372236288,0,0
1707469106,476984145,base_link,False,6.630875021842822e-06,0.0,0.0,-0.0007958111754223078,-3.408559722642346e-09,0.0,0.0,-0.0,-0.0,1707469106,422676224,0,0
1707469106,526965710,base_link,False,-8.353565378599186e-06,0.0,0.0,-0.00039136954094829996,-8.243751472750571e-10,0.0,0.0,-0.0,-0.0,1707469106,473087232,0,0
1707469106,576954748,base_link,False,-6.425819683909952e-06,0.0,0.0,-0.00030105350024502305,-4.877959864867894e-10,0.0,0.0,-0.0,-0.0,1707469106,473087232,0,0
1707469106,626966416,base_link,False,4.793476765866552e-07,0.0,0.0,-0.0011334260383663683,-7.983733533197575e-09,0.0,0.0,-0.0,-0.0,1707469106,523537664,0,0
1707469106,676958248,base_link,False,1.1128644970700185e-05,0.0,0.0,-0.0005850879916627981,-1.8424395496510679e-09,0.0,0.0,-0.0,-0.0,1707469106,573971968,0,0
1707469106,726960278,base_link,False,2.028433581805886e-05,0.0,0.0,-0.0012832032694298718,-0.21470019804307242,0.0,0.0,-0.0,-0.0,1707469106,624389376,0,0
1707469106,776961119,base_link,False,-1.9277460185105805e-06,0.0,0.0,-9.031605511902352e-05,-4.3901647468094477e-11,0.0,0.0,-0.0,-0.0,1707469106,674823936,0,0
1707469106,826957282,base_link,False,1.1128644970700185e-05,0.0,0.0,-0.0005850879916627981,-1.8424395496510679e-09,0.0,0.0,-0.0,-0.0,1707469106,725233152,0,0
1707469106,877052622,base_link,False,2.829428563356433e-05,0.0,0.0,-0.0008422307446769836,-0.21470020219543468,0.0,0.0,-0.0,-0.0,1707469106,775667200,0,0
1707469106,926964833,base_link,False,-1.2508104924875718e-05,0.0,0.0,-0.0006517140041016361,-2.336765699009968e-09,0.0,0.0,-0.0,-0.0,1707469106,826115840,0,0
1707469106,976949471,base_link,False,-1.2713155204075611e-05,0.0,0.0,-0.0006281983458549167,-2.123950679488195e-09,0.0,0.0,-0.0,-0.0,1707469106,876538624,0,0
1707469107,26954084,base_link,False,9.201029213577077e-06,0.0,0.0,-0.0006753979304426935,-2.455106370079332e-09,0.0,0.0,-0.0,-0.0,1707469106,926952960,0,0
1707469107,77060111,base_link,False,4.793476765866552e-07,0.0,0.0,-0.0011334260383663683,-7.983733533197575e-09,0.0,0.0,-0.0,-0.0,1707469106,977393664,0,0
1707469107,126946968,base_link,False,-1.3794592606355582e-06,0.0,0.0,-0.001236801988056449,-9.52110952167088e-09,0.0,0.0,-0.0,-0.0,1707469107,27825920,0,0
1707469107,176948229,base_link,False,5.481566694269616e-07,0.0,0.0,-0.001146492023337961,-8.17169612805468e-09,0.0,0.0,-0.0,-0.0,1707469107,78246912,0,0
1707469107,226959477,base_link,False,-1.4710143014492457e-05,0.0,0.0,-0.0007054687440023225,-2.6785907636396456e-09,0.0,0.0,-0.0,-0.0,1707469107,128681728,0,0
1707469107,276960738,base_link,False,-8.353565378599186e-06,0.0,0.0,-0.00039136954094829996,-8.243751472750571e-10,0.0,0.0,-0.0,-0.0,1707469107,179106304,0,0
1707469107,326953409,base_link,False,-8.55861539707867e-06,0.0,0.0,-0.00036785384929368563,1.3771988408363511e-09,0.0,0.0,-0.0,-0.0,1707469107,229532928,0,0
1707469107,376944542,base_link,False,-1.9969874317108617e-06,0.0,0.0,-7.727033383189867e-05,-3.213486305848347e-11,0.0,0.0,-0.0,-0.0,1707469107,279981056,0,0
1707469107,426948248,base_link,False,-1.9969874317108617e-06,0.0,0.0,-7.727033383189867e-05,-3.213486305848347e-11,0.0,0.0,-0.0,-0.0,1707469107,330397184,0,0
1707469107,476953909,base_link,False,-1.663788858396065e-05,0.0,0.0,-0.0007957847868642598,-3.4083333322927524e-09,0.0,0.0,-0.0,-0.0,1707469107,380840704,0,0
1707469107,526942668,base_link,False,4.154539876248048e-06,0.0,0.0,0.00026034450713995885,4.1209771214162043e-10,0.0,0.0,-0.0,-0.0,1707469107,431268608,0,0
1707469107,576949027,base_link,False,-2.0505059019395919e-07,0.0,0.0,2.351565418438927e-05,1.2747902679737041e-09,0.0,0.0,-0.0,-0.0,1707469107,481707264,0,0
1707469107,626968029,base_link,False,9.634901850732886e-06,0.0,0.0,-0.0018315472109250875,-0.21470019423229342,0.0,0.0,-0.0,-0.0,1707469107,532115456,0,0
1707469107,676959791,base_link,False,1.1128644970700185e-05,0.0,0.0,-0.0005850879916627981,-1.8424395496510679e-09,0.0,0.0,-0.0,-0.0,1707469107,582570752,0,0
1707469107,726962589,base_link,False,-8.353565378599186e-06,0.0,0.0,-0.00039136954094829996,-8.243751472750571e-10,0.0,0.0,-0.0,-0.0,1707469107,632988928,0,0
1707469107,776944642,base_link,False,1.3858754741252301e-05,0.0,0.0,-0.0015842448776285443,-0.21470019359432657,0.0,0.0,-0.0,-0.0,1707469107,683444480,0,0
1707469107,826960012,base_link,False,-1.1059701400740928e-05,0.0,0.0,-0.0005013209400127894,1.035115601147711e-09,0.0,0.0,-0.0,-0.0,1707469107,733857536,0,0
1707469107,876956733,base_link,False,4.977117867793367e-06,0.0,0.0,-0.0009227028193030755,-5.2061507722256115e-09,0.0,0.0,-0.0,-0.0,1707469107,784284160,0,0
1707469107,926961696,base_link,False,1.4132808960183318e-05,0.0,0.0,-0.0016208180448356016,-0.21470019623729453,0.0,0.0,-0.0,-0.0,1707469107,834714368,0,0
1707469107,976959814,base_link,False,5.481566694269616e-07,0.0,0.0,-0.001146492023337961,-8.17169612805468e-09,0.0,0.0,-0.0,-0.0,1707469107,885137920,0,0
1707469108,26945220,base_link,False,9.269838409220361e-06,0.0,0.0,-0.0006884639111150889,-2.551016356421023e-09,0.0,0.0,-0.0,-0.0,1707469107,935557888,0,0
1707469108,76962895,base_link,False,4.772067996993996e-06,0.0,0.0,-0.0008991871335480227,-4.351620502850856e-09,0.0,0.0,-0.0,-0.0,1707469107,985990912,0,0
1707469108,126968346,base_link,False,2.844452267931779e-06,0.0,0.0,-0.0009894970788117425,-5.269626849033955e-09,0.0,0.0,-0.0,-0.0,1707469108,36442112,0,0
1707469108,176956546,base_link,False,1.2205134419943586e-05,0.0,0.0,-0.001711130547471383,-0.2147001953194808,0.0,0.0,-0.0,-0.0,1707469108,86851584,0,0
1707469108,226969820,base_link,False,4.793476765866552e-07,0.0,0.0,-0.0011334260383663683,-7.983733533197575e-09,0.0,0.0,-0.0,-0.0,1707469108,137288960,0,0
1707469108,276954040,base_link,False,1.748522225540354e-05,0.0,0.0,-0.0002709888457150875,-3.9523349240181044e-10,0.0,0.0,-0.0,-0.0,1707469108,187730176,0,0
1707469108,326947897,base_link,False,0.0,0.0,0.0,0.0,0.0,0.0,0.0,-0.0,-0.0,1707469108,238137088,0,0
1707469108,376963476,base_link,False,4.22378109796632e-06,0.0,0.0,0.0002472987622861516,4.753316358479151e-10,0.0,0.0,-0.0,-0.0,1707469108,288581632,0,0
1707469108,426981500,base_link,False,-5.8772293863618016e-06,0.0,0.0,-0.0014475252222484229,-1.3011151438374497e-08,0.0,0.0,-0.0,-0.0,1707469108,338998528,0,0
1707469108,476960131,base_link,False,-6.1515270126103106e-06,0.0,0.0,-0.0003376148022744745,0.0,0.0,0.0,-0.0,-0.0,1707469108,389427712,0,0
1707469108,526949100,base_link,False,-1.9277460185105805e-06,0.0,0.0,-9.031605511902352e-05,-4.3901647468094477e-11,0.0,0.0,-0.0,-0.0,1707469108,439856128,0,0
1707469108,576958183,base_link,False,2.535931482303777e-05,0.0,0.0,0.0001804515764614903,4.3714619472437655e-09,0.0,0.0,-0.0,-0.0,1707469108,490285312,0,0
1707469108,626953228,base_link,False,-2.742923250832846e-07,0.0,0.0,3.656135246485456e-05,1.242981705362858e-09,0.0,0.0,-0.0,-0.0,1707469108,540719104,0,0
1707469108,676964407,base_link,False,5.481566694269616e-07,0.0,0.0,-0.001146492023337961,-8.17169612805468e-09,0.0,0.0,-0.0,-0.0,1707469108,591168512,0,0
1707469108,726964131,base_link,False,4.977117867793367e-06,0.0,0.0,-0.0009227028193030755,-5.2061507722256115e-09,0.0,0.0,-0.0,-0.0,1707469108,641575680,0,0
1707469108,776961132,base_link,False,6.69968382319131e-06,0.0,0.0,-0.0008088771839597832,-3.5214054596578928e-09,0.0,0.0,-0.0,-0.0,1707469108,692015104,0,0
1707469108,826967002,base_link,False,-1.4574333460142176e-05,0.0,0.0,-0.0007159386414041565,-2.9453422932305276e-09,0.0,0.0,-0.0,-0.0,1707469108,742433792,0,0
1707469108,876959882,base_link,False,1.133369530722366e-05,0.0,0.0,-0.0006086036464870094,-1.9531670095673733e-09,0.0,0.0,-0.0,-0.0,1707469108,792882432,0,0
1707469108,926961143,base_link,False,7.804980617852402e-06,0.0,0.0,0.0004644922199416432,2.184068666470322e-09,0.0,0.0,-0.0,-0.0,1707469108,843314944,0,0
1707469108,976961706,base_link,False,-4.498073892074484e-06,0.0,0.0,-0.00021073745521702945,-2.3902005364183303e-10,0.0,0.0,-0.0,-0.0,1707469108,893740544,0,0
1707469109,26960431,base_link,False,6.8359250505389765e-06,0.0,0.0,-0.0008193268504214958,-4.018290512411267e-09,0.0,0.0,-0.0,-0.0,1707469108,944159744,0,0
1707469109,76949314,base_link,False,1.1128644970700185e-05,0.0,0.0,-0.0005850879916627981,-1.8424395496510679e-09,0.0,0.0,-0.0,-0.0,1707469108,994586368,0,0
1707469109,126951327,base_link,False,6.425825613590371e-06,0.0,0.0,-0.0007722954426242754,-2.492476038575574e-10,0.0,0.0,-0.0,-0.0,1707469109,45010432,0,0
1707469109,176961162,base_link,False,-2.742923250832846e-07,0.0,0.0,3.656135246485456e-05,1.242981705362858e-09,0.0,0.0,-0.0,-0.0,1707469109,95445248,0,0
1707469109,226960032,base_link,False,-8.55861539707867e-06,0.0,0.0,-0.00036785384929368563,1.3771988408363511e-09,0.0,0.0,-0.0,-0.0,1707469109,145873664,0,0
1707469109,276962674,base_link,False,2.8065710935174832e-05,0.0,0.0,0.0002904151675165536,2.593636323741895e-10,0.0,0.0,-0.0,-0.0,1707469109,196304640,0,0
1707469109,326951906,base_link,False,1.653453362888959e-06,0.0,0.0,0.0001268773823623068,9.725243064142443e-10,0.0,0.0,-0.0,-0.0,1707469109,246734592,0,0
1707469109,376958808,base_link,False,-2.0861670631906242e-05,0.0,0.0,-0.0010430836387109593,-6.734380368115644e-09,0.0,0.0,-0.0,-0.0,1707469109,297167872,0,0
1707469109,426955233,base_link,False,4.772067996993996e-06,0.0,0.0,-0.0008991871335480227,-4.351620502850856e-09,0.0,0.0,-0.0,-0.0,1707469109,347594752,0,0
1707469109,476957945,base_link,False,1.2987452241071024e-05,0.0,0.0,-0.0004817120143456551,-1.2488947177252547e-09,0.0,0.0,-0.0,-0.0,1707469109,398045440,0,0
1707469109,526955069,base_link,False,1.4983876776347551e-05,0.0,0.0,-0.00040446810112964714,-8.804799329607492e-10,0.0,0.0,-0.0,-0.0,1707469109,448457728,0,0
1707469109,576954568,base_link,False,4.22378109796632e-06,0.0,0.0,0.0002472987622861516,4.753316358479151e-10,0.0,0.0,-0.0,-0.0,1707469109,498892032,0,0
1707469109,626959724,base_link,False,1.7280172073607005e-05,0.0,0.0,-0.0002474731640225206,1.5212716729234766e-09,0.0,0.0,-0.0,-0.0,1707469109,549323520,0,0
1707469109,676960479,base_link,False,6.1515270126103106e-06,0.0,0.0,0.0003376148022744745,0.0,0.0,0.0,-0.0,-0.0,1707469109,599755008,0,0
1707469109,726960677,base_link,False,-2.570328003092638e-06,0.0,0.0,-0.00012042140586431295,-7.804737107107652e-11,0.0,0.0,-0.0,-0.0,1707469109,650173184,0,0
1707469109,776965693,base_link,False,0.0,0.0,0.0,0.0,0.0,0.0,0.0,-0.0,-0.0,1707469109,700632320,0,0
1707469109,827002768,base_link,False,2.028433581805886e-05,0.0,0.0,-0.0012832032694298718,-0.21470019804307242,0.0,0.0,-0.0,-0.0,1707469109,751061248,0,0
1707469109,876950023,base_link,False,1.2987452241071024e-05,0.0,0.0,-0.0004817120143456551,-1.2488947177252547e-09,0.0,0.0,-0.0,-0.0,1707469109,801481472,0,0
1707469109,926948404,base_link,False,-2.2020379159107373e-06,0.0,0.0,-5.375467310794941e-05,1.425635897143584e-09,0.0,0.0,-0.0,-0.0,1707469109,851898880,0,0
1707469109,976951185,base_link,False,-8.148514739669771e-06,0.0,0.0,-0.00041488517480375614,-4.763674382585874e-10,0.0,0.0,-0.0,-0.0,1707469109,902346752,0,0
1707469110,26951103,base_link,False,-1.3794592606355582e-06,0.0,0.0,-0.001236801988056449,-9.52110952167088e-09,0.0,0.0,-0.0,-0.0,1707469109,952754432,0,0
1707469110,76955002,base_link,False,1.133369530722366e-05,0.0,0.0,-0.0006086036464870094,-1.9531670095673733e-09,0.0,0.0,-0.0,-0.0,1707469110,3193088,0,0
1707469110,126950869,base_link,False,1.653453362888959e-06,0.0,0.0,0.0001268773823623068,9.725243064142443e-10,0.0,0.0,-0.0,-0.0,1707469110,53631488,0,0
1707469110,176955885,base_link,False,1.5786428950964376e-05,0.0,0.0,-0.0014939324002143602,-0.21470019482652725,0.0,0.0,-0.0,-0.0,1707469110,104048896,0,0
1707469110,226962787,base_link,False,4.772067996993996e-06,0.0,0.0,-0.0008991871335480227,-4.351620502850856e-09,0.0,0.0,-0.0,-0.0,1707469110,154474752,0,0
1707469110,276959422,base_link,False,6.425825613590371e-06,0.0,0.0,-0.0007722954426242754,-2.492476038575574e-10,0.0,0.0,-0.0,-0.0,1707469110,204906496,0,0
1707469110,326956616,base_link,False,-1.4915192567252089e-05,0.0,0.0,-0.0006819530214170659,2.6678681709713327e-10,0.0,0.0,-0.0,-0.0,1707469110,255343872,0,0
1707469110,376951645,base_link,False,1.9412838137718706e-05,0.0,0.0,-0.0001806789090946872,-1.7569760651268422e-10,0.0,0.0,-0.0,-0.0,1707469110,305767168,0,0
1707469110,426948978,base_link,False,1.5557606470220605e-05,0.0,0.0,-0.0003612987780111052,-7.025607431925353e-10,0.0,0.0,-0.0,-0.0,1707469110,356197888,0,0
1707469110,476947360,base_link,False,-1.2782397347876743e-05,0.0,0.0,-0.0006151526968156062,-2.036651369639507e-09,0.0,0.0,-0.0,-0.0,1707469110,406625536,0,0
1707469110,526958732,base_link,False,1.5557606470220605e-05,0.0,0.0,-0.0003612987780111052,-7.025607431925353e-10,0.0,0.0,-0.0,-0.0,1707469110,457064448,0,0
1707469110,576957392,base_link,False,6.630875021842822e-06,0.0,0.0,-0.0007958111754223078,-3.408559722642346e-09,0.0,0.0,-0.0,-0.0,1707469110,507486720,0,0
1707469110,626952421,base_link,False,4.154539876248048e-06,0.0,0.0,0.00026034450713995885,4.1209771214162043e-10,0.0,0.0,-0.0,-0.0,1707469110,557929216,0,0
1707469110,676949266,base_link,False,4.977117867793367e-06,0.0,0.0,-0.0009227028193030755,-5.2061507722256115e-09,0.0,0.0,-0.0,-0.0,1707469110,608345856,0,0
1707469110,726940523,base_link,False,6.904733825916555e-06,0.0,0.0,-0.0008323928610684222,-4.162077068375344e-09,0.0,0.0,-0.0,-0.0,1707469110,658794240,0,0
1707469110,777005954,base_link,False,9.634901850732886e-06,0.0,0.0,-0.0018315472109250875,-0.21470019423229342,0.0,0.0,-0.0,-0.0,1707469110,709216512,0,0
1707469110,826947901,base_link,False,-1.3794592606355582e-06,0.0,0.0,-0.001236801988056449,-9.52110952167088e-09,0.0,0.0,-0.0,-0.0,1707469110,759651840,0,0
1707469110,876948936,base_link,False,2.529050662213512e-05,0.0,0.0,0.00019351765780602638,4.28989687164677e-09,0.0,0.0,-0.0,-0.0,1707469110,810085120,0,0
1707469110,926995510,base_link,False,6.904733825916555e-06,0.0,0.0,-0.0008323928610684222,-4.162077068375344e-09,0.0,0.0,-0.0,-0.0,1707469110,860500224,0,0
1707469110,976959668,base_link,False,-1.1198182721973227e-05,0.0,0.0,-0.0004752294019330902,1.1170692645822586e-09,0.0,0.0,-0.0,-0.0,1707469110,910937088,0,0
1707469111,26948760,base_link,False,5.481566694269616e-07,0.0,0.0,-0.001146492023337961,-8.17169612805468e-09,0.0,0.0,-0.0,-0.0,1707469110,961374720,0,0
1707469111,76946722,base_link,False,1.913897943160307e-05,0.0,0.0,-0.00014409717826981442,1.5205010769607574e-09,0.0,0.0,-0.0,-0.0,1707469111,11801856,0,0
1707469111,126951878,base_link,False,-4.498073892074484e-06,0.0,0.0,-0.00021073745521702945,-2.3902005364183303e-10,0.0,0.0,-0.0,-0.0,1707469111,62233856,0,0
1707469111,176963459,base_link,False,1.4132808960183318e-05,0.0,0.0,-0.0016208180448356016,-0.21470019623729453,0.0,0.0,-0.0,-0.0,1707469111,112656896,0,0
1707469111,226947034,base_link,False,1.1128644970700185e-05,0.0,0.0,-0.0005850879916627981,-1.8424395496510679e-09,0.0,0.0,-0.0,-0.0,1707469111,163088384,0,0
1707469111,276949675,base_link,False,2.0010281945348226e-05,0.0,0.0,-0.0012466300517872178,-0.21470019366932722,0.0,0.0,-0.0,-0.0,1707469111,213520128,0,0
1707469111,326953015,base_link,False,-1.4710143014492457e-05,0.0,0.0,-0.0007054687440023225,-2.6785907636396456e-09,0.0,0.0,-0.0,-0.0,1707469111,263941888,0,0
1707469111,376970254,base_link,False,-2.3637047706321265e-05,0.0,0.0,-0.0011399893411597126,-6.994430213474542e-09,0.0,0.0,-0.0,-0.0,1707469111,314436864,0,0
1707469111,426949498,base_link,False,1.5147506990918407e-05,0.0,0.0,-0.00031426733953452963,6.1077479309990996e-09,0.0,0.0,-0.0,-0.0,1707469111,364813824,0,0
1707469111,476960172,base_link,False,-3.3070750935615352e-06,0.0,0.0,-0.001327111948450349,-1.0958314239050481e-08,0.0,0.0,-0.0,-0.0,1707469111,415245568,0,0
1707469111,526991100,base_link,False,-1.663788858396065e-05,0.0,0.0,-0.0007957847868642598,-3.4083333322927524e-09,0.0,0.0,-0.0,-0.0,1707469111,465658624,0,0
1707469111,576947994,base_link,False,5.984356003187092e-06,0.0,0.0,-0.002035700094263327,-0.21470019408508462,0.0,0.0,-0.0,-0.0,1707469111,516106752,0,0
1707469111,626964325,base_link,False,-1.2782397347876743e-05,0.0,0.0,-0.0006151526968156062,-2.036651369639507e-09,0.0,0.0,-0.0,-0.0,1707469111,566515712,0,0
1707469111,676948947,base_link,False,9.634901850732886e-06,0.0,0.0,-0.0018315472109250875,-0.21470019423229342,0.0,0.0,-0.0,-0.0,1707469111,616962816,0,0
1707469111,726949144,base_link,False,1.5352556420348868e-05,0.0,0.0,-0.0003377830876721777,1.4278030906376957e-09,0.0,0.0,-0.0,-0.0,1707469111,667388160,0,0
1707469111,776961774,base_link,False,0.0,0.0,0.0,0.0,0.0,0.0,0.0,-0.0,-0.0,1707469111,717805824,0,0
1707469111,826967558,base_link,False,1.092359525462355e-05,0.0,0.0,-0.0005615722790395964,8.178685159691656e-10,0.0,0.0,-0.0,-0.0,1707469111,768240128,0,0
1707469111,877051359,base_link,False,-2.742923250832846e-07,0.0,0.0,3.656135246485456e-05,1.242981705362858e-09,0.0,0.0,-0.0,-0.0,1707469111,818665728,0,0
1707469111,926949723,base_link,False,2.6366611499645063e-05,0.0,0.0,-0.0009325432004776673,-0.21470020013868277,0.0,0.0,-0.0,-0.0,1707469111,869105408,0,0
1707469111,976947197,base_link,False,6.630875021842822e-06,0.0,0.0,-0.0007958111754223078,-3.408559722642346e-09,0.0,0.0,-0.0,-0.0,1707469111,919530240,0,0
1707469112,26955845,base_link,False,-2.0505059019395919e-07,0.0,0.0,2.351565418438927e-05,1.2747902679737041e-09,0.0,0.0,-0.0,-0.0,1707469111,969964800,0,0
1707469112,76954156,base_link,False,9.634901850732886e-06,0.0,0.0,-0.0018315472109250875,-0.21470019423229342,0.0,0.0,-0.0,-0.0,1707469112,20396288,0,0
1707469112,126952747,base_link,False,9.201029213577077e-06,0.0,0.0,-0.0006753979304426935,-2.455106370079332e-09,0.0,0.0,-0.0,-0.0,1707469112,70832128,0,0
1707469112,176951757,base_link,False,2.639403149499022e-06,0.0,0.0,-0.0009659813266115778,-1.6516564960240292e-09,0.0,0.0,-0.0,-0.0,1707469112,121257984,0,0
1707469112,226968996,base_link,False,-2.0861670631906242e-05,0.0,0.0,-0.0010430836387109593,-6.734380368115644e-09,0.0,0.0,-0.0,-0.0,1707469112,171680256,0,0
1707469112,276969193,base_link,False,-6.0822784836109295e-06,0.0,0.0,-0.001424009485387596,-1.0913813839260021e-08,0.0,0.0,-0.0,-0.0,1707469112,222112256,0,0
1707469112,326963663,base_link,False,-3.3070750935615352e-06,0.0,0.0,-0.001327111948450349,-1.0958314239050481e-08,0.0,0.0,-0.0,-0.0,1707469112,272557824,0,0
1707469112,376962533,base_link,False,-1.9969874317108617e-06,0.0,0.0,-7.727033383189867e-05,-3.213486305848347e-11,0.0,0.0,-0.0,-0.0,1707469112,322982144,0,0
1707469112,426951345,base_link,False,2.193795605119587e-05,0.0,0.0,-0.0011563175895036332,-0.2147001954207611,0.0,0.0,-0.0,-0.0,1707469112,373405696,0,0
1707469112,476951542,base_link,False,-1.9277460185105805e-06,0.0,0.0,-9.031605511902352e-05,-4.3901647468094477e-11,0.0,0.0,-0.0,-0.0,1707469112,373405696,0,0
1707469112,526947549,base_link,False,1.4132808960183318e-05,0.0,0.0,-0.0016208180448356016,-0.21470019623729453,0.0,0.0,-0.0,-0.0,1707469112,423829504,0,0
1707469112,576953194,base_link,False,-1.4435851019182941e-05,0.0,0.0,-0.0007420300808349699,-3.2052610992587995e-09,0.0,0.0,-0.0,-0.0,1707469112,474270464,0,0
1707469112,626995647,base_link,False,-1.0854651584113364e-05,0.0,0.0,-0.0005248366453041045,-1.482515172623272e-09,0.0,0.0,-0.0,-0.0,1707469112,524687104,0,0
1707469112,677138675,base_link,False,-2.079242859237906e-05,0.0,0.0,-0.001056129285083151,-6.9093625631362806e-09,0.0,0.0,-0.0,-0.0,1707469112,575127808,0,0
1707469112,727423207,base_link,False,-6.1515270126103106e-06,0.0,0.0,-0.0003376148022744745,0.0,0.0,0.0,-0.0,-0.0,1707469112,625550336,0,0
1707469112,776949722,base_link,False,1.7075122512253108e-05,0.0,0.0,-0.0002239574245311701,5.987357534789191e-09,0.0,0.0,-0.0,-0.0,1707469112,675977472,0,0
1707469112,826992454,base_link,False,2.5564364982030968e-05,0.0,0.0,0.00015693587654687006,8.630378263408247e-10,0.0,0.0,-0.0,-0.0,1707469112,726417920,0,0
1707469112,876952141,base_link,False,1.4132808960183318e-05,0.0,0.0,-0.0016208180448356016,-0.21470019623729453,0.0,0.0,-0.0,-0.0,1707469112,776840704,0,0
1707469112,926949056,base_link,False,0.0,0.0,0.0,0.0,0.0,0.0,0.0,-0.0,-0.0,1707469112,827280384,0,0
1707469112,976947926,base_link,False,2.5564364982030968e-05,0.0,0.0,0.00015693587654687006,8.630378263408247e-10,0.0,0.0,-0.0,-0.0,1707469112,877714432,0,0
1707469113,26955317,base_link,False,1.133369530722366e-05,0.0,0.0,-0.0006086036464870094,-1.9531670095673733e-09,0.0,0.0,-0.0,-0.0,1707469112,928131072,0,0
1707469113,76946085,base_link,False,-1.1128942662969436e-05,0.0,0.0,-0.00048827521864142813,1.0770082830451099e-09,0.0,0.0,-0.0,-0.0,1707469112,978558976,0,0
1707469113,126948587,base_link,False,-4.498073892074484e-06,0.0,0.0,-0.00021073745521702945,-2.3902005364183303e-10,0.0,0.0,-0.0,-0.0,1707469113,29007104,0,0
1707469113,176958912,base_link,False,5.481566694269616e-07,0.0,0.0,-0.001146492023337961,-8.17169612805468e-09,0.0,0.0,-0.0,-0.0,1707469113,79424256,0,0
1707469113,226951077,base_link,False,-1.900316599344432e-05,0.0,0.0,-0.0009397218555821606,-5.412739009103936e-09,0.0,0.0,-0.0,-0.0,1707469113,129860864,0,0
1707469113,276959166,base_link,False,9.201029213577077e-06,0.0,0.0,-0.0006753979304426935,-2.455106370079332e-09,0.0,0.0,-0.0,-0.0,1707469113,180299776,0,0
1707469113,326947280,base_link,False,-1.3794592606355582e-06,0.0,0.0,-0.001236801988056449,-9.52110952167088e-09,0.0,0.0,-0.0,-0.0,1707469113,230711296,0,0
1707469113,377044421,base_link,False,-2.4070877796648836e-06,0.0,0.0,-3.0238954585048734e-05,5.43298844531235e-09,3.445546865463257,0.0,-0.0,-0.0,1707469113,281143296,0,0
1707469113,426944671,base_link,False,-3.4455268551813116,0.0,0.0,3.4443002354114696,-0.21470019366932722,3.4930224418640137,0.0,-0.0,-0.0,1707469113,331590400,0,0
1707469113,477060390,base_link,False,-3.4930049566417583,0.0,0.0,3.4927514530182986,-3.9523349240181044e-10,3.5539236068725586,0.0,-0.0,-0.0,1707469113,382009600,0,0
1707469113,526944437,base_link,False,-3.5539486923249335,0.0,0.0,3.5526332244165864,-9.109763607349822e-09,3.612389087677002,0.0,-0.0,-0.0,1707469113,432436736,0,0
1707469113,576963632,base_link,False,-3.6124101543973413,0.0,0.0,3.611369519734008,-5.594781438271339e-09,3.6522915363311768,0.0,-0.0,-0.0,1707469113,482875392,0,0
1707469113,626945530,base_link,False,-3.652287312550079,0.0,0.0,3.652538835093463,4.753316358479151e-10,3.719348430633545,0.0,-0.0,-0.0,1707469113,533314048,0,0
1707469113,676968356,base_link,False,-3.7193356482311777,0.0,0.0,3.7188902343210666,1.166614087912882e-09,3.760155200958252,0.0,-0.0,-0.0,1707469113,583797760,0,0
1707469113,726984408,base_link,False,-3.7601699111012663,0.0,0.0,3.7594497322142497,-2.6785907636396456e-09,3.812771797180176,0.0,-0.0,-0.0,1707469113,634159360,0,0
1707469113,776981252,base_link,False,-3.8127779487071884,0.0,0.0,3.8124341823779013,0.0,3.859473466873169,0.0,-0.0,-0.0,1707469113,684594176,0,0
1707469113,826960985,base_link,False,-3.8594539852254615,0.0,0.0,3.859279721999524,-2.0202791785036708e-10,3.8974521160125732,0.0,-0.0,-0.0,1707469113,735010816,0,0
1707469113,877023553,base_link,False,-3.8974523903048985,0.0,0.0,3.897488677365038,1.242981705362858e-09,3.940364360809326,0.0,-0.0,-0.0,1707469113,785443840,0,0
1707469113,926971507,base_link,False,-3.940352167173353,0.0,0.0,3.939832907337846,-1.8007872570430276e-09,3.9813526410461417,0.0,-0.0018611998832025027,-4.647190719606748e-05,1707469113,835884800,0,0
1707469113,976958853,base_link,False,-3.981334179412794,0.0,0.0,3.981191963961117,-0.0018612000491656474,4.015058298023524,0.0,-0.31903670839594106,-0.1521234279366687,1707469113,886306304,0,0
1707469114,26955767,base_link,False,-4.0149934188000085,0.0,0.0,4.014365348045371,-0.3190367113628277,4.048476689698143,0.0,-0.5359244481126126,-0.356023699118726,1707469113,936735232,0,0
1707469114,76954148,base_link,False,-4.048407709523457,0.0,0.0,4.048408785975923,-0.5359244474346181,4.076700983847585,0.0,-0.5661837570251774,-0.3754222756046971,1707469113,987187200,0,0
1707469114,126958606,base_link,False,-4.076616610442709,0.0,0.0,4.075090691834381,-0.5661837737168371,4.097723590929205,0.0,-0.48351327725594995,-0.16368536449534954,1707469114,37602816,0,0
1707469114,176961247,base_link,False,-4.097675432228251,0.0,0.0,4.09660401602661,-0.4835132844134733,4.117066828034776,0.0,-0.42413991196045764,0.00435767214733962,1707469114,88021760,0,0
1707469114,226962422,base_link,False,-4.11699932211098,0.0,0.0,4.117140858022919,-0.4241399118097787,4.13313121087011,0.0,-0.35378069011651225,0.19818589374373385,1707469114,138474752,0,0
1707469114,276949419,base_link,False,-4.133035746986604,0.0,0.0,4.132495024904041,-0.3448625107788091,4.158462515455899,0.0,-0.45289806774941477,-0.12302800552443588,1707469114,188893952,0,0
1707469114,327023022,base_link,False,-4.158324412979379,0.0,0.0,4.156691627017457,-0.6675982613405459,4.180274582582056,0.0,-0.4453085455378251,-0.08091283386560161,1707469114,239319808,0,0
1707469114,376950302,base_link,False,-4.180155356701994,0.0,0.0,4.179348133729528,-0.4453085508035326,4.208257863765521,0.0,-0.527977707593223,-0.3278924862382112,1707469114,289741312,0,0
1707469114,426943864,base_link,False,-4.208143190693353,0.0,0.0,4.2077866826233965,-0.5279777082228869,4.232903575075445,0.0,-0.5139950267564671,-0.23098625916934748,1707469114,340177408,0,0
1707469114,477004267,base_link,False,-4.232802365705517,0.0,0.0,4.232735680643904,-0.5139950269379207,4.252109313380453,0.0,-0.4300905641629909,0.07648441886147281,1707469114,390605568,0,0
1707469114,526981765,base_link,False,-4.2519798767336185,0.0,0.0,4.251204854600602,-0.4300905693271365,4.278442259637343,0.0,-0.49565395741685553,-0.14839192500358772,1707469114,441029632,0,0
1707469114,576971136,base_link,False,-4.278270054975595,0.0,0.0,4.27639024253556,-0.7103541511371184,4.307202801578413,0.0,-0.5565589458979346,-0.3224000226811028,1707469114,491487744,0,0
1707469114,626956456,base_link,False,-4.307052858369445,0.0,0.0,4.30633402673871,-0.5565589506516924,4.333977734657983,0.0,-0.552133154757635,-0.2553941288554456,1707469114,541908992,0,0
1707469114,676944850,base_link,False,-4.333814461600052,0.0,0.0,4.3338621321822615,-0.5610513364922151,4.365585628594935,0.0,-0.6168769074720707,-0.42515731308917226,1707469114,592328704,0,0
1707469114,726947980,base_link,False,-4.3654647555414785,0.0,0.0,4.363451441718486,-0.6168769346242344,4.39197572049675,0.0,-0.5677500129215892,-0.19503594847636901,1707469114,642760704,0,0
1707469114,776951460,base_link,False,-4.391924864161669,0.0,0.0,4.390584843491889,-0.5588318435562671,4.427255802421891,0.0,-0.6713869689582793,-0.502179557897602,1707469114,693195776,0,0
1707469114,826947047,base_link,False,-4.427185849814404,0.0,0.0,4.427084650005835,-0.6892233326183691,4.45853370311062,0.0,-0.6552718363845511,-0.3672633625533169,1707469114,743628288,0,0
1707469114,876946406,base_link,False,-4.458450907156784,0.0,0.0,4.457078055076822,-0.6552718500242701,4.490501220023953,0.0,-0.6559089520412916,-0.3092362230640212,1707469114,794048256,0,0
1707469114,926969442,base_link,False,-4.490435911747674,0.0,0.0,4.489751234289321,-0.6469907738438528,4.515182436538992,0.0,-0.5513135209227873,0.08383812836129007,1707469114,844481024,0,0
1707469114,976984586,base_link,False,-4.515258764551669,0.0,0.0,4.512949808578754,-0.524559006452236,4.535919891384931,0.0,-0.45216404397808585,0.3947651166257729,1707469114,894904832,0,0
1707469115,26969697,base_link,False,-4.536020708786021,0.0,0.0,4.535093231623486,-0.4343276846321648,4.551505005761614,0.0,-0.3402039649305305,0.6967529049673982,1707469114,945335808,0,0
1707469115,76947544,base_link,False,-4.551451030183065,0.0,0.0,4.551888485554149,-0.32236759923537317,4.567029770135569,0.0,-0.2966874027727393,0.7251738281603116,1707469114,995763200,0,0
1707469115,126983851,base_link,False,-4.566790251933239,0.0,0.0,4.566591344235774,-0.5113876093284763,4.575817039031709,0.0,-0.18782349628434317,0.962940618447518,1707469115,46193408,0,0
1707469115,176946960,base_link,False,-4.575240364269547,0.0,0.0,4.575041525411803,-0.39360551069231653,4.589707906919987,0.0,-0.22022990468809056,0.6991409483783924,1707469115,96635648,0,0
1707469115,226943805,base_link,False,-4.588948022752772,0.0,0.0,4.588343756226663,-0.22914809842308648,4.5966728003498,0.0,-0.14046241360478817,0.8458894550361434,1707469115,147050240,0,0
1707469115,276946517,base_link,False,-4.595751344485656,0.0,0.0,4.596883894270226,-0.14046240496483278,4.6048576262227305,0.0,-0.1295097878762353,0.7432482498866986,1707469115,197485312,0,0
1707469115,326946853,base_link,False,-4.60358081983759,0.0,0.0,4.604998396752464,-0.34421000048104244,4.6106182197477725,0.0,-0.09537221195632316,0.7333421937598393,1707469115,247915520,0,0
1707469115,376967026,base_link,False,-4.6092438465411165,0.0,0.0,4.60830380806922,-0.32790876893643617,4.615310748406008,0.0,-0.07057759744588468,0.6944607884790951,1707469115,298347008,0,0
1707469115,426945292,base_link,False,-4.613967453013826,0.0,0.0,4.614017622695711,-0.07949578973718359,4.6178258792203835,0.0,-0.033797084687785,0.7011988481210164,1707469115,348786944,0,0
1707469115,476943114,base_link,False,-4.616490485472663,0.0,0.0,4.6173229749891105,-0.024878904497632765,4.623529153331896,0.0,-0.06780192437894653,0.4750170178729137,1707469115,399216640,0,0
1707469115,526947223,base_link,False,-4.6221784825663965,0.0,0.0,4.623584734372033,-0.06780192421446432,4.630654379542955,0.0,-0.1051921063737008,0.2747847285949618,1707469115,449647360,0,0
1707469115,576954195,base_link,False,-4.629293797076619,0.0,0.0,4.629718742147527,-0.1051921117487558,4.633647489233913,0.0,-0.06429237143042876,0.36373335609558033,1707469115,500090368,0,0
1707469115,626956278,base_link,False,-4.632364160897764,0.0,0.0,4.632092500538234,-0.06429238358658948,4.63632960818767,0.0,-0.045006397895834764,0.3673335021097262,1707469115,550493440,0,0
1707469115,676952354,base_link,False,-4.635084189483414,0.0,0.0,4.6354364212100885,-0.03608822121307862,4.642759667813152,0.0,-0.09215925642510346,0.15276177836680596,1707469115,600922112,0,0
1707469115,727004725,base_link,False,-4.64151031938807,0.0,0.0,4.6425166169603145,-0.08324107478668198,4.64567515330734,0.0,-0.0633137505342764,0.2222145388001874,1707469115,651385344,0,0
1707469115,776960431,base_link,False,-4.644360941761957,0.0,0.0,4.645204206440194,-0.07223193228557791,4.652866071943812,0.0,-0.11297823212002721,0.023180103270197677,1707469115,701792512,0,0
1707469115,826969848,base_link,False,-4.65159133581362,0.0,0.0,4.652170287567137,-0.11297823499686878,4.655287648688071,0.0,-0.06664585633397224,0.1711196480610991,1707469115,752217088,0,0
1707469115,877055604,base_link,False,-4.654081283675572,0.0,0.0,4.654127389921816,-0.06664586499964739,4.6586165296884925,0.0,-0.06106278558255284,0.1613835756461256,1707469115,802648832,0,0
1707469115,926944120,base_link,False,-4.657425634475429,0.0,0.0,4.657960169420197,-0.061062787524390906,4.660924913592552,0.0,-0.045323953364907174,0.18650114091287018,1707469115,853097984,0,0
1707469115,976947949,base_link,False,-4.6598297009860605,0.0,0.0,4.659405975416258,-0.045323967236651545,4.662266863704902,0.0,-0.026237558038514353,0.21846882444784946,1707469115,903510272,0,0
1707469116,26988586,base_link,False,-4.661317065503141,0.0,0.0,4.659643106569324,-0.02623759857562702,4.664913782828892,0.0,-0.03802717456778673,0.14408518707271742,1707469115,953944320,0,0
1707469116,76958610,base_link,False,-4.664100118085351,0.0,0.0,4.662343286230042,-0.03802721593996696,4.665633980639745,0.0,-0.016684104278465946,0.19038878042045923,1707469116,4368128,0,0
1707469116,126950426,base_link,False,-4.664927608797169,0.0,0.0,4.663362032121904,-0.016684137130189125,4.665504175479829,0.0,0.003089643961637061,0.2239709088977545,1707469116,54797312,0,0
1707469116,176946433,base_link,False,-4.664960530126344,0.0,0.0,4.662815643426884,0.0030895978437309275,4.662729886343422,0.0,0.047335944839075605,0.33219994187384566,1707469116,105240576,0,0
1707469116,226946979,base_link,False,-4.6622043551600365,0.0,0.0,4.6618529356633855,0.05625412227423829,4.661366465966759,0.0,0.04390937313374545,0.26658161351499177,1707469116,155665408,0,0
1707469116,276960656,base_link,False,-4.660865806196363,0.0,0.0,4.660890641401627,0.043909371676319676,4.658922952292995,0.0,0.05603535021037219,0.2626415353579034,1707469116,206086656,0,0
1707469116,326947653,base_link,False,-4.658491502001776,0.0,0.0,4.658066529423463,0.06495352741306147,4.655175323655346,0.0,0.07788978272704702,0.2912066260144589,1707469116,256527360,0,0
1707469116,376958326,base_link,False,-4.654729825386543,0.0,0.0,4.655000300741,0.07788978269437523,4.653424886156906,0.0,0.05702648081899038,0.17519676315184385,1707469116,306952192,0,0
1707469116,426949025,base_link,False,-4.653018267814682,0.0,0.0,4.652965541025336,0.06594466127895271,4.652174463216035,0.0,0.04008224181461696,0.09101775052820983,1707469116,357383936,0,0
1707469116,476958860,base_link,False,-4.651770592030172,0.0,0.0,4.651989864979092,0.0400822415952618,4.649113546822932,0.0,0.05795243780243228,0.13463753225239095,1707469116,407807744,0,0
1707469116,526948581,base_link,False,-4.648719761837211,0.0,0.0,4.648894487776864,0.04903425567535171,4.650562339197992,0.0,0.0009189029069755494,-0.0741896256872378,1707469116,458242560,0,0
1707469116,576949476,base_link,False,-4.65016986445233,0.0,0.0,4.650474304285649,0.0009189028570867976,4.650263175760205,0.0,0.0020956663349287587,-0.058187524043415394,1707469116,508676608,0,0
1707469116,626950581,base_link,False,-4.649888902111645,0.0,0.0,4.649909075412533,-0.006822516080319369,4.6497060470044245,0.0,0.006602474910656325,-0.033900049793652604,1707469116,559098368,0,0
1707469116,676950290,base_link,False,-4.6493338913086095,0.0,0.0,4.649563742887255,0.01552065659848345,4.650358142267601,0.0,-0.008366806620354546,-0.07737236339707718,1707469116,609530624,0,0
1707469116,726964456,base_link,False,-4.650050032761876,0.0,0.0,4.649318909303021,0.0005513685147304111,4.641679462031604,0.0,0.11761615092893858,0.3478822514897567,1707469116,659970304,0,0
1707469116,776949776,base_link,False,-4.641253594743124,0.0,0.0,4.641381527779517,0.144370695966058,4.646391721814563,0.0,-0.020747178766372165,-0.16221222184878215,1707469116,710406400,0,0
1707469116,826951160,base_link,False,-4.645937707287797,0.0,0.0,4.64536510086448,-0.02966536736899312,4.645785532097294,0.0,-0.002780602858318628,-0.07681130119048564,1707469116,760821760,0,0
1707469116,876962253,base_link,False,-4.645412548015358,0.0,0.0,4.6445171239152865,0.006137568603441446,4.645921798685906,0.0,-0.005226040032173905,-0.07224235723689669,1707469116,811243520,0,0
1707469116,926959656,base_link,False,-4.645340666319217,0.0,0.0,4.646786405451533,0.021528509931014767,4.647829488688475,0.0,-0.030816175949148858,-0.1442187930436184,1707469116,861676288,0,0
1707469116,976949866,base_link,False,-4.6467922948969305,0.0,0.0,4.647940273799513,-0.24551637910300078,4.647224646276765,0.0,-0.005175945341161975,-0.036633562133444736,1707469116,912117760,0,0
1707469117,26997138,base_link,False,-4.645750092266462,0.0,0.0,4.646365678134404,-0.21987614544412412,4.649583819222705,0.0,-0.03602639597728949,-0.1316679648225554,1707469116,962543616,0,0
1707469117,76956616,base_link,False,-4.6478795083702344,0.0,0.0,4.648696907196149,-0.26856295919602496,4.6517505404709585,0.0,-0.045446109948300506,-0.1409566957967444,1707469117,12977664,0,0
1707469117,126951226,base_link,False,-4.64995338789196,0.0,0.0,4.6509670301822785,-0.045446113899983744,4.6528469957606235,0.0,-0.033397756507103846,-0.07841804636440607,1707469117,63401216,0,0
1707469117,176948350,base_link,False,-4.6510262887301765,0.0,0.0,4.652837292374919,-0.03339775650770994,4.652031904506073,0.0,-0.0008365549246709333,0.041058232293638725,1707469117,113846016,0,0
1707469117,226962236,base_link,False,-4.6502665220533395,0.0,0.0,4.651296126608936,-0.000836558166616511,4.651785571131726,0.0,0.004561441897801326,0.05201314688708537,1707469117,164257024,0,0
1707469117,276959779,base_link,False,-4.650080750093997,0.0,0.0,4.650847481889565,0.013479618150093546,4.653328723394743,0.0,-0.01877281553325906,-0.0329218424194151,1707469117,214687488,0,0
1707469117,326948103,base_link,False,-4.651696044898202,0.0,0.0,4.652303282515771,-0.018772822210782667,4.653868636807799,0.0,-0.014206083215162,-0.012575287134196297,1707469117,265120512,0,0
1707469117,376947252,base_link,False,-4.652261182689375,0.0,0.0,4.653279468535509,-0.014206085449616025,4.656374966145245,0.0,-0.03997974488334383,-0.09492302580066858,1707469117,315561216,0,0
1707469117,426961348,base_link,False,-4.6547804603851075,0.0,0.0,4.656037590091574,-0.0399797456160355,4.656174151680965,0.0,-0.011980220421230633,0.01231671814788185,1707469117,365977856,0,0
1707469117,476958472,base_link,False,-4.654553000784744,0.0,0.0,4.65421535620756,-0.22668041389064914,4.656463678810333,0.0,-0.007210709736358069,0.025919705698173822,1707469117,416408832,0,0
1707469117,526960206,base_link,False,-4.654863467436875,0.0,0.0,4.655555755623624,-0.007210715042647238,4.660052515652689,0.0,-0.05196859854781387,-0.1249034351438421,1707469117,466841344,0,0
1707469117,576960333,base_link,False,-4.65847512025574,0.0,0.0,4.659339938277216,-0.06088678279353492,4.659225962026672,0.0,-0.007634425305187542,0.04074029894555038,1707469117,517280000,0,0
1707469117,626955781,base_link,False,-4.657809297447597,0.0,0.0,4.6568539537460225,-0.007634459294415942,4.6597554162142805,0.0,-0.008403243885188075,0.031551395002780515,1707469117,567700992,0,0
1707469117,676948854,base_link,False,-4.658446273008428,0.0,0.0,4.65770490214695,-0.00840327095081643,4.6601175325103705,0.0,-0.00656287526969316,0.03241204247403902,1707469117,618192128,0,0
1707469117,726957223,base_link,False,-4.658884935758012,0.0,0.0,4.658420081826939,-0.006562893491557296,4.659546180405528,0.0,0.007189901642711983,0.07214404641029416,1707469117,668554496,0,0
1707469117,776948410,base_link,False,-4.658659704831867,0.0,0.0,4.653866245461793,-0.0017284561203068996,4.657494314649063,0.0,0.03342631320425199,0.14625308673470117,1707469117,718989568,0,0
1707469117,826969141,base_link,False,-4.657283548199555,0.0,0.0,4.646366777269462,0.024507389102667143,4.657468881871707,0.0,0.014910569004434243,0.06166693048536678,1707469117,769424384,0,0
1707469117,876984145,base_link,False,-4.658105604630539,0.0,0.0,4.642427623653363,0.01490918658403115,4.654704100939787,0.0,0.04542494909595547,0.1515016017336318,1707469117,819847168,0,0
1707469117,927018776,base_link,False,-4.656202527961688,0.0,0.0,4.638216506244158,0.05434144972363225,4.656345584131953,0.0,-0.004937803791854954,-0.03824065370634891,1707469117,870274304,0,0
1707469117,976948500,base_link,False,-4.65856867232656,0.0,0.0,4.641397438229816,0.003978980971621941,4.656640275138679,0.0,-0.0068498364771723995,-0.03824065370634891,1707469117,870274304,0,0
1707469118,26947300,base_link,False,-4.659362269229537,0.0,0.0,4.64569027578217,0.010985761977615385,4.658141977273788,0.0,-0.0205104372684937,-0.07318857841554421,1707469117,971136768,0,0
1707469118,76960349,base_link,False,-4.660959799935514,0.0,0.0,4.653648598283146,-0.0026742038071486014,4.6586096335959954,0.0,-0.014842868176565369,-0.0425500638330185,1707469118,21577984,0,0
1707469118,126948253,base_link,False,-4.661251998485461,0.0,0.0,4.657432633781311,-0.2206248811310093,4.660708664545018,0.0,-0.03557163076623346,-0.10343844122836644,1707469118,72006400,0,0
1707469118,176948939,base_link,False,-4.663320678859404,0.0,0.0,4.660668928839767,-0.04448981259457907,4.667875328053898,0.0,-0.11512321417766941,-0.3467338281613644,1707469118,122442496,0,0
1707469118,226959194,base_link,False,-4.670505254612776,0.0,0.0,4.667540637887935,-0.12404139650852694,4.672799365505248,0.0,-0.11458469455669283,-0.2882197211086516,1707469118,172862208,0,0
1707469118,276948565,base_link,False,-4.675380645352488,0.0,0.0,4.67177232022622,-0.12350288316492343,4.674798546766818,0.0,-0.07122484007781191,-0.09903691788747232,1707469118,223298560,0,0
1707469118,326985710,base_link,False,-4.677366952434704,0.0,0.0,4.674570243515808,-0.08014302223151337,4.678483584918067,0.0,-0.07617668597218552,-0.09903691788747232,1707469118,223298560,0,0
1707469118,376974313,base_link,False,-4.6810453962259455,0.0,0.0,4.6786389229310315,-0.07617668538243487,4.679291040497114,0.0,-0.04809248906763217,-0.000763543610671602,1707469118,273738752,0,0
1707469118,426980656,base_link,False,-4.681703658919372,0.0,0.0,4.678087139549418,-0.25387450561175984,4.68369193157268,0.0,-0.07679063215058216,-0.0949116540632286,1707469118,324155136,0,0
1707469118,476983088,base_link,False,-4.685877107595659,0.0,0.0,4.682691608931402,-0.28257264535877386,4.68701109176892,0.0,-0.0724187402484335,-0.06506654457359025,1707469118,374605056,0,0
1707469118,526997464,base_link,False,-4.688987214392131,0.0,0.0,4.685967079330337,-0.07241874717495511,4.687212729076253,0.0,-0.026159397869737117,0.09689056922673321,1707469118,425011200,0,0
1707469118,576978873,base_link,False,-4.689104719087681,0.0,0.0,4.686099940692301,-0.2319414117954969,4.691057240347726,0.0,-0.05885313427185031,-0.02599080192773351,1707469118,475460096,0,0
1707469118,626997229,base_link,False,-4.692750043402947,0.0,0.0,4.689844309641488,-0.27355332852414044,4.695022404712572,0.0,-0.07413548475954375,-0.07178062425312189,1707469118,525869056,0,0
1707469118,676953355,base_link,False,-4.696459401824195,0.0,0.0,4.694305910934039,-0.29775387170282386,4.699332265931502,0.0,-0.08497523450930836,-0.09552688448396213,1707469118,576300288,0,0
1707469118,726971013,base_link,False,-4.70058390891364,0.0,0.0,4.69781272548822,-0.29967543034833694,4.703050106872117,0.0,-0.08056630716104311,-0.06544476990782513,1707469118,626732800,0,0
1707469118,776960803,base_link,False,-4.704307785261441,0.0,0.0,4.702133988570611,-0.08056631168749802,4.699074660830307,0.0,0.030361966713106092,0.3085625470753056,1707469118,677174016,0,0
1707469118,826948359,base_link,False,-4.700395127464516,0.0,0.0,4.698178776160336,0.03928014346727739,4.6975313690405835,0.0,0.040698266999592364,0.291886928873491,1707469118,727588608,0,0
1707469118,876959871,base_link,False,-4.698975264711433,0.0,0.0,4.695418229389232,0.040698241856427494,4.692507466458576,0.0,0.09235569553000725,0.4132669972996843,1707469118,778025216,0,0
1707469118,926949172,base_link,False,-4.693991307759066,0.0,0.0,4.691259714608811,0.09235568579512211,4.689703304443388,0.0,0.08010735709614769,0.30548294904958395,1707469118,828456960,0,0
1707469118,976951255,base_link,False,-4.691268320892908,0.0,0.0,4.68822854219213,0.08010734340240341,4.691163833075536,0.0,0.012788293063790021,0.03499510901001712,1707469118,878875904,0,0
1707469119,26947750,base_link,False,-4.692728324043716,0.0,0.0,4.690679685661619,0.003870109958014553,4.6876300432670535,0.0,0.05480015178615548,0.1668509176660059,1707469118,929306880,0,0
1707469119,76963313,base_link,False,-4.689136293987061,0.0,0.0,4.688623429802471,0.06371833423015594,4.687176673688341,0.0,0.02790066226188112,0.05143560724997559,1707469118,979759360,0,0
1707469119,126961974,base_link,False,-4.688316456309075,0.0,0.0,4.688030885640348,-0.16896318803177612,4.685719734115317,0.0,0.030438714006922045,0.05132514834111593,1707469119,30184960,0,0
1707469119,176951904,base_link,False,-4.686106403622521,0.0,0.0,4.688449685635491,-0.1664252147539894,4.685905807996039,0.0,0.007975040339627721,-0.030646131628462747,1707469119,80599552,0,0
1707469119,226960622,base_link,False,-4.685461580649003,0.0,0.0,4.690033919887513,-0.20672536103316028,4.691269790201444,0.0,-0.07440860532995945,-0.29542857622137386,1707469119,131027712,0,0
1707469119,276959073,base_link,False,-4.6902673644401816,0.0,0.0,4.691731376469242,-0.3069451960359617,4.695320585315206,0.0,-0.08863031888545149,-0.2936282976948512,1707469119,181458944,0,0
1707469119,326977779,base_link,False,-4.694112707782398,0.0,0.0,4.695055470945473,-0.09754850115607261,4.696450663869674,0.0,-0.051498522812155244,-0.12394371610204258,1707469119,231911680,0,0
1707469119,376932787,base_link,False,-4.695288655201923,0.0,0.0,4.695556974531547,-0.05149852610632599,4.700069988432514,0.0,-0.07025849314192131,-0.165085939901492,1707469119,282326784,0,0
1707469119,426971677,base_link,False,-4.699492158308654,0.0,0.0,4.690834999298792,-0.10593167351033589,4.700170838116195,0.0,-0.027406346193753962,0.0022840152754303455,1707469119,332763392,0,0
1707469119,476961538,base_link,False,-4.700932683468107,0.0,0.0,4.67886296993005,-0.04524545200056132,4.6979240505743185,0.0,0.023755224053198184,0.16946050221903994,1707469119,383193088,0,0
1707469119,526985621,base_link,False,-4.699937639241887,0.0,0.0,4.67453860763569,0.05050637065624296,4.6904939407230595,0.0,0.11740286358456913,0.4484012736287195,1707469119,433620736,0,0
1707469119,576953271,base_link,False,-4.693420668214174,0.0,0.0,4.670814075350126,0.135236807223385,4.691204633908091,0.0,0.03895925364725905,0.11807995810305955,1707469119,484054784,0,0
1707469119,626944249,base_link,False,-4.694948536359176,0.0,0.0,4.673967510224212,0.03003921521263126,4.682980009072371,0.0,0.13142962510198614,0.40157863716170583,1707469119,534481664,0,0
1707469119,676949125,base_link,False,-4.687289987981825,0.0,0.0,4.670198252060537,0.14926495015297658,4.682371365910404,0.0,0.060200089453868705,0.10254994074520529,1707469119,584910592,0,0
1707469119,726961196,base_link,False,-4.686788319575688,0.0,0.0,4.677163121909614,0.08695446056957881,4.682864082415482,0.0,0.0140449330832896,-0.06539707865926336,1707469119,635365376,0,0
1707469119,776946935,base_link,False,-4.68683698697231,0.0,0.0,4.683319849142784,-0.18281892228552304,4.67631089642099,0.0,0.09456784669760943,0.2090182372956665,1707469119,685767680,0,0
1707469119,826957469,base_link,False,-4.679800429053173,0.0,0.0,4.676411079678623,-0.11121417874983497,4.684332929516917,0.0,-0.07875740319241485,-0.3928355375036706,1707469119,736194048,0,0
1707469119,876985115,base_link,False,-4.6873777358209985,0.0,0.0,4.6837699154166215,-0.3023757824130621,4.683118184496555,0.0,-0.01868859336113017,-0.13178907197524792,1707469119,786637824,0,0
1707469119,926959540,base_link,False,-4.685618104653073,0.0,0.0,4.683349653163405,-0.2333888003229151,4.683378016979974,0.0,-0.013423368895739909,-0.09296584992384772,1707469119,837054976,0,0
1707469119,976961693,base_link,False,-4.685308566262059,0.0,0.0,4.685084792356745,-0.21920544551802287,4.6851713052527755,0.0,-0.03227908750214399,-0.1394941533961095,1707469119,887602176,0,0
1707469120,26949667,base_link,False,-4.686406853852208,0.0,0.0,4.6872637455093376,-0.2380611730775417,4.684088649804622,0.0,0.0012956564695336611,-0.0066976020213621035,1707469119,937913600,0,0
1707469120,76947490,base_link,False,-4.684618571958251,0.0,0.0,4.686546921560263,-0.2044864372022983,4.686707552513421,0.0,-0.03682513314538054,-0.13044375074670622,1707469119,988342528,0,0
1707469120,126956836,base_link,False,-4.686508567616263,0.0,0.0,4.689289629200779,-0.2604436173795941,4.68902145132151,0.0,-0.04771990868414585,-0.1447636634356259,1707469120,38780672,0,0
1707469120,176956055,base_link,False,-4.688358326655289,0.0,0.0,4.690041622261714,-0.056638090209861415,4.690035983335991,0.0,-0.03303186699099063,-0.07295684661459131,1707469120,89203968,0,0
1707469120,226953110,base_link,False,-4.689276183338302,0.0,0.0,4.688690012698097,-0.041950060175482945,4.691853835925122,0.0,-0.03773989555607043,-0.07642888063747637,1707469120,139634176,0,0
1707469120,276951281,base_link,False,-4.691372159017211,0.0,0.0,4.687027032825557,-0.046658205233098944,4.690687071487782,0.0,0.0029190499118053603,0.06924121079396446,1707469120,190064640,0,0
1707469120,326960209,base_link,False,-4.69070441546221,0.0,0.0,4.682563481860811,0.002918642195893585,4.689722381650964,0.0,0.016722443205841826,0.10310833526783154,1707469120,240518400,0,0
1707469120,376955098,base_link,False,-4.690174633423066,0.0,0.0,4.681281582313367,0.02564018370343167,4.693639300049891,0.0,-0.04707406331470804,-0.12270427748047401,1707469120,290932736,0,0
1707469120,426952501,base_link,False,-4.694344497028019,0.0,0.0,4.6875471743666735,-0.03815611543300336,4.688586422791005,0.0,0.053566990509808524,0.22698035552308843,1707469120,341372672,0,0
1707469120,476959962,base_link,False,-4.689530237729759,0.0,0.0,4.6834085015634725,0.05356682258094751,4.692986507605035,0.0,-0.03906653444013686,-0.11355502818717689,1707469120,391786240,0,0
1707469120,526963582,base_link,False,-4.693989898614081,0.0,0.0,4.690637380014916,-0.030148388144555793,4.69902684951912,0.0,-0.1004641517800392,-0.2960336003345839,1707469120,442213120,0,0
1707469120,576975792,base_link,False,-4.699981509468318,0.0,0.0,4.699106585997574,-0.09154596927071235,4.702720381389483,0.0,-0.09125915773218936,-0.2174134613204422,1707469120,492675328,0,0
1707469120,626958179,base_link,False,-4.703627319115142,0.0,0.0,4.7022002349283545,-0.09125915924941252,4.707972383888929,0.0,-0.10802342812619986,-0.23671457066916385,1707469120,543070976,0,0
1707469120,676954325,base_link,False,-4.708882432713211,0.0,0.0,4.707763348741337,-0.10802342840747502,4.705910697062053,0.0,-0.010275185723524094,0.12216508944270738,1707469120,593524736,0,0
1707469120,726949773,base_link,False,-4.706821996169503,0.0,0.0,4.7058266905336605,-0.010275185768951594,4.708132126408605,0.0,-0.0304427357005462,0.03611371085766529,1707469120,643942400,0,0
1707469120,776963100,base_link,False,-4.709027896000973,0.0,0.0,4.706495185351352,-0.03044275294934077,4.705119495952076,0.0,0.03477404764468402,0.243780516798485,1707469120,694373632,0,0
1707469120,826948351,base_link,False,-4.705997996063912,0.0,0.0,4.704884862619798,0.034774047290301605,4.707555017950628,0.0,-0.016297250414472664,0.03660748459754387,1707469120,744795136,0,0
1707469120,876952948,base_link,False,-4.708331706067176,0.0,0.0,4.7075701005909405,-0.007379065719180299,4.704657343030733,0.0,0.03732239762463445,0.20621364892352542,1707469120,795223808,0,0
