header_stamp_sec, header_stamp_nanosec, header_frame_id, x, y, phi, vx_b, ax_b, steer, torque, stamp_zed_sec, stamp_zed_nanosec, stamp_wheel_encoder_sec, stamp_wheel_encoder_nanosec
1707469103,131000678,base_link,1.4014345663006419e-05,0.0,0.0,-0.00022329613105969023,6.035694196010381e-10,0.0,0.0,0,0,0,0
1707469103,141033953,base_link,2.092641999678711e-05,0.0,0.0,6.62519151243858e-05,4.0174692563223977e-10,0.0,0.0,0,0,0,0
1707469103,151033492,base_link,0.0,0.0,0.0,-0.0005616603789014058,0.0,0.0,0.0,0,0,0,0
1707469103,161016829,base_link,1.231521299939647e-06,0.0,0.0,0.00015282736734032257,2.808830794383112e-09,0.0,0.0,0,0,0,0
1707469103,170959725,base_link,1.5786428950964376e-05,0.0,0.0,-0.0014939324002143602,-0.21470019482652725,0.0,0.0,0,0,0,0
1707469103,181003266,base_link,3.881821204982616e-06,0.0,0.0,-0.0013753222156455349,-1.1825342545725208e-08,0.0,0.0,0,0,0,0
1707469103,190989256,base_link,-7.472171153079797e-06,0.0,0.0,-0.0012993584621565418,-1.0559746060099476e-08,0.0,0.0,0,0,0,0
1707469103,200989565,base_link,0.0,0.0,0.0,-0.00024071159095774553,0.0,0.0,0.0,0,0,0,0
1707469103,210990152,base_link,3.071384070016458e-06,0.0,0.0,0.0003308785868140384,1.2738452252756454e-09,0.0,0.0,0,0,0,0
1707469103,221003311,base_link,1.2205134419943586e-05,0.0,0.0,-0.001711130547471383,-0.2147001953194808,0.0,0.0,0,0,0,0
1707469103,230987695,base_link,6.61164613509943e-06,0.0,0.0,-0.0012609627359690138,-9.477573054742995e-09,0.0,0.0,0,0,0,0
1707469103,241003718,base_link,-4.424587364843778e-06,0.0,0.0,-0.0012111463968590363,-9.151391802028677e-09,0.0,0.0,0,0,0,0
1707469103,251184852,base_link,0.0,0.0,0.0,0.0005616603789014058,0.0,0.0,0.0,0,0,0,0
1707469103,260996512,base_link,1.3297930302302622e-05,0.0,0.0,-0.0009986217848278766,-0.214700200716885,0.0,0.0,0,0,0,0
1707469103,271004642,base_link,9.201029213577077e-06,0.0,0.0,-0.0006753979304426935,-2.455106370079332e-09,0.0,0.0,0,0,0,0
1707469103,280973730,base_link,6.993230866451716e-06,0.0,0.0,-0.0004977128070748936,-1.4765573280343585e-09,0.0,0.0,0,0,0,0
1707469103,291025024,base_link,5.610286778320209e-06,0.0,0.0,-0.00038391458054348374,-9.109723629427993e-10,0.0,0.0,0,0,0,0
1707469103,301000398,base_link,0.0,0.0,0.0,0.0,0.0,0.0,0.0,0,0,0,0
1707469103,310987506,base_link,-4.451281198365136e-06,0.0,0.0,-0.0004644170050294292,0.0,0.0,0.0,0,0,0,0
1707469103,321059054,base_link,-6.356577757534839e-06,0.0,0.0,-0.0003140991749586234,-5.309877155181321e-10,0.0,0.0,0,0,0,0
1707469103,331074379,base_link,-7.383332049341917e-06,0.0,0.0,-0.00023146529823476206,-3.1934820958789854e-10,0.0,0.0,0,0,0,0
1707469103,341014412,base_link,-1.5559005784104845e-05,0.0,0.0,-0.00041703560926913743,-8.035391664628654e-10,0.0,0.0,0,0,0,0
1707469103,351054601,base_link,0.0,0.0,0.0,-0.0010430835608168968,0.0,0.0,0.0,0,0,0,0
1707469103,361020476,base_link,-1.5282727100575878e-06,0.0,0.0,-0.00011424945155560549,4.761006339869864e-09,0.0,0.0,0,0,0,0
1707469103,371005488,base_link,4.154539876248048e-06,0.0,0.0,0.00026034450713995885,4.1209771214162043e-10,0.0,0.0,0,0,0,0
1707469103,380988056,base_link,2.0902303934512887e-05,0.0,0.0,-0.0015485334650805834,-0.21470019545842586,0.0,0.0,0,0,0,0
1707469103,391002682,base_link,2.4132077330989735e-05,0.0,0.0,-0.0009559800669638293,-4.760712779194872e-09,0.0,0.0,0,0,0,0
1707469103,401022825,base_link,0.0,0.0,0.0,0.00024071159095774553,0.0,0.0,0.0,0,0,0,0
1707469103,410991634,base_link,1.5909472682102304e-05,0.0,0.0,-0.0007122439893143143,-0.21470019780565927,0.0,0.0,0,0,0,0
1707469103,421010311,base_link,6.8359250505389765e-06,0.0,0.0,-0.0008193268504214958,-4.018290512411267e-09,0.0,0.0,0,0,0,0
1707469103,430985824,base_link,1.1178754505698127e-05,0.0,0.0,-0.00032935992436869193,3.5047924273756224e-10,0.0,0.0,0,0,0,0
1707469103,440984875,base_link,1.7796120261755006e-05,0.0,0.0,-1.55611956454852e-05,4.6410817803662883e-10,0.0,0.0,0,0,0,0
1707469103,451031909,base_link,0.0,0.0,0.0,0.00024071159095774553,0.0,0.0,0.0,0,0,0,0
1707469103,461014546,base_link,1.1458191505114712e-05,0.0,0.0,-0.0011766609781553063,-0.21470019647926858,0.0,0.0,0,0,0,0
1707469103,471018905,base_link,1.2782402367098989e-05,0.0,0.0,-0.0004581963124782473,1.166614087912882e-09,0.0,0.0,0,0,0,0
1707469103,481017817,base_link,1.830572600131837e-05,0.0,0.0,-6.323637134602228e-05,7.316078597494411e-10,0.0,0.0,0,0,0,0
1707469103,491011071,base_link,1.8130017483491357e-05,0.0,0.0,-4.877785843183741e-05,-1.470555672468739e-11,0.0,0.0,0,0,0,0
1707469103,501034078,base_link,0.0,0.0,0.0,0.0,0.0,0.0,0.0,0,0,0,0
1707469103,511106744,base_link,0.0,0.0,0.0,0.0,0.0,0.0,0.0,0,0,0,0
1707469103,521004312,base_link,0.0,0.0,0.0,0.0,0.0,0.0,0.0,0,0,0,0
1707469103,530996099,base_link,7.021114218235822e-06,0.0,0.0,0.00027441662030063224,0.0,0.0,0.0,0,0,0,0
1707469103,540994032,base_link,3.237074868456068e-05,0.0,0.0,-0.0013715555717150956,-0.21470019604763732,0.0,0.0,0,0,0,0
1707469103,551007890,base_link,0.0,0.0,0.0,0.0010430835608168968,0.0,0.0,0.0,0,0,0,0
1707469103,560991017,base_link,1.6057538643177966e-05,0.0,0.0,-0.000731562984522496,-0.2147002074234281,0.0,0.0,0,0,0,0
1707469103,571009694,base_link,1.305626082495696e-05,0.0,0.0,-0.0004947780485584514,-1.3175640631689745e-09,0.0,0.0,0,0,0,0
1707469103,581034447,base_link,4.41777347817992e-06,0.0,0.0,-0.00063902744584886,-2.3162571119243354e-09,0.0,0.0,0,0,0,0
1707469103,591036292,base_link,-4.890352009574498e-06,0.0,0.0,-0.0007314118146481013,-3.176173553244072e-09,0.0,0.0,0,0,0,0
1707469103,600963334,base_link,0.0,0.0,0.0,-0.0010430835608168968,0.0,0.0,0.0,0,0,0,0
1707469103,611046616,base_link,-1.0430835292033193e-05,0.0,0.0,-0.001043083601911672,-6.7343798771079375e-09,0.0,0.0,0,0,0,0
1707469103,621041896,base_link,-1.4710143014492457e-05,0.0,0.0,-0.0007054687440023225,-2.6785907636396456e-09,0.0,0.0,0,0,0,0
1707469103,630983535,base_link,-2.403735433129989e-05,0.0,0.0,-0.0007942892137703926,-3.783706686284294e-09,0.0,0.0,0,0,0,0
1707469103,640988522,base_link,-3.377689009414841e-05,0.0,0.0,-0.000851174185291662,-4.401389020825215e-09,0.0,0.0,0,0,0,0
1707469103,651020609,base_link,0.0,0.0,0.0,0.0005616603789014058,0.0,0.0,0.0,0,0,0,0
1707469103,661000314,base_link,1.3297930302302622e-05,0.0,0.0,-0.0009986217848278766,-0.214700200716885,0.0,0.0,0,0,0,0
1707469103,671047557,base_link,3.049502006805291e-06,0.0,0.0,-0.0010130127732132094,-6.33801583079636e-09,0.0,0.0,0,0,0,0
1707469103,681011267,base_link,-7.283035171914571e-06,0.0,0.0,-0.0010209239129351586,-6.4416332537200525e-09,0.0,0.0,0,0,0,0
1707469103,691017861,base_link,-1.7652297506833283e-05,0.0,0.0,-0.0010259906029577662,-6.5081162143073486e-09,0.0,0.0,0,0,0,0
1707469103,701030042,base_link,0.0,0.0,0.0,-0.00024071159095774553,0.0,0.0,0.0,0,0,0,0
1707469103,711017220,base_link,-1.3798971497250655e-06,0.0,0.0,-0.00013353843440371623,-5.2545470838014996e-11,0.0,0.0,0,0,0,0
1707469103,721018156,base_link,-8.079273134987482e-06,0.0,0.0,-0.0004279308725241987,-5.631349307841042e-10,0.0,0.0,0,0,0,0
1707469103,731020490,base_link,-1.649924475818294e-05,0.0,0.0,-0.0005897665641347414,-1.91072331291247e-09,0.0,0.0,0,0,0,0
1707469103,740997540,base_link,-1.0605444684894426e-05,0.0,0.0,-0.00021642786559933168,2.6627204703024705e-10,0.0,0.0,0,0,0,0
1707469103,751025157,base_link,0.0,0.0,0.0,-0.0005616603789014058,0.0,0.0,0.0,0,0,0,0
1707469103,760996899,base_link,-3.2197599483019288e-06,0.0,0.0,-0.0003115896754616924,-2.8608084969776803e-10,0.0,0.0,0,0,0,0
1707469103,770981771,base_link,1.653453362888959e-06,0.0,0.0,0.0001268773823623068,9.725243064142443e-10,0.0,0.0,0,0,0,0
1707469103,780987667,base_link,1.796501004988131e-05,0.0,0.0,-0.0016468849714866812,-0.21470019436045018,0.0,0.0,0,0,0,0
1707469103,790978406,base_link,5.856454081785754e-06,0.0,0.0,-0.0015088305090168953,-1.4289487943697584e-08,0.0,0.0,0,0,0,0
1707469103,800991845,base_link,0.0,0.0,0.0,-0.00024071159095774553,0.0,0.0,0.0,0,0,0,0
1707469103,811068423,base_link,-5.831178369466589e-06,0.0,0.0,-0.000597955455621471,-1.3789361669516751e-09,0.0,0.0,0,0,0,0
1707469103,820992252,base_link,-2.1327964767704193e-06,0.0,0.0,-6.680039228765971e-05,1.4447617004675246e-09,0.0,0.0,0,0,0,0
1707469103,831010160,base_link,-9.372273873457317e-06,0.0,0.0,-0.0003236430493714952,-2.2017946837212786e-10,0.0,0.0,0,0,0,0
1707469103,841001529,base_link,-1.780407263468106e-05,0.0,0.0,-0.0004881376264326265,-1.2332455946140886e-09,0.0,0.0,0,0,0,0
1707469103,850974388,base_link,0.0,0.0,0.0,0.0005616603789014058,0.0,0.0,0.0,0,0,0,0
1707469103,861005986,base_link,8.846649153820218e-06,0.0,0.0,-0.001463038752084112,-0.21470019762197343,0.0,0.0,0,0,0,0
1707469103,871002942,base_link,8.995979629425093e-06,0.0,0.0,-0.0006518822091731362,4.1906054098257055e-10,0.0,0.0,0,0,0,0
1707469103,880995916,base_link,1.388616653807104e-05,0.0,0.0,-0.00020596695316339015,6.32174958828484e-10,0.0,0.0,0,0,0,0
1707469103,891016060,base_link,5.781342170916783e-06,0.0,0.0,-0.000397367282837407,-6.957075671990173e-10,0.0,0.0,0,0,0,0
1707469103,900991573,base_link,0.0,0.0,0.0,0.0005616603789014058,0.0,0.0,0.0,0,0,0,0
1707469103,911037420,base_link,1.3297930302302622e-05,0.0,0.0,-0.0009986217848278766,-0.214700200716885,0.0,0.0,0,0,0,0
1707469103,920984786,base_link,3.049502006805291e-06,0.0,0.0,-0.0010130127732132094,-6.33801583079636e-09,0.0,0.0,0,0,0,0
1707469103,931014917,base_link,-7.283035171914571e-06,0.0,0.0,-0.0010209239129351586,-6.4416332537200525e-09,0.0,0.0,0,0,0,0
1707469103,940986101,base_link,-1.7652297506833283e-05,0.0,0.0,-0.0010259906029577662,-6.5081162143073486e-09,0.0,0.0,0,0,0,0
1707469103,950999958,base_link,0.0,0.0,0.0,-0.0010430835608168968,0.0,0.0,0.0,0,0,0,0
1707469103,961012140,base_link,-1.0430835292033193e-05,0.0,0.0,-0.001043083601911672,-6.7343798771079375e-09,0.0,0.0,0,0,0,0
1707469103,971014054,base_link,-8.55861539707867e-06,0.0,0.0,-0.00036785384929368563,1.3771988408363511e-09,0.0,0.0,0,0,0,0
1707469103,981006680,base_link,-1.6782202452792015e-05,0.0,0.0,-0.0005454947552585973,-1.5709435048146919e-09,0.0,0.0,0,0,0,0
1707469103,990988619,base_link,-2.5830438383025354e-05,0.0,0.0,-0.0006592646630859315,-2.5236561334998457e-09,0.0,0.0,0,0,0,0
1707469104,978869,base_link,0.0,0.0,0.0,-0.00024071159095774553,0.0,0.0,0.0,0,0,0,0
1707469104,11022830,base_link,-5.831178369466589e-06,0.0,0.0,-0.000597955455621471,-1.3789361669516751e-09,0.0,0.0,0,0,0,0
1707469104,21029913,base_link,-2.1327964767704193e-06,0.0,0.0,-6.680039228765971e-05,1.4447617004675246e-09,0.0,0.0,0,0,0,0
1707469104,30992086,base_link,-2.351159330086304e-06,0.0,0.0,-4.922640292787243e-05,-1.4444047909663771e-11,0.0,0.0,0,0,0,0
1707469104,41012649,base_link,-2.4879397782477567e-06,0.0,0.0,-3.797116302354896e-05,-8.911356520120932e-12,0.0,0.0,0,0,0,0
1707469104,51075956,base_link,0.0,0.0,0.0,0.0008023719698591513,0.0,0.0,0.0,0,0,0,0
1707469104,61019830,base_link,1.4677734450976324e-05,0.0,0.0,-0.0008650923862223166,-0.21470020401763876,0.0,0.0,0,0,0,0
1707469104,71036342,base_link,1.1128644970700185e-05,0.0,0.0,-0.0005850879916627981,-1.8424395496510679e-09,0.0,0.0,0,0,0,0
1707469104,80982801,base_link,1.623717397780273e-05,0.0,0.0,-0.00015674514017644225,6.938998397016045e-10,0.0,0.0,0,0,0,0
1707469104,91056515,base_link,1.5801642077373508e-05,0.0,0.0,-0.00012090656336535805,-9.035158270188472e-11,0.0,0.0,0,0,0,0
1707469104,100996757,base_link,0.0,0.0,0.0,0.0,0.0,0.0,0.0,0,0,0,0
1707469104,111003072,base_link,4.451281198365136e-06,0.0,0.0,0.0004644170050294292,0.0,0.0,0.0,0,0,0,0
1707469104,121001075,base_link,1.4132808960183318e-05,0.0,0.0,-0.0016208180448356016,-0.21470019623729453,0.0,0.0,0,0,0,0
1707469104,130991814,base_link,8.834541511018196e-06,0.0,0.0,-0.0011944098482809648,-8.50353290335013e-09,0.0,0.0,0,0,0,0
1707469104,141023971,base_link,5.515756997167652e-06,0.0,0.0,-0.0009213171730251205,-5.246314005406974e-09,0.0,0.0,0,0,0,0
1707469104,151017993,base_link,0.0,0.0,0.0,-0.0008023719698591513,0.0,0.0,0.0,0,0,0,0
1707469104,161028080,base_link,-4.599656996441987e-06,0.0,0.0,-0.0004451281026449235,-5.838383966988759e-10,0.0,0.0,0,0,0,0
1707469104,170999193,base_link,-1.257734704273662e-05,0.0,0.0,-0.0006386683529549007,-2.218573678336437e-09,0.0,0.0,0,0,0,0
1707469104,180992377,base_link,-2.1686195467901805e-05,0.0,0.0,-0.0007450628011358279,-3.287332503898998e-09,0.0,0.0,0,0,0,0
1707469104,190995898,base_link,-2.375642562434908e-05,0.0,0.0,-0.0005747098906512703,-2.0414244739425364e-09,0.0,0.0,0,0,0,0
1707469104,201012410,base_link,0.0,0.0,0.0,0.0,0.0,0.0,0.0,0,0,0,0
1707469104,211234192,base_link,4.451281198365136e-06,0.0,0.0,0.0004644170050294292,0.0,0.0,0.0,0,0,0,0
1707469104,221026226,base_link,2.028433581805886e-05,0.0,0.0,-0.0012832032694298718,-0.21470019804307242,0.0,0.0,0,0,0,0
1707469104,230985676,base_link,1.6089691765847196e-05,0.0,0.0,-0.0009456154721496957,-5.32993366362202e-09,0.0,0.0,0,0,0,0
1707469104,241054151,base_link,5.9296812959001264e-06,0.0,0.0,-0.0009679008561516788,-5.766163025399659e-09,0.0,0.0,0,0,0,0
1707469104,250985593,base_link,0.0,0.0,0.0,0.0005616603789014058,0.0,0.0,0.0,0,0,0,0
1707469104,261124681,base_link,1.3297930302302622e-05,0.0,0.0,-0.0009986217848278766,-0.214700200716885,0.0,0.0,0,0,0,0
1707469104,270984394,base_link,9.201029213577077e-06,0.0,0.0,-0.0006753979304426935,-2.455106370079332e-09,0.0,0.0,0,0,0,0
1707469104,280987007,base_link,1.4014345663006419e-05,0.0,0.0,-0.00022329613105969023,6.035694196010381e-10,0.0,0.0,0,0,0,0
1707469104,290995207,base_link,5.861370581745191e-06,0.0,0.0,-0.0004107342711040558,-7.684714667670194e-10,0.0,0.0,0,0,0,0
1707469104,300972117,base_link,0.0,0.0,0.0,-0.00024071159095774553,0.0,0.0,0.0,0,0,0,0
1707469104,311024599,base_link,-1.3798971497250655e-06,0.0,0.0,-0.00013353843440371623,-5.2545470838014996e-11,0.0,0.0,0,0,0,0
1707469104,320999204,base_link,4.22378109796632e-06,0.0,0.0,0.0002472987622861516,4.753316358479151e-10,0.0,0.0,0,0,0,0
1707469104,331064467,base_link,2.092890767161188e-05,0.0,0.0,-0.0015581468591737374,-0.21470019534601942,0.0,0.0,0,0,0,0
1707469104,340990392,base_link,2.4131968901187017e-05,0.0,0.0,-0.000963395450131406,-4.845352850702126e-09,0.0,0.0,0,0,0,0
1707469104,350978058,base_link,0.0,0.0,0.0,-0.0005616603789014058,0.0,0.0,0.0,0,0,0,0
1707469104,361003440,base_link,-3.2197599483019288e-06,0.0,0.0,-0.0003115896754616924,-2.8608084969776803e-10,0.0,0.0,0,0,0,0
1707469104,371003119,base_link,-4.498073892074484e-06,0.0,0.0,-0.00021073745521702945,-2.3902005364183303e-10,0.0,0.0,0,0,0,0
1707469104,381023682,base_link,-1.2208065129963318e-05,0.0,0.0,-0.0004297128478314046,-7.927926331991895e-10,0.0,0.0,0,0,0,0
1707469104,390997799,base_link,-5.869540134221808e-06,0.0,0.0,-9.296921115434822e-05,4.469347792089515e-10,0.0,0.0,0,0,0,0
1707469104,400989167,base_link,0.0,0.0,0.0,0.00024071159095774553,0.0,0.0,0.0,0,0,0,0
1707469104,411021114,base_link,1.5909472682102304e-05,0.0,0.0,-0.0007122439893143143,-0.21470019780565927,0.0,0.0,0,0,0,0
1707469104,421002983,base_link,2.529050662213512e-05,0.0,0.0,0.00019351765780602638,4.28989687164677e-09,0.0,0.0,0,0,0,0
1707469104,431023965,base_link,4.1819861949400636e-05,0.0,0.0,-0.0015977779646813976,-0.21470019489425662,0.0,0.0,0,0,0,0
1707469104,441014076,base_link,3.738027959066628e-05,0.0,0.0,-0.0012324583140557051,-9.388158563115092e-09,0.0,0.0,0,0,0,0
1707469104,450995806,base_link,0.0,0.0,0.0,-0.0008023719698591513,0.0,0.0,0.0,0,0,0,0
1707469104,460991574,base_link,-1.4837572682671894e-07,0.0,0.0,1.9288956345156613e-05,3.837463973217839e-09,0.0,0.0,0,0,0,0
1707469104,470996701,base_link,1.3858754741252301e-05,0.0,0.0,-0.0015842448776285443,-0.21470019359432657,0.0,0.0,0,0,0,0
1707469104,481000083,base_link,8.680041279681741e-06,0.0,0.0,-0.0011674583845591774,-8.124103551827271e-09,0.0,0.0,0,0,0,0
1707469104,490978390,base_link,5.436144379055019e-06,0.0,0.0,-0.0009005279379856257,-5.012222315403758e-09,0.0,0.0,0,0,0,0
1707469104,500993714,base_link,0.0,0.0,0.0,0.0,0.0,0.0,0.0,0,0,0,0
1707469104,511014976,base_link,0.0,0.0,0.0,0.0,0.0,0.0,0.0,0,0,0,0
1707469104,521019195,base_link,-6.1515270126103106e-06,0.0,0.0,-0.0003376148022744745,0.0,0.0,0.0,0,0,0,0
1707469104,530991775,base_link,-7.255151251969292e-06,0.0,0.0,-0.00024879438921273235,-3.689554041826292e-10,0.0,0.0,0,0,0,0
1707469104,541041672,base_link,-7.946451144961244e-06,0.0,0.0,-0.00019190945995017274,-2.27629622303433e-10,0.0,0.0,0,0,0,0
1707469104,550985826,base_link,0.0,0.0,0.0,-0.0008023719698591513,0.0,0.0,0.0,0,0,0,0
1707469104,560987112,base_link,-9.050938266057254e-06,0.0,0.0,-0.0009095451616350036,-5.00514076661559e-09,0.0,0.0,0,0,0,0
1707469104,570984207,base_link,-1.2782397347876743e-05,0.0,0.0,-0.0006151526968156062,-2.036651369639507e-09,0.0,0.0,0,0,0,0
1707469104,581003163,base_link,-1.4793260787262782e-05,0.0,0.0,-0.00045331700571222546,-1.2248888948933748e-09,0.0,0.0,0,0,0,0
1707469104,590976791,base_link,-1.6052846676163677e-05,0.0,0.0,-0.0003496695350069108,-7.557037540576191e-10,0.0,0.0,0,0,0,0
1707469104,600999100,base_link,0.0,0.0,0.0,-0.0008023719698591513,0.0,0.0,0.0,0,0,0,0
1707469104,611031606,base_link,-4.599656996441987e-06,0.0,0.0,-0.0004451281026449235,-5.838383966988759e-10,0.0,0.0,0,0,0,0
1707469104,621081014,base_link,-2.742923250832846e-07,0.0,0.0,3.656135246485456e-05,1.242981705362858e-09,0.0,0.0,0,0,0,0
1707469104,631011898,base_link,2.2763201580662256e-05,0.0,0.0,-0.0014390219045232583,-0.21470019379547975,0.0,0.0,0,0,0,0
1707469104,641003615,base_link,1.8764738525730898e-05,0.0,0.0,-0.0011100005906997858,-7.615218401057662e-09,0.0,0.0,0,0,0,0
1707469104,650989884,base_link,0.0,0.0,0.0,-0.0008023719698591513,0.0,0.0,0.0,0,0,0,0
1707469104,661045090,base_link,-4.599656996441987e-06,0.0,0.0,-0.0004451281026449235,-5.838383966988759e-10,0.0,0.0,0,0,0,0
1707469104,671040299,base_link,-2.742923250832846e-07,0.0,0.0,3.656135246485456e-05,1.242981705362858e-09,0.0,0.0,0,0,0,0
1707469104,681005965,base_link,2.2763201580662256e-05,0.0,0.0,-0.0014390219045232583,-0.21470019379547975,0.0,0.0,0,0,0,0
1707469104,691018565,base_link,1.1232213311648915e-05,0.0,0.0,-0.0013484937199329996,-1.1385928421639444e-08,0.0,0.0,0,0,0,0
1707469104,701073631,base_link,0.0,0.0,0.0,0.0005616603789014058,0.0,0.0,0.0,0,0,0,0
1707469104,711027144,base_link,8.846649153820218e-06,0.0,0.0,-0.001463038752084112,-0.21470019762197343,0.0,0.0,0,0,0,0
1707469104,721010480,base_link,2.844452267931779e-06,0.0,0.0,-0.0009894970788117425,-5.269626849033955e-09,0.0,0.0,0,0,0,0
1707469104,730989695,base_link,6.631015434270328e-06,0.0,0.0,-0.00045476136433421116,-1.2176808788687537e-10,0.0,0.0,0,0,0,0
1707469104,740982180,base_link,-9.697634061735501e-06,0.0,0.0,-0.0008277698914595296,-3.143775552463004e-09,0.0,0.0,0,0,0,0
1707469104,750993175,base_link,0.0,0.0,0.0,0.00032094878794366056,0.0,0.0,0.0,0,0,0,0
1707469104,761067377,base_link,1.1918126197156995e-05,0.0,0.0,-0.001132151180339163,-0.21470019752116679,0.0,0.0,0,0,0,0
1707469104,771065101,base_link,1.1218862429521735e-06,0.0,0.0,-0.00110332272279883,-7.557672221759564e-09,0.0,0.0,0,0,0,0
1707469104,780989000,base_link,-2.484748592944025e-06,0.0,0.0,-0.0008130582277303996,-3.940360439121523e-09,0.0,0.0,0,0,0,0
1707469104,791010192,base_link,-4.743910490385414e-06,0.0,0.0,-0.0006271586715322099,-2.431032853112016e-09,0.0,0.0,0,0,0,0
1707469104,800996461,base_link,0.0,0.0,0.0,0.0,0.0,0.0,0.0,0,0,0,0
1707469104,811060746,base_link,0.0,0.0,0.0,0.0,0.0,0.0,0.0,0,0,0,0
1707469104,820983947,base_link,0.0,0.0,0.0,0.0,0.0,0.0,0.0,0,0,0,0
1707469104,830996128,base_link,7.021114218235822e-06,0.0,0.0,0.00027441662030063224,0.0,0.0,0.0,0,0,0,0
1707469104,840985750,base_link,2.483822484585533e-05,0.0,0.0,-0.0016100486095479455,-0.21470019532857582,0.0,0.0,0,0,0,0
1707469104,850964267,base_link,0.0,0.0,0.0,0.0,0.0,0.0,0.0,0,0,0,0
1707469104,861045664,base_link,-4.451281198365136e-06,0.0,0.0,-0.0004644170050294292,0.0,0.0,0.0,0,0,0,0
1707469104,871005672,base_link,-6.356577757534839e-06,0.0,0.0,-0.0003140991749586234,-5.309877155181321e-10,0.0,0.0,0,0,0,0
1707469104,881009612,base_link,-7.383332049341917e-06,0.0,0.0,-0.00023146529823476206,-3.1934820958789854e-10,0.0,0.0,0,0,0,0
1707469104,890988268,base_link,-8.026481313206385e-06,0.0,0.0,-0.00017854253092848546,-1.970241138401438e-10,0.0,0.0,0,0,0,0
1707469104,901122607,base_link,0.0,0.0,0.0,0.0,0.0,0.0,0.0,0,0,0,0
1707469104,911318966,base_link,-4.451281198365136e-06,0.0,0.0,-0.0004644170050294292,0.0,0.0,0.0,0,0,0,0
1707469104,921038013,base_link,-6.356577757534839e-06,0.0,0.0,-0.0003140991749586234,-5.309877155181321e-10,0.0,0.0,0,0,0,0
1707469104,931023584,base_link,-1.4404446603370072e-05,0.0,0.0,-0.0005058819488096117,-1.2867276297782425e-09,0.0,0.0,0,0,0,0
1707469104,941004406,base_link,-2.3342614207803786e-05,0.0,0.0,-0.0006287090084280727,-2.2666988424734543e-09,0.0,0.0,0,0,0,0
1707469104,951044525,base_link,0.0,0.0,0.0,-0.00024071159095774553,0.0,0.0,0.0,0,0,0,0
1707469104,961199886,base_link,-5.831178369466589e-06,0.0,0.0,-0.000597955455621471,-1.3789361669516751e-09,0.0,0.0,0,0,0,0
1707469104,970994295,base_link,-8.28432374797668e-06,0.0,0.0,-0.0004044152365613148,-8.802496993956373e-10,0.0,0.0,0,0,0,0
1707469104,981013670,base_link,-1.6627425553396526e-05,0.0,0.0,-0.0005724374791134374,-1.774942089150343e-09,0.0,0.0,0,0,0,0
1707469104,991026131,base_link,-1.821799951216763e-05,0.0,0.0,-0.00044155403243401916,-1.2050462014148458e-09,0.0,0.0,0,0,0,0
1707469105,1003600,base_link,0.0,0.0,0.0,-0.0008023719698591513,0.0,0.0,0.0,0,0,0,0
1707469105,11069492,base_link,-4.599656996441987e-06,0.0,0.0,-0.0004451281026449235,-5.838383966988759e-10,0.0,0.0,0,0,0,0
1707469105,21009315,base_link,-2.742923250832846e-07,0.0,0.0,3.656135246485456e-05,1.242981705362858e-09,0.0,0.0,0,0,0,0
1707469105,31027713,base_link,1.5742087004079793e-05,0.0,0.0,-0.0017134385503871814,-0.21470019368287613,0.0,0.0,0,0,0,0
1707469105,41026903,base_link,1.0981130974797506e-05,0.0,0.0,-0.0013216739813126299,-1.0796540276089294e-08,0.0,0.0,0,0,0,0
1707469105,51005699,base_link,0.0,0.0,0.0,0.0,0.0,0.0,0.0,0,0,0,0
1707469105,61087376,base_link,4.451281198365136e-06,0.0,0.0,0.0004644170050294292,0.0,0.0,0.0,0,0,0,0
1707469105,71010786,base_link,2.028433581805886e-05,0.0,0.0,-0.0012832032694298718,-0.21470019804307242,0.0,0.0,0,0,0,0
1707469105,81012770,base_link,9.068577084790482e-06,0.0,0.0,-0.001220032141930662,-9.28201144332737e-09,0.0,0.0,0,0,0,0
1707469105,91003928,base_link,5.678598362609241e-06,0.0,0.0,-0.0009410811372682027,-5.473814649898464e-09,0.0,0.0,0,0,0,0
1707469105,100992084,base_link,0.0,0.0,0.0,0.0,0.0,0.0,0.0,0,0,0,0
1707469105,111034228,base_link,0.0,0.0,0.0,0.0,0.0,0.0,0.0,0,0,0,0
1707469105,121017145,base_link,-6.1515270126103106e-06,0.0,0.0,-0.0003376148022744745,0.0,0.0,0.0,0,0,0,0
1707469105,131014171,base_link,-7.255151251969292e-06,0.0,0.0,-0.00024879438921273235,-3.689554041826292e-10,0.0,0.0,0,0,0,0
1707469105,141010358,base_link,-7.946451144961244e-06,0.0,0.0,-0.00019190945995017274,-2.27629622303433e-10,0.0,0.0,0,0,0,0
1707469105,151015974,base_link,0.0,0.0,0.0,-0.0024071159095774533,0.0,0.0,0.0,0,0,0,0
1707469105,161013558,base_link,-1.3798969538099201e-05,0.0,0.0,-0.001335384204783749,-5.254541245931178e-09,0.0,0.0,0,0,0,0
1707469105,171019314,base_link,-1.9277455813527587e-05,0.0,0.0,-0.0009031603565780783,-4.3901613971752304e-09,0.0,0.0,0,0,0,0
1707469105,180993850,base_link,-1.5208666638372499e-05,0.0,0.0,-0.00039113821075328285,1.412585964489442e-10,0.0,0.0,0,0,0,0
1707469105,191010152,base_link,-1.6295482404036092e-05,0.0,0.0,-0.0003017074341493197,-5.626107186999784e-10,0.0,0.0,0,0,0,0
1707469105,200977983,base_link,0.0,0.0,0.0,0.0,0.0,0.0,0.0,0,0,0,0
1707469105,211002736,base_link,-4.451281198365136e-06,0.0,0.0,-0.0004644170050294292,0.0,0.0,0.0,0,0,0,0
1707469105,221035592,base_link,-2.0505059019395919e-07,0.0,0.0,2.351565418438927e-05,1.2747902679737041e-09,0.0,0.0,0,0,0,0
1707469105,231010267,base_link,2.2789805755623313e-05,0.0,0.0,-0.001448635279123054,-0.2147001936617931,0.0,0.0,0,0,0,0
1707469105,241007362,base_link,2.6297155819603574e-05,0.0,0.0,-0.0008789228287221431,-3.921405164592318e-09,0.0,0.0,0,0,0,0
1707469105,250993771,base_link,0.0,0.0,0.0,0.0010430835608168968,0.0,0.0,0.0,0,0,0,0
1707469105,261001902,base_link,2.050881974889874e-05,0.0,0.0,-0.00026714604964376805,-0.21470021317112095,0.0,0.0,0,0,0,0
1707469105,271015760,base_link,1.3261311293406444e-05,0.0,0.0,-0.0005182936947362444,-1.2144330393661931e-09,0.0,0.0,0,0,0,0
1707469105,280995464,base_link,4.545954077715324e-06,0.0,0.0,-0.0006563565400604079,-2.465794879435434e-09,0.0,0.0,0,0,0,0
1707469105,290985575,base_link,1.025472708224105e-05,0.0,0.0,-0.0002677925637213855,1.3560673668578472e-10,0.0,0.0,0,0,0,0
1707469105,300964301,base_link,0.0,0.0,0.0,0.00024071159095774553,0.0,0.0,0.0,0,0,0,0
1707469105,311010077,base_link,1.1458191505114712e-05,0.0,0.0,-0.0011766609781553063,-0.21470019647926858,0.0,0.0,0,0,0,0
1707469105,321005706,base_link,1.2782402367098989e-05,0.0,0.0,-0.0004581963124782473,1.166614087912882e-09,0.0,0.0,0,0,0,0
1707469105,331014535,base_link,4.263496324105718e-06,0.0,0.0,-0.0006120697235967164,-2.0907473501773926e-09,0.0,0.0,0,0,0,0
1707469105,340979013,base_link,2.5628003670881816e-06,0.0,0.0,-0.0004721246634265489,-1.3776831889504427e-09,0.0,0.0,0,0,0,0
1707469105,350980718,base_link,0.0,0.0,0.0,0.0,0.0,0.0,0.0,0,0,0,0
1707469105,361025098,base_link,4.451281198365136e-06,0.0,0.0,0.0004644170050294292,0.0,0.0,0.0,0,0,0,0
1707469105,371011088,base_link,2.6435862675934404e-05,0.0,0.0,-0.0009455884940241422,-0.2147001998488503,0.0,0.0,0,0,0,0
1707469105,381089830,base_link,2.334484223443228e-05,0.0,0.0,-0.0006968210965434572,-2.894244826298658e-09,0.0,0.0,0,0,0,0
1707469105,391044810,base_link,6.3436066553687285e-06,0.0,0.0,-0.001014484493936785,-5.4374247331738906e-09,0.0,0.0,0,0,0,0
1707469105,401031498,base_link,0.0,0.0,0.0,-0.00048142318191549105,0.0,0.0,0.0,0,0,0,0
1707469105,411062468,base_link,1.6914869852029655e-06,0.0,0.0,0.00019734017169302065,2.4425995475599012e-09,0.0,0.0,0,0,0,0
1707469105,421034978,base_link,1.0277459976845331e-05,0.0,0.0,-0.001801443045782447,-0.2147001944894584,0.0,0.0,0,0,0,0
1707469105,431038709,base_link,-2.6323642608172326e-06,0.0,0.0,-0.0016019323311751124,-1.6052596658438334e-08,0.0,0.0,0,0,0,0
1707469105,441057386,base_link,-7.0834886667767565e-06,0.0,0.0,-0.0012356627407171406,-9.437040585756092e-09,0.0,0.0,0,0,0,0
1707469105,451024867,base_link,0.0,0.0,0.0,0.0,0.0,0.0,0.0,0,0,0,0
1707469105,461008692,base_link,4.451281198365136e-06,0.0,0.0,0.0004644170050294292,0.0,0.0,0.0,0,0,0,0
1707469105,471019896,base_link,2.028433581805886e-05,0.0,0.0,-0.0012832032694298718,-0.21470019804307242,0.0,0.0,0,0,0,0
1707469105,481013359,base_link,2.3110806446903906e-05,0.0,0.0,-0.0006711988023687296,-1.377855883916672e-09,0.0,0.0,0,0,0,0
1707469105,491009756,base_link,2.124581448174161e-05,0.0,0.0,-0.0005177343334766104,-1.656723043338129e-09,0.0,0.0,0,0,0,0
1707469105,500992952,base_link,0.0,0.0,0.0,0.0008023719698591513,0.0,0.0,0.0,0,0,0,0
1707469105,511030347,base_link,1.4677734450976324e-05,0.0,0.0,-0.0008650923862223166,-0.21470020401763876,0.0,0.0,0,0,0,0
1707469105,521015849,base_link,1.7280172073607005e-05,0.0,0.0,-0.0002474731640225206,1.5212716729234766e-09,0.0,0.0,0,0,0,0
1707469105,531016296,base_link,2.3492325036191086e-05,0.0,0.0,9.204924679788435e-05,5.639429683494253e-10,0.0,0.0,0,0,0,0
1707469105,541017582,base_link,5.5867878225373947e-05,0.0,0.0,-0.0012737296611579397,-0.2147001944832658,0.0,0.0,0,0,0,0
1707469105,551022430,base_link,0.0,0.0,0.0,0.00048142318191549105,0.0,0.0,0.0,0,0,0,0
1707469105,561035520,base_link,1.2837995595750955e-05,0.0,0.0,-0.0010431315836754477,-0.21470019963997497,0.0,0.0,0,0,0,0
1707469105,571017459,base_link,1.4710017890847732e-05,0.0,0.0,-0.0003678863945944242,1.3771377196965987e-09,0.0,0.0,0,0,0,0
1707469105,581000026,base_link,1.3507439381236565e-05,0.0,0.0,-0.00027110205858906633,-4.380849445654446e-10,0.0,0.0,0,0,0,0
1707469105,591018703,base_link,2.028668011578992e-05,0.0,0.0,2.9376439946490708e-05,4.400968319697745e-10,0.0,0.0,0,0,0,0
1707469105,600982832,base_link,0.0,0.0,0.0,0.0010430835608168968,0.0,0.0,0.0,0,0,0,0
1707469105,611037130,base_link,2.050881974889874e-05,0.0,0.0,-0.00026714604964376805,-0.21470021317112095,0.0,0.0,0,0,0,0
1707469105,621017043,base_link,2.5564364982030968e-05,0.0,0.0,0.00015693587654687006,8.630378263408247e-10,0.0,0.0,0,0,0,0
1707469105,630997516,base_link,4.197416018910949e-05,0.0,0.0,-0.0016247350216701416,-0.21470019459766762,0.0,0.0,0,0,0,0
1707469105,640996846,base_link,2.992714976922669e-05,0.0,0.0,-0.001491744983531485,-1.3964956646737662e-08,0.0,0.0,0,0,0,0
1707469105,651001904,base_link,0.0,0.0,0.0,-0.00024071159095774553,0.0,0.0,0.0,0,0,0,0
1707469105,661005844,base_link,-1.3798971497250655e-06,0.0,0.0,-0.00013353843440371623,-5.2545470838014996e-11,0.0,0.0,0,0,0,0
1707469105,670989948,base_link,4.22378109796632e-06,0.0,0.0,0.0002472987622861516,4.753316358479151e-10,0.0,0.0,0,0,0,0
1707469105,680999545,base_link,2.7950021879190234e-05,0.0,0.0,-0.0012837302430043457,-0.2147001961076633,0.0,0.0,0,0,0,0
1707469105,691000412,base_link,2.4383051245539293e-05,0.0,0.0,-0.000990215195480339,-6.060314070299301e-09,0.0,0.0,0,0,0,0
1707469105,700996599,base_link,0.0,0.0,0.0,-0.0008023719698591513,0.0,0.0,0.0,0,0,0,0
1707469105,711015486,base_link,-1.4837572682671894e-07,0.0,0.0,1.9288956345156613e-05,3.837463973217839e-09,0.0,0.0,0,0,0,0
1707469105,721004479,base_link,7.707227537156377e-06,0.0,0.0,-0.001921859703469871,-0.21470019351932593,0.0,0.0,0,0,0,0
1707469105,731009746,base_link,1.424890826270318e-06,0.0,0.0,-0.0014162527894604469,-1.1955676911800765e-08,0.0,0.0,0,0,0,0
1707469105,741031147,base_link,5.022221025278521e-06,0.0,0.0,-0.0008539442137922601,-3.6650897555784776e-09,0.0,0.0,0,0,0,0
1707469105,751017905,base_link,0.0,0.0,0.0,-0.0005616603789014058,0.0,0.0,0.0,0,0,0,0
1707469105,761128287,base_link,-3.2197599483019288e-06,0.0,0.0,-0.0003115896754616924,-2.8608084969776803e-10,0.0,0.0,0,0,0,0
1707469105,771006508,base_link,-4.498073892074484e-06,0.0,0.0,-0.00021073745521702945,-2.3902005364183303e-10,0.0,0.0,0,0,0,0
1707469105,781005001,base_link,-1.2208065129963318e-05,0.0,0.0,-0.0004297128478314046,-7.927926331991895e-10,0.0,0.0,0,0,0,0
1707469105,790980095,base_link,-5.869540134221808e-06,0.0,0.0,-9.296921115434822e-05,4.469347792089515e-10,0.0,0.0,0,0,0,0
1707469105,800972441,base_link,0.0,0.0,0.0,0.0010430835608168968,0.0,0.0,0.0,0,0,0,0
1707469105,811004737,base_link,-1.7475857797051145e-06,0.0,0.0,-0.002589230724037407,-0.21470018443265662,0.0,0.0,0,0,0,0
1707469105,821021738,base_link,-6.218517698181535e-06,0.0,0.0,-0.0014135596458057886,-6.4371523463219494e-09,0.0,0.0,0,0,0,0
1707469105,831022326,base_link,-1.7860396018105263e-05,0.0,0.0,-0.0013160940694874712,-1.0821394200439115e-08,0.0,0.0,0,0,0,0
1707469105,840999725,base_link,-2.904981709922434e-05,0.0,0.0,-0.0012536723668634554,-9.818334259375527e-09,0.0,0.0,0,0,0,0
1707469105,850981734,base_link,0.0,0.0,0.0,-0.0010430835608168968,0.0,0.0,0.0,0,0,0,0
1707469105,861127946,base_link,-5.9795540010453914e-06,0.0,0.0,-0.0005786665267336388,-9.866867686190376e-10,0.0,0.0,0,0,0,0
1707469105,871034035,base_link,-2.2020379159107373e-06,0.0,0.0,-5.375467310794941e-05,1.425635897143584e-09,0.0,0.0,0,0,0,0
1707469105,881008081,base_link,-2.377755793600699e-06,0.0,0.0,-3.9612778651182715e-05,-9.353266839352333e-12,0.0,0.0,0,0,0,0
1707469105,890997145,base_link,-1.0020348336543011e-05,0.0,0.0,-0.00026904869458783243,-1.0956904595615525e-10,0.0,0.0,0,0,0,0
1707469105,900988443,base_link,0.0,0.0,0.0,-0.0010430835608168968,0.0,0.0,0.0,0,0,0,0
1707469105,911027374,base_link,-5.9795540010453914e-06,0.0,0.0,-0.0005786665267336388,-9.866867686190376e-10,0.0,0.0,0,0,0,0
1707469105,921060300,base_link,-2.0656620303976085e-05,0.0,0.0,-0.001066599276629001,-5.324397236112339e-09,0.0,0.0,0,0,0,0
1707469105,930993488,base_link,-2.4143210323953785e-05,0.0,0.0,-0.0007859960584926546,-3.682420570100973e-09,0.0,0.0,0,0,0,0
1707469105,941028718,base_link,-2.6327177283095292e-05,0.0,0.0,-0.0006062840588669866,-2.271895045660048e-09,0.0,0.0,0,0,0,0
1707469105,951012543,base_link,0.0,0.0,0.0,0.0008023719698591513,0.0,0.0,0.0,0,0,0,0
1707469105,961019416,base_link,1.9129015578078493e-05,0.0,0.0,-0.00040067543515477926,-0.214700208438941,0.0,0.0,0,0,0,0
1707469105,971016651,base_link,1.748522225540354e-05,0.0,0.0,-0.0002709888457150875,-3.9523349240181044e-10,0.0,0.0,0,0,0,0
1707469105,981124728,base_link,1.659939063039871e-05,0.0,0.0,-0.00019969652976252033,-2.377025015567689e-10,0.0,0.0,0,0,0,0
1707469105,991041573,base_link,2.3577038206092066e-05,0.0,0.0,8.445561653938787e-05,3.7661819940448707e-10,0.0,0.0,0,0,0,0
1707469106,979720,base_link,0.0,0.0,0.0,0.0010430835608168968,0.0,0.0,0.0,0,0,0,0
1707469106,11062514,base_link,2.050881974889874e-05,0.0,0.0,-0.00026714604964376805,-0.21470021317112095,0.0,0.0,0,0,0,0
1707469106,21061704,base_link,2.5564364982030968e-05,0.0,0.0,0.00015693587654687006,8.630378263408247e-10,0.0,0.0,0,0,0,0
1707469106,31037078,base_link,4.197416018910949e-05,0.0,0.0,-0.0016247350216701416,-0.21470019459766762,0.0,0.0,0,0,0,0
1707469106,41008121,base_link,3.745967454202588e-05,0.0,0.0,-0.0012532518712869535,-9.707617724565576e-09,0.0,0.0,0,0,0,0
1707469106,50979025,base_link,0.0,0.0,0.0,0.0008023719698591513,0.0,0.0,0.0,0,0,0,0
1707469106,61038072,base_link,1.9129015578078493e-05,0.0,0.0,-0.00040067543515477926,-0.214700208438941,0.0,0.0,0,0,0,0
1707469106,71024761,base_link,1.133369530722366e-05,0.0,0.0,-0.0006086036464870094,-1.9531670095673733e-09,0.0,0.0,0,0,0,0
1707469106,80993988,base_link,1.6365354074227752e-05,0.0,0.0,-0.00017407426868082707,6.754628944860312e-10,0.0,0.0,0,0,0,0
1707469106,91014760,base_link,2.3414195821140285e-05,0.0,0.0,0.00010421955476080117,3.446979604476436e-10,0.0,0.0,0,0,0,0
1707469106,101001030,base_link,0.0,0.0,0.0,0.0010430835608168968,0.0,0.0,0.0,0,0,0,0
1707469106,110983667,base_link,2.050881974889874e-05,0.0,0.0,-0.00026714604964376805,-0.21470021317112095,0.0,0.0,0,0,0,0
1707469106,121047045,base_link,1.9412838137718706e-05,0.0,0.0,-0.0001806789090946872,-1.7569760651268422e-10,0.0,0.0,0,0,0,0
1707469106,131075500,base_link,1.18011052145365e-05,0.0,0.0,-0.000407562143042702,-6.62133074599182e-10,0.0,0.0,0,0,0,0
1707469106,140996605,base_link,1.0668653348777859e-05,0.0,0.0,-0.0003143761889076708,-6.108510092283883e-10,0.0,0.0,0,0,0,0
1707469106,151076814,base_link,0.0,0.0,0.0,0.0008023719698591513,0.0,0.0,0.0,0,0,0,0
1707469106,161029628,base_link,1.4677734450976324e-05,0.0,0.0,-0.0008650923862223166,-0.21470020401763876,0.0,0.0,0,0,0,0
1707469106,171028121,base_link,1.1128644970700185e-05,0.0,0.0,-0.0005850879916627981,-1.8424395496510679e-09,0.0,0.0,0,0,0,0
1707469106,181139341,base_link,1.623717397780273e-05,0.0,0.0,-0.00015674514017644225,6.938998397016045e-10,0.0,0.0,0,0,0,0
1707469106,191072808,base_link,1.5801642077373508e-05,0.0,0.0,-0.00012090656336535805,-9.035158270188472e-11,0.0,0.0,0,0,0,0
1707469106,200990631,base_link,0.0,0.0,0.0,0.0,0.0,0.0,0.0,0,0,0,0
1707469106,211023207,base_link,0.0,0.0,0.0,0.0,0.0,0.0,0.0,0,0,0,0
1707469106,221008359,base_link,0.0,0.0,0.0,0.0,0.0,0.0,0.0,0,0,0,0
1707469106,231036814,base_link,0.0,0.0,0.0,0.0,0.0,0.0,0.0,0,0,0,0
1707469106,241124357,base_link,-7.532524005938674e-06,0.0,0.0,-0.0002384930500352462,0.0,0.0,0.0,0,0,0,0
1707469106,250996501,base_link,0.0,0.0,0.0,-0.00024071159095774553,0.0,0.0,0.0,0,0,0,0
1707469106,260997787,base_link,-1.3798971497250655e-06,0.0,0.0,-0.00013353843440371623,-5.2545470838014996e-11,0.0,0.0,0,0,0,0
1707469106,270992648,base_link,-1.9277460185105805e-06,0.0,0.0,-9.031605511902352e-05,-4.3901647468094477e-11,0.0,0.0,0,0,0,0
1707469106,281050158,base_link,-2.2229789014543563e-06,0.0,0.0,-6.65555164065431e-05,-2.6403459699219394e-11,0.0,0.0,0,0,0,0
1707469106,291002064,base_link,-9.94043421657638e-06,0.0,0.0,-0.0002898311685517945,-1.9068708609501237e-10,0.0,0.0,0,0,0,0
1707469106,300980581,base_link,0.0,0.0,0.0,0.0005616603789014058,0.0,0.0,0.0,0,0,0,0
1707469106,310979841,base_link,8.846649153820218e-06,0.0,0.0,-0.001463038752084112,-0.21470019762197343,0.0,0.0,0,0,0,0
1707469106,321003826,base_link,-3.3070750935615352e-06,0.0,0.0,-0.001327111948450349,-1.0958314239050481e-08,0.0,0.0,0,0,0,0
1707469106,331043596,base_link,-7.645250756910049e-06,0.0,0.0,-0.0009779724991765182,-5.700932788158098e-09,0.0,0.0,0,0,0,0
1707469106,341009471,base_link,-2.830117110457816e-06,0.0,0.0,-0.0005158733909976108,-9.546205604986937e-10,0.0,0.0,0,0,0,0
1707469106,350987220,base_link,0.0,0.0,0.0,-0.0005616603789014058,0.0,0.0,0.0,0,0,0,0
1707469106,360995350,base_link,-1.2122322444785079e-05,0.0,0.0,-0.0012404237610657222,-6.475904137859528e-09,0.0,0.0,0,0,0,0
1707469106,371495181,base_link,-1.1059701400740928e-05,0.0,0.0,-0.0005013209400127894,1.035115601147711e-09,0.0,0.0,0,0,0,0
1707469106,381030539,base_link,-1.269846193672367e-05,0.0,0.0,-0.00036943234848591644,-8.135092943901379e-10,0.0,0.0,0,0,0,0
1707469106,391012478,base_link,-6.192441024165883e-06,0.0,0.0,-4.647135332628389e-05,4.661339020106531e-10,0.0,0.0,0,0,0,0
1707469106,400984081,base_link,0.0,0.0,0.0,0.00024071159095774553,0.0,0.0,0.0,0,0,0,0
1707469106,410983341,base_link,1.1458191505114712e-05,0.0,0.0,-0.0011766609781553063,-0.21470019647926858,0.0,0.0,0,0,0,0
1707469106,421018711,base_link,6.630875021842822e-06,0.0,0.0,-0.0007958111754223078,-3.408559722642346e-09,0.0,0.0,0,0,0,0
1707469106,431205572,base_link,-2.9916552108923895e-06,0.0,0.0,-0.0008608641644243486,-4.50096809144748e-09,0.0,0.0,0,0,0,0
1707469106,441045448,base_link,-1.2916175931422208e-05,0.0,0.0,-0.0009025272839538076,-4.981062628765659e-09,0.0,0.0,0,0,0,0
1707469106,451019844,base_link,0.0,0.0,0.0,-0.0010430835608168968,0.0,0.0,0.0,0,0,0,0
1707469106,461039010,base_link,-5.9795540010453914e-06,0.0,0.0,-0.0005786665267336388,-9.866867686190376e-10,0.0,0.0,0,0,0,0
1707469106,470997622,base_link,-8.353565378599186e-06,0.0,0.0,-0.00039136954094829996,-8.243751472750571e-10,0.0,0.0,0,0,0,0
1707469106,481041023,base_link,-1.665402242099657e-05,0.0,0.0,-0.0005628238801873534,-1.7011590827189675e-09,0.0,0.0,0,0,0,0
1707469106,491011089,base_link,-1.821788395970624e-05,0.0,0.0,-0.0004341385053419326,-1.1649106046991347e-09,0.0,0.0,0,0,0,0
1707469106,500996241,base_link,0.0,0.0,0.0,-0.0008023719698591513,0.0,0.0,0.0,0,0,0,0
1707469106,511001089,base_link,-4.599656996441987e-06,0.0,0.0,-0.0004451281026449235,-5.838383966988759e-10,0.0,0.0,0,0,0,0
1707469106,521050986,base_link,-6.425819683909952e-06,0.0,0.0,-0.00030105350024502305,-4.877959864867894e-10,0.0,0.0,0,0,0,0
1707469106,531050456,base_link,-1.4431043848553302e-05,0.0,0.0,-0.0004962683662955201,-1.2205724151412338e-09,0.0,0.0,0,0,0,0
1707469106,541000756,base_link,-8.27744964281443e-06,0.0,0.0,-0.0001443073065138643,3.9469358826759126e-10,0.0,0.0,0,0,0,0
1707469106,550989121,base_link,0.0,0.0,0.0,0.00024071159095774553,0.0,0.0,0.0,0,0,0,0
1707469106,561011569,base_link,1.1458191505114712e-05,0.0,0.0,-0.0011766609781553063,-0.21470019647926858,0.0,0.0,0,0,0,0
1707469106,571036393,base_link,4.793476765866552e-07,0.0,0.0,-0.0011334260383663683,-7.983733533197575e-09,0.0,0.0,0,0,0,0
1707469106,581057584,base_link,-3.2256913559317028e-06,0.0,0.0,-0.0008352418959370049,-4.158313134477278e-09,0.0,0.0,0,0,0,0
1707469106,591032469,base_link,-5.546492687855003e-06,0.0,0.0,-0.0006442702115344336,-2.565500279770114e-09,0.0,0.0,0,0,0,0
1707469106,600992617,base_link,0.0,0.0,0.0,0.0008023719698591513,0.0,0.0,0.0,0,0,0,0
1707469106,611010316,base_link,1.4677734450976324e-05,0.0,0.0,-0.0008650923862223166,-0.21470020401763876,0.0,0.0,0,0,0,0
1707469106,621043032,base_link,1.1128644970700185e-05,0.0,0.0,-0.0005850879916627981,-1.8424395496510679e-09,0.0,0.0,0,0,0,0
1707469106,630992773,base_link,9.216059339388098e-06,0.0,0.0,-0.0004311618034659523,-1.108085444766601e-09,0.0,0.0,0,0,0,0
1707469106,641023114,base_link,8.018033681361789e-06,0.0,0.0,-0.00033257995773377174,-6.836410663678603e-10,0.0,0.0,0,0,0,0
1707469106,650979001,base_link,0.0,0.0,0.0,0.0,0.0,0.0,0.0,0,0,0,0
1707469106,661006618,base_link,4.451281198365136e-06,0.0,0.0,0.0004644170050294292,0.0,0.0,0.0,0,0,0,0
1707469106,671023130,base_link,2.028433581805886e-05,0.0,0.0,-0.0012832032694298718,-0.21470019804307242,0.0,0.0,0,0,0,0
1707469106,681002275,base_link,2.3110806446903906e-05,0.0,0.0,-0.0006711988023687296,-1.377855883916672e-09,0.0,0.0,0,0,0,0
1707469106,691017879,base_link,1.3713289603718779e-05,0.0,0.0,-0.0007562274427981398,-3.4154843662504156e-09,0.0,0.0,0,0,0,0
1707469106,701019794,base_link,0.0,0.0,0.0,-0.00024071159095774553,0.0,0.0,0.0,0,0,0,0
1707469106,711003130,base_link,-1.3798971497250655e-06,0.0,0.0,-0.00013353843440371623,-5.2545470838014996e-11,0.0,0.0,0,0,0,0
1707469106,720999457,base_link,-1.9277460185105805e-06,0.0,0.0,-9.031605511902352e-05,-4.3901647468094477e-11,0.0,0.0,0,0,0,0
1707469106,731032801,base_link,4.798135474927847e-06,0.0,0.0,0.00020786111662036993,2.517567403109916e-10,0.0,0.0,0,0,0,0
1707469106,741003705,base_link,2.243035892914299e-05,0.0,0.0,-0.0016613855009156267,-0.21470019481568098,0.0,0.0,0,0,0,0
1707469106,751024477,base_link,0.0,0.0,0.0,0.0008023719698591513,0.0,0.0,0.0,0,0,0,0
1707469106,761019826,base_link,1.4677734450976324e-05,0.0,0.0,-0.0008650923862223166,-0.21470020401763876,0.0,0.0,0,0,0,0
1707469106,770998552,base_link,1.1128644970700185e-05,0.0,0.0,-0.0005850879916627981,-1.8424395496510679e-09,0.0,0.0,0,0,0,0
1707469106,781017229,base_link,9.216059339388098e-06,0.0,0.0,-0.0004311618034659523,-1.108085444766601e-09,0.0,0.0,0,0,0,0
1707469106,791006642,base_link,1.5550558366299986e-05,0.0,0.0,-9.408686294818926e-05,4.4614443407213546e-10,0.0,0.0,0,0,0,0
1707469106,800996124,base_link,0.0,0.0,0.0,-0.0005616603789014058,0.0,0.0,0.0,0,0,0,0
1707469106,810991264,base_link,5.682802548181223e-06,0.0,0.0,0.0006172444101423377,5.903742438463993e-09,0.0,0.0,0,0,0,0
1707469106,821052755,base_link,2.829428563356433e-05,0.0,0.0,-0.0008422307446769836,-0.21470020219543468,0.0,0.0,0,0,0,0
1707469106,831027919,base_link,3.25622443643505e-05,0.0,0.0,-0.00034623826368945754,2.9783497683475973e-10,0.0,0.0,0,0,0,0
1707469106,841027389,base_link,3.160018708651679e-05,0.0,0.0,-0.00026707353709135717,-4.4085697755574395e-10,0.0,0.0,0,0,0,0
1707469106,851015894,base_link,0.0,0.0,0.0,0.0,0.0,0.0,0.0,0,0,0,0
1707469106,861010964,base_link,-4.451281198365136e-06,0.0,0.0,-0.0004644170050294292,0.0,0.0,0.0,0,0,0,0
1707469106,870994789,base_link,-1.2508104924875718e-05,0.0,0.0,-0.0006517140041016361,-2.336765699009968e-09,0.0,0.0,0,0,0,0
1707469106,881000754,base_link,-2.8680712732812175e-05,0.0,0.0,-0.0010290930378779326,-5.389184593924364e-09,0.0,0.0,0,0,0,0
1707469106,891036333,base_link,-3.154014864999976e-05,0.0,0.0,-0.0007937987963335192,-3.894545960661625e-09,0.0,0.0,0,0,0,0
1707469106,900979579,base_link,0.0,0.0,0.0,0.0,0.0,0.0,0.0,0,0,0,0
1707469106,911030663,base_link,-8.902562396730272e-06,0.0,0.0,-0.0009288340100588584,0.0,0.0,0.0,0,0,0,0
1707469106,921040470,base_link,-1.2713155204075611e-05,0.0,0.0,-0.0006281983458549167,-2.123950679488195e-09,0.0,0.0,0,0,0,0
1707469106,931039102,base_link,-7.745548591936002e-06,0.0,0.0,-0.0001885139042943206,6.573662881567554e-10,0.0,0.0,0,0,0,0
1707469106,941038013,base_link,-1.5801877871068773e-05,0.0,0.0,-0.000383904735292377,-6.246559365527788e-10,0.0,0.0,0,0,0,0
1707469106,951042861,base_link,0.0,0.0,0.0,0.0005616603789014058,0.0,0.0,0.0,0,0,0,0
1707469106,961068453,base_link,1.3297930302302622e-05,0.0,0.0,-0.0009986217848278766,-0.214700200716885,0.0,0.0,0,0,0,0
1707469106,971033420,base_link,9.201029213577077e-06,0.0,0.0,-0.0006753979304426935,-2.455106370079332e-09,0.0,0.0,0,0,0,0
1707469106,981033239,base_link,6.993230866451716e-06,0.0,0.0,-0.0004977128070748936,-1.4765573280343585e-09,0.0,0.0,0,0,0,0
1707469106,990995203,base_link,1.3142811653072327e-05,0.0,0.0,-0.00014542147522692185,3.9319867472448975e-10,0.0,0.0,0,0,0,0
1707469107,1077228,base_link,0.0,0.0,0.0,0.00024071159095774553,0.0,0.0,0.0,0,0,0,0
1707469107,11008461,base_link,1.1458191505114712e-05,0.0,0.0,-0.0011766609781553063,-0.21470019647926858,0.0,0.0,0,0,0,0
1707469107,21002413,base_link,4.793476765866552e-07,0.0,0.0,-0.0011334260383663683,-7.983733533197575e-09,0.0,0.0,0,0,0,0
1707469107,31040227,base_link,3.795423820271943e-06,0.0,0.0,-0.000560825186096963,-6.675265969747608e-10,0.0,0.0,0,0,0,0
1707469107,41020350,base_link,2.237116001297903e-06,0.0,0.0,-0.0004325967863527743,-1.1566515806881536e-09,0.0,0.0,0,0,0,0
1707469107,51008575,base_link,0.0,0.0,0.0,0.0008023719698591513,0.0,0.0,0.0,0,0,0,0
1707469107,61103242,base_link,1.022645332387416e-05,0.0,0.0,-0.001329509337289854,-0.21470019959633654,0.0,0.0,0,0,0,0
1707469107,71028957,base_link,-1.3794592606355582e-06,0.0,0.0,-0.001236801988056449,-9.52110952167088e-09,0.0,0.0,0,0,0,0
1707469107,81038205,base_link,-5.4224223339583445e-06,0.0,0.0,-0.000911421485765512,-4.95143600208739e-09,0.0,0.0,0,0,0,0
1707469107,91027408,base_link,-4.2237058875159436e-07,0.0,0.0,-0.00046453877580122823,-6.665989759957164e-10,0.0,0.0,0,0,0,0
1707469107,101244093,base_link,0.0,0.0,0.0,0.0010430835608168968,0.0,0.0,0.0,0,0,0,0
1707469107,111005325,base_link,1.1606257537457196e-05,0.0,0.0,-0.0011959799194012238,-0.21470020167573522,0.0,0.0,0,0,0,0
1707469107,121004725,base_link,5.481566694269616e-07,0.0,0.0,-0.001146492023337961,-8.17169612805468e-09,0.0,0.0,0,0,0,0
1707469107,131056299,base_link,1.0842636204833899e-05,0.0,0.0,-0.0002960370723924428,2.8073164510393813e-09,0.0,0.0,0,0,0,0
1707469107,141177018,base_link,2.4875430689242987e-06,0.0,0.0,-0.0004668435650559199,-1.0979991585775714e-09,0.0,0.0,0,0,0,0
1707469107,150995243,base_link,0.0,0.0,0.0,-0.0010430835608168968,0.0,0.0,0.0,0,0,0,0
1707469107,161003234,base_link,-1.0430835292033193e-05,0.0,0.0,-0.001043083601911672,-6.7343798771079375e-09,0.0,0.0,0,0,0,0
1707469107,171029943,base_link,-1.4710143014492457e-05,0.0,0.0,-0.0007054687440023225,-2.6785907636396456e-09,0.0,0.0,0,0,0,0
1707469107,181013558,base_link,-1.7016239091987346e-05,0.0,0.0,-0.0005198725080488385,-1.6109659760680637e-09,0.0,0.0,0,0,0,0
1707469107,191026508,base_link,-2.599328117240193e-05,0.0,0.0,-0.0006395007506620771,-2.3561335471063106e-09,0.0,0.0,0,0,0,0
1707469107,201022905,base_link,0.0,0.0,0.0,-0.0010430835608168968,0.0,0.0,0.0,0,0,0,0
1707469107,211027473,base_link,-5.9795540010453914e-06,0.0,0.0,-0.0005786665267336388,-9.866867686190376e-10,0.0,0.0,0,0,0,0
1707469107,221023102,base_link,-8.353565378599186e-06,0.0,0.0,-0.00039136954094829996,-8.243751472750571e-10,0.0,0.0,0,0,0,0
1707469107,231034655,base_link,-1.665402242099657e-05,0.0,0.0,-0.0005628238801873534,-1.7011590827189675e-09,0.0,0.0,0,0,0,0
1707469107,241040341,base_link,-2.5750408955434393e-05,0.0,0.0,-0.0006726316132159967,-2.639694046214489e-09,0.0,0.0,0,0,0,0
1707469107,250997835,base_link,0.0,0.0,0.0,-0.0010430835608168968,0.0,0.0,0.0,0,0,0,0
1707469107,261006245,base_link,-1.0430835292033193e-05,0.0,0.0,-0.001043083601911672,-6.7343798771079375e-09,0.0,0.0,0,0,0,0
1707469107,271050624,base_link,-8.55861539707867e-06,0.0,0.0,-0.00036785384929368563,1.3771988408363511e-09,0.0,0.0,0,0,0,0
1707469107,281038081,base_link,-1.6782202452792015e-05,0.0,0.0,-0.0005454947552585973,-1.5709435048146919e-09,0.0,0.0,0,0,0,0
1707469107,291023582,base_link,-2.5830438383025354e-05,0.0,0.0,-0.0006592646630859315,-2.5236561334998457e-09,0.0,0.0,0,0,0,0
1707469107,300996581,base_link,0.0,0.0,0.0,-0.0010430835608168968,0.0,0.0,0.0,0,0,0,0
1707469107,311008693,base_link,-1.5282727100575878e-06,0.0,0.0,-0.00011424945155560549,4.761006339869864e-09,0.0,0.0,0,0,0,0
1707469107,321037008,base_link,-1.9969874317108617e-06,0.0,0.0,-7.727033383189867e-05,-3.213486305848347e-11,0.0,0.0,0,0,0,0
1707469107,331079223,base_link,-9.270689893754384e-06,0.0,0.0,-0.0003313585352778074,-2.573079499390792e-10,0.0,0.0,0,0,0,0
1707469107,341056413,base_link,-1.7723926909268702e-05,0.0,0.0,-0.0004940890254686535,-1.272047298747096e-09,0.0,0.0,0,0,0,0
1707469107,351013278,base_link,0.0,0.0,0.0,-0.0010430835608168968,0.0,0.0,0.0,0,0,0,0
1707469107,360991096,base_link,-1.5282727100575878e-06,0.0,0.0,-0.00011424945155560549,4.761006339869864e-09,0.0,0.0,0,0,0,0
1707469107,371022904,base_link,-1.9969874317108617e-06,0.0,0.0,-7.727033383189867e-05,-3.213486305848347e-11,0.0,0.0,0,0,0,0
1707469107,381031104,base_link,-9.270689893754384e-06,0.0,0.0,-0.0003313585352778074,-2.573079499390792e-10,0.0,0.0,0,0,0,0
1707469107,391045800,base_link,-2.5256451440039373e-05,0.0,0.0,-0.0007325821050373641,-2.1403154126493213e-09,0.0,0.0,0,0,0,0
1707469107,401038775,base_link,0.0,0.0,0.0,-0.0012837951517746422,0.0,0.0,0.0,0,0,0,0
1707469107,410986071,base_link,-1.181073227447119e-05,0.0,0.0,-0.0011766220390936996,-8.568709786335347e-09,0.0,0.0,0,0,0,0
1707469107,421016761,base_link,-1.663788858396065e-05,0.0,0.0,-0.0007957847868642598,-3.4083333322927524e-09,0.0,0.0,0,0,0,0
1707469107,430996046,base_link,-1.9239217250565773e-05,0.0,0.0,-0.0005864280058131854,-2.049849897411308e-09,0.0,0.0,0,0,0,0
1707469107,441016120,base_link,-2.8401190377576972e-05,0.0,0.0,-0.0006908388484661287,-2.8013033762842356e-09,0.0,0.0,0,0,0,0
1707469107,451001901,base_link,0.0,0.0,0.0,-0.0010430835608168968,0.0,0.0,0.0,0,0,0,0
1707469107,460984957,base_link,-1.5282727100575878e-06,0.0,0.0,-0.00011424945155560549,4.761006339869864e-09,0.0,0.0,0,0,0,0
1707469107,471005031,base_link,4.154539876248048e-06,0.0,0.0,0.00026034450713995885,4.1209771214162043e-10,0.0,0.0,0,0,0,0
1707469107,480985783,base_link,2.0902303934512887e-05,0.0,0.0,-0.0015485334650805834,-0.21470019545842586,0.0,0.0,0,0,0,0
1707469107,491012422,base_link,1.659955222481558e-05,0.0,0.0,-0.001194473190625598,-8.818378885419812e-09,0.0,0.0,0,0,0,0
1707469107,501016153,base_link,0.0,0.0,0.0,0.0,0.0,0.0,0.0,0,0,0,0
1707469107,510992225,base_link,-4.451281198365136e-06,0.0,0.0,-0.0004644170050294292,0.0,0.0,0.0,0,0,0,0
1707469107,521002172,base_link,-2.0505059019395919e-07,0.0,0.0,2.351565418438927e-05,1.2747902679737041e-09,0.0,0.0,0,0,0,0
1707469107,531002480,base_link,1.576869137039768e-05,0.0,0.0,-0.0017230519128404271,-0.21470019358936834,0.0,0.0,0,0,0,0
1707469107,541028630,base_link,1.851354862099891e-05,0.0,0.0,-0.001090596199716947,-6.403067947312203e-09,0.0,0.0,0,0,0,0
1707469107,550978581,base_link,0.0,0.0,0.0,-0.0005616603789014058,0.0,0.0,0.0,0,0,0,0
1707469107,560976444,base_link,1.231521299939647e-06,0.0,0.0,0.00015282736734032257,2.808830794383112e-09,0.0,0.0,0,0,0,0
1707469107,571017611,base_link,9.634901850732886e-06,0.0,0.0,-0.0018315472109250875,-0.21470019423229342,0.0,0.0,0,0,0,0
1707469107,580980622,base_link,1.0668901080050251e-05,0.0,0.0,-0.0010752831961085767,-5.217533337557599e-09,0.0,0.0,0,0,0,0
1707469107,590994969,base_link,7.681121834777601e-06,0.0,0.0,-0.0008294278991414023,-4.2519997177338645e-09,0.0,0.0,0,0,0,0
1707469107,600992972,base_link,0.0,0.0,0.0,0.0008023719698591513,0.0,0.0,0.0,0,0,0,0
1707469107,610988531,base_link,1.4677734450976324e-05,0.0,0.0,-0.0008650923862223166,-0.21470020401763876,0.0,0.0,0,0,0,0
1707469107,621132089,base_link,1.1128644970700185e-05,0.0,0.0,-0.0005850879916627981,-1.8424395496510679e-09,0.0,0.0,0,0,0,0
1707469107,631018481,base_link,1.623717397780273e-05,0.0,0.0,-0.00015674514017644225,6.938998397016045e-10,0.0,0.0,0,0,0,0
1707469107,641093522,base_link,8.269117559666754e-06,0.0,0.0,-0.0003593996459485924,-5.010753093415063e-10,0.0,0.0,0,0,0,0
1707469107,651129800,base_link,0.0,0.0,0.0,-0.0010430835608168968,0.0,0.0,0.0,0,0,0,0
1707469107,660992306,base_link,-5.9795540010453914e-06,0.0,0.0,-0.0005786665267336388,-9.866867686190376e-10,0.0,0.0,0,0,0,0
1707469107,671033962,base_link,-8.353565378599186e-06,0.0,0.0,-0.00039136954094829996,-8.243751472750571e-10,0.0,0.0,0,0,0,0
1707469107,681154331,base_link,-9.63290751746971e-06,0.0,0.0,-0.00028840720473980873,-4.957981492473803e-10,0.0,0.0,0,0,0,0
1707469107,690971369,base_link,-1.0434275403201536e-05,0.0,0.0,-0.00022246510278395933,-3.0588613344820453e-10,0.0,0.0,0,0,0,0
1707469107,701009882,base_link,0.0,0.0,0.0,-0.0008023719698591513,0.0,0.0,0.0,0,0,0,0
1707469107,711016057,base_link,-1.4837572682671894e-07,0.0,0.0,1.9288956345156613e-05,3.837463973217839e-09,0.0,0.0,0,0,0,0
1707469107,721044652,base_link,1.3858754741252301e-05,0.0,0.0,-0.0015842448776285443,-0.21470019359432657,0.0,0.0,0,0,0,0
1707469107,731003473,base_link,1.5701156487878365e-05,0.0,0.0,-0.000893041672358154,-3.244861132408707e-09,0.0,0.0,0,0,0,0
1707469107,741027039,base_link,2.0752278413505535e-05,0.0,0.0,-0.0004503613651239464,-5.927947187778393e-10,0.0,0.0,0,0,0,0
1707469107,750994800,base_link,0.0,0.0,0.0,-0.0005616603789014058,0.0,0.0,0.0,0,0,0,0
1707469107,760992942,base_link,-1.2122322444785079e-05,0.0,0.0,-0.0012404237610657222,-6.475904137859528e-09,0.0,0.0,0,0,0,0
1707469107,771110588,base_link,-1.1059701400740928e-05,0.0,0.0,-0.0005013209400127894,1.035115601147711e-09,0.0,0.0,0,0,0,0
1707469107,781058653,base_link,-1.9719577026738303e-05,0.0,0.0,-0.0006438490421718031,-2.357504546256649e-09,0.0,0.0,0,0,0,0
1707469107,791016706,base_link,-2.150857478267514e-05,0.0,0.0,-0.000496637877663664,-1.5244586734976104e-09,0.0,0.0,0,0,0,0
1707469107,801024068,base_link,0.0,0.0,0.0,0.0008023719698591513,0.0,0.0,0.0,0,0,0,0
1707469107,810997835,base_link,1.4677734450976324e-05,0.0,0.0,-0.0008650923862223166,-0.21470020401763876,0.0,0.0,0,0,0,0
1707469107,821028316,base_link,4.977117867793367e-06,0.0,0.0,-0.0009227028193030755,-5.2061507722256115e-09,0.0,0.0,0,0,0,0
1707469107,831022548,base_link,1.960908325950608e-06,0.0,0.0,-0.0006799562078228818,-2.755843539767397e-09,0.0,0.0,0,0,0,0
1707469107,841049047,base_link,7.158313171879659e-08,0.0,0.0,-0.0005244894212401022,-1.7002369259933752e-09,0.0,0.0,0,0,0,0
1707469107,850995296,base_link,0.0,0.0,0.0,0.0,0.0,0.0,0.0,0,0,0,0
1707469107,860979121,base_link,4.451281198365136e-06,0.0,0.0,0.0004644170050294292,0.0,0.0,0.0,0,0,0,0
1707469107,871041101,base_link,1.4132808960183318e-05,0.0,0.0,-0.0016208180448356016,-0.21470019623729453,0.0,0.0,0,0,0,0
1707469107,881027790,base_link,1.5855656360869637e-05,0.0,0.0,-0.0009199931616427906,-3.511651035106943e-09,0.0,0.0,0,0,0,0
1707469107,891018320,base_link,2.0831890358685167e-05,0.0,0.0,-0.0004711506297451657,-7.018684613867935e-10,0.0,0.0,0,0,0,0
1707469107,901031060,base_link,0.0,0.0,0.0,0.0010430835608168968,0.0,0.0,0.0,0,0,0,0
1707469107,911001894,base_link,1.1606257537457196e-05,0.0,0.0,-0.0011959799194012238,-0.21470020167573522,0.0,0.0,0,0,0,0
1707469107,921043689,base_link,5.481566694269616e-07,0.0,0.0,-0.001146492023337961,-8.17169612805468e-09,0.0,0.0,0,0,0,0
1707469107,931020879,base_link,-3.1995937648753506e-06,0.0,0.0,-0.0008448704677824967,-4.25473890316883e-09,0.0,0.0,0,0,0,0
1707469107,941054503,base_link,-1.3079674435682283e-05,0.0,0.0,-0.0008901904235050985,-4.838829196197668e-09,0.0,0.0,0,0,0,0
1707469107,951011088,base_link,0.0,0.0,0.0,0.0013640323487605574,0.0,0.0,0.0,0,0,0,0
1707469107,961024946,base_link,1.344599655661294e-05,0.0,0.0,-0.0010179406907362717,-0.2147002046116556,0.0,0.0,0,0,0,0
1707469107,971015336,base_link,9.269838409220361e-06,0.0,0.0,-0.0006884639111150889,-2.551016356421023e-09,0.0,0.0,0,0,0,0
1707469107,981021022,base_link,1.404044335334539e-05,0.0,0.0,-0.00023292470637243366,5.861281538618905e-10,0.0,0.0,0,0,0,0
1707469107,991011273,base_link,1.3393238994921095e-05,0.0,0.0,-0.00017966825481214625,-1.9951644821764145e-10,0.0,0.0,0,0,0,0
1707469108,979034,base_link,0.0,0.0,0.0,0.0008023719698591513,0.0,0.0,0.0,0,0,0,0
1707469108,10998898,base_link,1.022645332387416e-05,0.0,0.0,-0.001329509337289854,-0.21470019959633654,0.0,0.0,0,0,0,0
1707469108,21006260,base_link,4.772067996993996e-06,0.0,0.0,-0.0008991871335480227,-4.351620502850856e-09,0.0,0.0,0,0,0,0
1707469108,30995743,base_link,1.8327286653124073e-06,0.0,0.0,-0.0006626270658429997,-2.6171644190029193e-09,0.0,0.0,0,0,0,0
1707469108,41017144,base_link,-7.540970865832599e-06,0.0,0.0,-0.000749615572945971,-3.3509785327893682e-09,0.0,0.0,0,0,0,0
1707469108,51025693,base_link,0.0,0.0,0.0,0.0005616603789014058,0.0,0.0,0.0,0,0,0,0
1707469108,61024674,base_link,8.846649153820218e-06,0.0,0.0,-0.001463038752084112,-0.21470019762197343,0.0,0.0,0,0,0,0
1707469108,70961634,base_link,2.844452267931779e-06,0.0,0.0,-0.0009894970788117425,-5.269626849033955e-09,0.0,0.0,0,0,0,0
1707469108,81003639,base_link,6.631015434270328e-06,0.0,0.0,-0.00045476136433421116,-1.2176808788687537e-10,0.0,0.0,0,0,0,0
1707469108,91090763,base_link,-2.1651088892653388e-06,0.0,0.0,-0.0005892767700401481,-1.9521513023427258e-09,0.0,0.0,0,0,0,0
1707469108,101036872,base_link,0.0,0.0,0.0,-0.00024071159095774553,0.0,0.0,0.0,0,0,0,0
1707469108,111018253,base_link,3.071384070016458e-06,0.0,0.0,0.0003308785868140384,1.2738452252756454e-09,0.0,0.0,0,0,0,0
1707469108,121048105,base_link,1.2205134419943586e-05,0.0,0.0,-0.001711130547471383,-0.2147001953194808,0.0,0.0,0,0,0,0
1707469108,131038495,base_link,-4.094688728950553e-07,0.0,0.0,-0.0015353794353332373,-1.4747604399577076e-08,0.0,0.0,0,0,0,0
1707469108,141040898,base_link,2.8568557899756525e-06,0.0,0.0,-0.0009458335009010132,-4.645999346155585e-09,0.0,0.0,0,0,0,0
1707469108,150981699,base_link,0.0,0.0,0.0,0.00024071159095774553,0.0,0.0,0.0,0,0,0,0
1707469108,160965315,base_link,1.1458191505114712e-05,0.0,0.0,-0.0011766609781553063,-0.21470019647926858,0.0,0.0,0,0,0,0
1707469108,171013536,base_link,4.793476765866552e-07,0.0,0.0,-0.0011334260383663683,-7.983733533197575e-09,0.0,0.0,0,0,0,0
1707469108,181023901,base_link,3.795423820271943e-06,0.0,0.0,-0.000560825186096963,-6.675265969747608e-10,0.0,0.0,0,0,0,0
1707469108,191025117,base_link,2.237116001297903e-06,0.0,0.0,-0.0004325967863527743,-1.1566515806881536e-09,0.0,0.0,0,0,0,0
1707469108,201051756,base_link,0.0,0.0,0.0,0.0008023719698591513,0.0,0.0,0.0,0,0,0,0
1707469108,211016514,base_link,1.9129015578078493e-05,0.0,0.0,-0.00040067543515477926,-0.214700208438941,0.0,0.0,0,0,0,0
1707469108,221048392,base_link,1.748522225540354e-05,0.0,0.0,-0.0002709888457150875,-3.9523349240181044e-10,0.0,0.0,0,0,0,0
1707469108,231098917,base_link,9.578276327771776e-06,0.0,0.0,-0.0004741131627779642,-1.072308370549168e-09,0.0,0.0,0,0,0,0
1707469108,241044468,base_link,8.260905950155342e-06,0.0,0.0,-0.00036571082592912326,-8.2663089538022e-10,0.0,0.0,0,0,0,0
1707469108,251037303,base_link,0.0,0.0,0.0,0.0,0.0,0.0,0.0,0,0,0,0
1707469108,261014702,base_link,0.0,0.0,0.0,0.0,0.0,0.0,0.0,0,0,0,0
1707469108,271039665,base_link,0.0,0.0,0.0,0.0,0.0,0.0,0.0,0,0,0,0
1707469108,281029357,base_link,0.0,0.0,0.0,0.0,0.0,0.0,0.0,0,0,0,0
1707469108,291021144,base_link,-7.532524005938674e-06,0.0,0.0,-0.0002384930500352462,0.0,0.0,0.0,0,0,0,0
1707469108,300998334,base_link,0.0,0.0,0.0,-0.00024071159095774553,0.0,0.0,0.0,0,0,0,0
1707469108,311002483,base_link,-1.3798971497250655e-06,0.0,0.0,-0.00013353843440371623,-5.2545470838014996e-11,0.0,0.0,0,0,0,0
1707469108,320988753,base_link,4.22378109796632e-06,0.0,0.0,0.0002472987622861516,4.753316358479151e-10,0.0,0.0,0,0,0,0
1707469108,331026148,base_link,2.092890767161188e-05,0.0,0.0,-0.0015581468591737374,-0.21470019534601942,0.0,0.0,0,0,0,0
1707469108,341030996,base_link,2.4131968901187017e-05,0.0,0.0,-0.000963395450131406,-4.845352850702126e-09,0.0,0.0,0,0,0,0
1707469108,350994496,base_link,0.0,0.0,0.0,0.00024071159095774553,0.0,0.0,0.0,0,0,0,0
1707469108,360994036,base_link,7.0069103281271184e-06,0.0,0.0,-0.001641077966996298,-0.2147001951528779,0.0,0.0,0,0,0,0
1707469108,371043444,base_link,-5.8772293863618016e-06,0.0,0.0,-0.0014475252222484229,-1.3011151438374497e-08,0.0,0.0,0,0,0,0
1707469108,381008202,base_link,-1.0609021760197752e-05,0.0,0.0,-0.0010667071766125356,-6.782394658159942e-09,0.0,0.0,0,0,0,0
1707469108,391125917,base_link,-1.3572971425269646e-05,0.0,0.0,-0.0008228127064960813,-4.184445568460865e-09,0.0,0.0,0,0,0,0
1707469108,400968099,base_link,0.0,0.0,0.0,0.0,0.0,0.0,0.0,0,0,0,0
1707469108,410947524,base_link,0.0,0.0,0.0,0.0,0.0,0.0,0.0,0,0,0,0
